~Version ---------------------------------------------------
VERS. 2.0 : CWLS LOG ASCII STANDARD - VERSION 2.0
WRAP. NO  : One line per depth step
DLM . SPACE : Column Data Section Delimiter
~Well ------------------------------------------------------
STRT.F           40 : START DEPTH
STOP.F       1284.0 : STOP DEPTH
STEP.F          0.5 : STEP
NULL.       -999.25 : NULL VALUE
COMP.                 WALSH & WATTS, INC. : COMPANY
WELL.                         HOWARD G 17 : WELL
FLD .             MONTAGUE COUNTY REGULAR : FIELD
CNTY.                            MONTAGUE : COUNTY
STAT.                               TEXAS : STATE
CTRY.                                 USA : COUNTRY
SEC .                                     : SECTION
TWP .                                     : TOWNSHIP
RGE .                                     : RANGE
LOC . 520'FNL & 4250'FEL OF THE J.CHAMBLIS SURVEY, A-123 : LOCATION
EKB .F                      519 : ELEVATION KELLY BUSHING
EDF .F                      518 : ELEVATION DERRICK FLOOR
EGL .F                      512 : ELEVATION GROUND LEVEL
PDAT.                        GL : PERMANENT DATUM
EPD .                       512 : ELEVATION PERMANENT DATUM
APD .                         7 : ABOVE PERMANENT DATUM
LMF .                        KB : LOG MEASURED FROM
DMF .                        KB : DRILLING MEASURED FROM
API .            42337343900000 : API NUMBER
UWI .                           : UWI NUMBER
DIGC.                     NthDS : DIGITIZING COMPANY
~Params ----------------------------------------------------
SRVC. PIONEER WIRELINE SERVICES : LOGGING COMPANY
LOG .                      DIFL : LOG
DATE.                2010-10-13 : RUN DATE
RUN .                         1 : RUN NUMBER
TDD .F                     1298 : TOTAL DEPTH DRILLER
TDL .F                     1280 : TOTAL DEPTH LOGGER
BOTL.F                     1280 : BOTTOM LOGGED INTERVAL
TOPL.F                       50 : TOP LOGGED INTERVAL
CSGS.IN                         : CASING SIZE
CSGD.F                          : CASING DRILLER
CSGL.F                          : CASING LOGGER
BS  .IN                   7.875 : BIT SIZE
MUD .                  GEL-CHEM : MUD TYPE
MUDD.                           : MUD DENSITY
MUDV.                           : MUD VISCOSITY
PH  .                           : MUD PH
FL  .                           : FLUID LOSS
MUDS.                  FLOWLINE : SOURCE OF SAMPLE
RM  .OHMM                   3.6 : MUD RESISTIVITY
RMT .DEGF                    72 : RM TEMPERATURE
RMF .OHMM                   2.7 : MUD FILTRATE RESISTIVITY
RMFT.DEGF                    72 : RMF TEMPERATURE
RMC .OHMM                   4.5 : MUD CAKE RESISTIVITY
RMCT.DEGF                    72 : RMC TEMPERATURE
RMFS.                      CALC : RMF SOURCE
RMCS.                      CALC : RMC SOURCE
RMBH.OHMM                   3.0 : MUD RESISTIVITY AT BHT
BHT .DEGF                    85 : BOTTOM HOLE TEMPERATURE
TIMC.           0245 2010-10-13 : TIME CIRCULATION STOPPED
TIML.           0540 2010-10-13 : TIME LOGGER ON BOTTOM
TMAX.DEGF                    85 : MAXIMUM RECORDED TEMPERATURE
UNIT.                      M-19 : EQUIPMENT NUMBER
BASE.             GRAHAM, TEXAS : BASE LOCATION
ENG .                    WENDEL : RECORDED BY
WIT .           WOMBLE/BURLESON : WITNESSED BY
~Curve Information -----------------------------------------
DEPT.F          :DEPTH
CILD.MMHO       :
GRR.GAPI        :
RILD.OHMM       :
RILM.OHMM       :
RSFL.OHMM       :
SP.MV           :
~ASCII ------------------------------------------------------
# ...
201.00000      227.45535       49.53303        4.44328        3.79672        7.17792      153.67046
201.50000      226.69382       60.11101        4.42546        3.92003        6.63738      155.14006
202.00000      225.68285       73.48017        4.42169        4.08747        6.64466      156.82112
202.50000      224.92794       85.47356        4.52270        4.25142        7.09883      158.29337
203.00000      216.69133       94.34470        4.64068        4.44680        7.71678      159.88984
203.50000      204.32979       95.38545        4.79374        4.62517        7.83751      161.27751
204.00000      191.96826       89.45219        4.98421        4.83801        8.48766      162.86341
204.50000      185.94002       84.68060        5.18224        5.06034        9.44188      163.70130
205.00000      183.07842       84.28413        5.36197        5.26332        8.61049      164.40438
205.50000      180.21020       87.44206        5.57501        5.46612        9.68878      164.75328
206.00000      175.09618       93.60131        5.76836        5.63816       10.81878      164.38588
206.50000      168.86257       96.58875        5.99755        5.84151       10.77081      164.01848
207.00000      163.84792       98.57113        6.10215        6.02536       10.52641      163.63786
207.50000      161.30432      101.21364        6.13530        6.17841       10.46953      163.03257
208.00000      158.75409      101.43170        6.16864        6.22674       10.75508      162.60438
208.50000      158.16480       99.84580        6.19800        6.26935       11.05582      162.26870
209.00000      157.57550       96.37664        6.23167        6.29420       11.16268      161.97530
209.50000      156.98621       93.76584        6.26134        6.16939       11.12876      161.63698
210.00000      155.73444       91.65263        6.35852        6.02940       11.11927      161.34359
210.50000      154.15143       89.38677        6.47849        6.05220       11.05179      161.00790
211.00000      150.84597       88.32422        6.61841        6.19800       10.78590      160.82288
211.50000      147.54052       87.11100        6.76137        6.50734       10.62945      160.70394
212.00000      144.23506       85.77091        6.88935        6.82173       10.27317      160.70658
212.50000      140.92961       84.58149        7.02573        7.21472       11.26166      161.42553
213.00000      138.35288       88.58193        7.11570        7.57711       13.56366      162.14711
213.50000      135.77615       93.65087        7.21911        7.57711       13.58680      162.77619
214.00000      133.19942       99.06672        7.31156        7.57711       12.64189      163.49513
214.50000      133.00993       99.80615        7.41782        7.57711       12.23230      164.12685
215.00000      133.67934      100.55153        7.39933        7.32760       12.19215      164.84579
215.50000      137.66115      100.93611        7.20243        7.11613       11.95037      165.46165
216.00000      141.64296      101.37620        6.98352        6.88180       11.58855      166.16737
216.50000      145.62477      100.13919        6.79769        6.68279       11.25549      166.78323
217.00000      146.29418       98.41452        6.72115        6.49033       10.72043      167.21143
217.50000      146.96360       96.90593        6.84711        6.33418       10.27317      167.50218
218.00000      144.48624       96.30527        6.99415        6.37907        9.98520      167.83786
218.50000      142.00889       95.14162        7.14391        6.65437       10.63787      168.12861
219.00000      138.09395       93.62906        7.27781        6.93986       11.55193      168.46165
219.50000      131.31049       92.11452        7.49316        7.38852       12.43730      168.48808
220.00000      126.79038       92.11452        7.84849        7.80466       13.27366      168.41936
220.50000      117.74355       89.69206        8.27490        8.30872       16.20053      168.34006
221.00000      111.23833       86.64911        8.66677        8.77668       17.78424      168.25284
221.50000      105.28296       85.67179        9.13763        9.34409       17.66124      168.00966
222.00000       99.32759       88.34800        9.63407        9.97912       16.41697      167.79821
222.50000       94.28644       91.02422       10.09031       10.57974       15.82811      167.55768
223.00000       91.08698       89.70792       10.63851       11.31044       17.26260      167.34623
223.50000       87.88090       85.09690       11.08143       11.99119       18.62077      167.26165
224.00000       84.68144       79.27862       11.55615       12.79053       20.06991      167.32773
224.50000       81.47536       70.95263       11.98827       13.34740       21.85554      167.40438
225.00000       78.07715       63.66739       12.50183       14.01357       22.17182      167.47046
225.50000       74.67233       58.44184       13.03740       14.58989       22.04664      167.75328
226.00000       72.66533       54.25109       13.40277       15.07568       22.18127      168.10482
226.50000       71.34731       51.47576       13.80862       15.40036       22.71424      168.25812
227.00000       70.02929       48.30396       14.17402       15.68995       23.53635      168.19997
227.50000       68.71127       47.61607       14.60322       16.15227       23.33944      168.14711
228.00000       67.39325       47.78259       14.80284       16.58474       23.02752      168.08632
228.50000       66.69134       47.58634       14.94773       17.01324       23.10053      168.03345
229.00000       66.30079       45.02510       14.76324       16.89454       23.80004      167.93301
229.50000       67.69231       42.92577       14.50841       16.55044       23.80004      167.83257
230.00000       69.08382       41.26652       14.22329       15.56058       23.37641      167.71627
230.50000       70.47534       40.22577       13.98374       14.78482       20.61480      167.61848
231.00000       71.86686       38.21762       13.74404       14.11890       17.85585      167.50218
231.50000       73.25838       36.72489       13.53726       13.70811       16.67383      166.98676
232.00000       74.65652       35.41850       13.30521       13.72481       16.82167      166.48456
232.50000       76.04804       36.23920       13.07635       13.90141       17.66124      165.91099
233.00000       76.97351       37.03215       12.87178       13.99481       18.31830      165.41143
233.50000       78.83107       38.93722       12.64266       13.91919       18.31830      164.83786
234.00000       80.22259       42.58281       12.44488       13.85325       18.31830      164.33566
234.50000       81.61411       48.50220       12.22262       13.23332       17.87760      163.76209
235.00000       83.60848       52.70087       12.03214       12.64959       17.94739      163.25989
235.50000       85.60285       55.44052       11.81725       11.52313       17.20175      163.17795
236.00000       87.10037       60.07929       11.64442       10.89413       13.71813      163.10658
236.50000       87.60416       65.94713       11.49580       10.66965       11.18718      163.02729
237.00000       88.10796       71.22025       11.32767       10.72762       12.48282      163.05372
237.50000       90.40045       74.89558       11.18241       10.77868       13.97098      163.16738
238.00000       93.58728       77.16144       11.01887       10.83724       15.44731      163.28103
238.50000       93.34248       80.41849       10.85177       10.88883       15.51990      163.38147
239.00000       93.10430       83.27312       10.59069       10.94732       13.92173      163.49513
239.50000       93.49547       83.43567       10.33590       11.01015       13.05805      163.58235
240.00000       95.15861       82.55549        9.97366       10.91803       13.97098      163.67751
240.50000       98.35207       81.97069        9.51227       10.12415       14.98418      163.75945
