~Version ---------------------------------------------------
VERS. 2.0 : CWLS LOG ASCII STANDARD - VERSION 2.0
WRAP. NO  : One line per depth step
DLM . SPACE : Column Data Section Delimiter
~Well ------------------------------------------------------
STRT.F         48.5 : START DEPTH
STOP.F       1449.0 : STOP DEPTH
STEP.F          0.5 : STEP
NULL.       -999.25 : NULL VALUE
COMP.                 WALSH & WATTS, INC. : COMPANY
WELL.                         HOWARD F 14 : WELL
FLD .             MONTAGUE COUNTY REGULAR : FIELD
CNTY.                            MONTAGUE : COUNTY
STAT.                               TEXAS : STATE
CTRY.                                 USA : COUNTRY
SEC .                                     : SECTION
TWP .                                     : TOWNSHIP
RGE .                                     : RANGE
LOC . 1430'FEL & 2600'FSL OF THE J.CHAMBLIS SURVEY A-123 : LOCATION
EKB .F                      849 : ELEVATION KELLY BUSHING
EDF .F                      848 : ELEVATION DERRICK FLOOR
EGL .F                      841 : ELEVATION GROUND LEVEL
PDAT.                        GL : PERMANENT DATUM
EPD .                       841 : ELEVATION PERMANENT DATUM
APD .                         8 : ABOVE PERMANENT DATUM
LMF .                        KB : LOG MEASURED FROM
DMF .                        KB : DRILLING MEASURED FROM
API .            42337351020000 : API NUMBER
UWI .                           : UWI NUMBER
DIGC.                     NthDS : DIGITIZING COMPANY
~Params ----------------------------------------------------
SRVC. PIONEER WIRELINE SERVICES : LOGGING COMPANY
LOG .                      DIFL : LOG
DATE.                2013-08-01 : RUN DATE
RUN .                         1 : RUN NUMBER
TDD .F                     1450 : TOTAL DEPTH DRILLER
TDL .F                     1449 : TOTAL DEPTH LOGGER
BOTL.F                     1449 : BOTTOM LOGGED INTERVAL
TOPL.F                       50 : TOP LOGGED INTERVAL
CSGS.IN                         : CASING SIZE
CSGD.F                          : CASING DRILLER
CSGL.F                          : CASING LOGGER
BS  .IN                   7.875 : BIT SIZE
MUD .                       GEL : MUD TYPE
MUDD.                       9.2 : MUD DENSITY
MUDV.                        75 : MUD VISCOSITY
PH  .                           : MUD PH
FL  .                           : FLUID LOSS
MUDS.                  FLOWLINE : SOURCE OF SAMPLE
RM  .OHMM                   2.8 : MUD RESISTIVITY
RMT .DEGF                    72 : RM TEMPERATURE
RMF .OHMM                   2.1 : MUD FILTRATE RESISTIVITY
RMFT.DEGF                    72 : RMF TEMPERATURE
RMC .OHMM                   3.5 : MUD CAKE RESISTIVITY
RMCT.DEGF                    72 : RMC TEMPERATURE
RMFS.                      CALC : RMF SOURCE
RMCS.                      CALC : RMC SOURCE
RMBH.OHMM                   2.3 : MUD RESISTIVITY AT BHT
BHT .DEGF                    87 : BOTTOM HOLE TEMPERATURE
TIMC.           0130 2018-08-01 : TIME CIRCULATION STOPPED
TIML.           0400 2018-08-01 : TIME LOGGER ON BOTTOM
TMAX.DEGF                    87 : MAXIMUM RECORDED TEMPERATURE
UNIT.                     C-052 : EQUIPMENT NUMBER
BASE.                GRAHAM, TX : BASE LOCATION
ENG .                    WENDEL : RECORDED BY
WIT .                  BURLESON : WITNESSED BY
~Curve Information -----------------------------------------
DEPT.F          :DEPTH
CILD.MMHO       :
GRR.GAPI        :
RILD.OHMM       :
RILM.OHMM       :
RSFL.OHMM       :
SP.MV           :
~ASCII ------------------------------------------------------
# ...
329.50000      115.10223       94.78020        8.90725        8.90499        9.46093      166.10234
330.00000      113.27707       99.45053        9.15703        9.15780       10.00075      166.16815
330.50000      109.61874      103.57141        9.41382        9.41699       10.97139      166.23397
331.00000      105.96041      104.39558        9.63330        9.63899       11.25055      166.28515
331.50000      104.13925      106.54668        9.90344        9.91180       11.93268      166.35097
332.00000      104.14725      110.85162        9.96482       10.06025       12.65654      166.25956
332.50000      104.15525      114.43953        9.90357        9.94543       12.13175      166.15718
333.00000      104.16324      117.03294        9.85296        9.76774       11.72755      166.03653
333.50000      105.09182      116.34613        9.68644        9.49394       11.52935      165.93415
334.00000      106.01640      116.64008        9.41968        9.22781       11.52731      165.81349
334.50000      108.77415      118.73624        9.20313        9.01111       11.23764      165.69283
335.00000      111.53189      121.62085        8.94969        8.75852       10.77136      165.45883
335.50000      116.12680      123.35162        8.70322        8.51301       10.77010      164.16815
336.00000      117.05138      120.87909        8.50314        8.53260       10.85940      164.53378
336.50000      117.05937      114.83514        8.50164        8.73717       10.58620      164.16815
337.00000      112.48847      109.06591        8.56877        8.91076       10.06233      163.80252
337.50000      109.74672      105.21976        8.99071        9.22889        8.35672      163.07126
338.00000      107.00497      101.92305        9.43264        9.59338        7.55098      162.34000
338.50000      103.34665      100.27470        9.81759       10.11173       13.06271      161.97437
339.00000      100.60490       98.90108       10.28974       10.98666       16.12664      160.87748
339.50000       95.11741       98.90108       10.68982       11.77266       15.98837      160.51185
340.00000       92.37567       99.17580       11.57760       12.21870       14.56917      159.78059
340.50000       90.55050       98.35163       11.79767       12.10000       15.45296      159.41496
341.00000       88.72534       98.62635       11.54655       11.50087       17.09585      158.68369
341.50000       93.32024      100.27470       10.82954       10.93141       16.38747      158.68369
342.00000       96.99457      104.12086       10.26675       10.47846       14.43745      157.58680
342.50000      102.50205      107.96701        9.62921        9.95962       11.99025      157.58680
343.00000      108.01354      108.51646        9.20119        9.54693       10.04250      157.22117
343.50000      111.68787      104.12086        8.85944        9.07422        8.87964      156.85554
344.00000      116.27877       99.45053        8.46563        8.62491        8.92086      156.12428
344.50000      119.03651       91.48350        8.35515        8.47939        9.38254      156.12428
345.00000      119.04851       90.38460        8.38898        8.53817        9.62128      155.75865
345.50000      118.13993       88.18679        8.50719        8.65922        9.37923      155.02739
346.00000      116.31477       87.63734        8.67988        8.76152        9.69963      155.02739
346.50000      113.57302       88.18679        8.89098        8.88573       10.64072      154.66176
347.00000      110.83527       91.48350        9.07069        8.98995       11.47821      153.93050
347.50000      109.01011       94.50547        9.29443        9.11740       12.59187      153.56486
348.00000      106.26836       97.52745        9.49109        9.46763       13.02201      153.19923
348.50000      102.61004      100.54943        9.73259        9.80841       11.96662      152.46797
349.00000       98.03913      102.19778       10.04780       10.23340       10.22132      152.10234
349.50000       93.46422       99.17580       10.61247       10.65103        9.47275      151.37108
350.00000       90.73520       96.97800       11.38035       11.49720       10.79910      151.37108
350.50000       88.91003       91.75822       11.54900       12.04997       13.73455      150.91572
351.00000       86.17229       82.69229       11.75548       12.74785       24.58753      150.18312
351.50000       83.43054       78.29669       12.06098       13.48615       24.37724      149.45052
352.00000       79.77222       78.02196       12.48496       13.72767       18.60308      149.08422
352.50000       77.94705       78.84614       13.01544       13.76818       15.44716      149.08422
353.00000       77.95505       79.94504       13.31467       13.58375       15.05864      148.71792
353.50000       80.71679       82.14284       12.92473       13.36524       15.31234      148.71792
354.00000       82.55795       83.24174       12.54621       13.15136       15.43943      148.71792
354.50000       84.39912       83.79119       12.23891       12.96534       16.10271      148.71792
355.00000       86.24028       86.35438       11.88048       12.74602       15.17601      148.71792
355.50000       87.16886       89.51372       11.77554       12.53040       13.36860      147.61901
356.00000       89.01002       88.53020       11.68863       12.35421       13.14284      148.35161
356.50000       89.93460       82.96701       11.58637       12.14522       14.05863      147.98531
357.00000       89.94260       78.29669       11.48403       12.02916       13.47518      147.98531
357.50000       89.95060       73.35163       11.39927       11.93600       12.80774      147.61901
358.00000       89.96259       68.68130       11.29858       11.84356       14.53419      147.25271
358.50000       89.97059       69.78020       11.37347       11.76707       14.90479      147.25271
359.00000       89.06201       70.60438       11.51152       11.88478       14.77688      147.25271
359.50000       88.15343       76.64833       11.65222       12.00367       14.65007      147.25271
360.00000       87.24884       80.21976       11.77012       12.10365       14.40267      147.25271
360.50000       87.25684       84.34064       11.91398       12.22473       14.76948      147.25271
361.00000       86.34826       93.68130       12.03453       12.32655       14.27696      146.88641
361.50000       86.35626       98.07690       12.04460       12.44986       14.03545      147.25271
362.00000       86.36426       98.62635       12.02621       12.67458       14.27192      147.61901
362.50000       86.37626       96.97800       12.01227       12.88306       13.91295      147.61901
363.00000       86.38425       92.03295       11.99494       13.13665       14.63324      147.98531
363.50000       85.47567       90.38460       11.97765       13.25799       15.13359      147.98531
364.00000       86.40025       90.38460       11.96275       13.30312       15.13091      148.35161
364.50000       87.32883       94.43130       11.94650       13.21012       14.87495      148.35161
365.00000       89.16999       97.92580       11.75270       13.01338       14.50082      148.71792
365.50000       91.01115       97.84064       11.47127       12.78029       14.74513      149.08422
366.00000       91.93574       89.72525       11.19753       12.66420       14.74252      149.45052
366.50000       93.77690       79.07416       11.06247       12.66233       14.01231      149.45052
367.00000       92.87231       61.53845       11.06052       12.76419       12.34349      149.45052
367.50000       92.88031       51.09889       11.05856       12.89225       11.15231      149.57872
368.00000       93.80489       42.58241       11.05693       13.04873       11.34054      149.83513
368.50000       93.81289       39.83516       11.02981       13.20711       15.62708      150.09154
369.00000       94.74147       38.18680       10.90505       13.34074       34.55012      150.30400
