~Version ---------------------------------------------------
VERS. 2.0 : CWLS LOG ASCII STANDARD - VERSION 2.0
WRAP. NO  : One line per depth step
DLM . SPACE : Column Data Section Delimiter
~Well ------------------------------------------------------
STRT.F           40 : START DEPTH
STOP.F       1284.0 : STOP DEPTH
STEP.F          0.5 : STEP
NULL.       -999.25 : NULL VALUE
COMP.                 WALSH & WATTS, INC. : COMPANY
WELL.                         HOWARD G 17 : WELL
FLD .             MONTAGUE COUNTY REGULAR : FIELD
CNTY.                            MONTAGUE : COUNTY
STAT.                               TEXAS : STATE
CTRY.                                 USA : COUNTRY
SEC .                                     : SECTION
TWP .                                     : TOWNSHIP
RGE .                                     : RANGE
LOC . 520'FNL & 4250'FEL OF THE J.CHAMBLIS SURVEY, A-123 : LOCATION
EKB .F                      519 : ELEVATION KELLY BUSHING
EDF .F                      518 : ELEVATION DERRICK FLOOR
EGL .F                      512 : ELEVATION GROUND LEVEL
PDAT.                        GL : PERMANENT DATUM
EPD .                       512 : ELEVATION PERMANENT DATUM
APD .                         7 : ABOVE PERMANENT DATUM
LMF .                        KB : LOG MEASURED FROM
DMF .                        KB : DRILLING MEASURED FROM
API .            42337343900000 : API NUMBER
UWI .                           : UWI NUMBER
DIGC.                     NthDS : DIGITIZING COMPANY
~Params ----------------------------------------------------
SRVC. PIONEER WIRELINE SERVICES : LOGGING COMPANY
LOG .                      DIFL : LOG
DATE.                2010-10-13 : RUN DATE
RUN .                         1 : RUN NUMBER
TDD .F                     1298 : TOTAL DEPTH DRILLER
TDL .F                     1280 : TOTAL DEPTH LOGGER
BOTL.F                     1280 : BOTTOM LOGGED INTERVAL
TOPL.F                       50 : TOP LOGGED INTERVAL
CSGS.IN                         : CASING SIZE
CSGD.F                          : CASING DRILLER
CSGL.F                          : CASING LOGGER
BS  .IN                   7.875 : BIT SIZE
MUD .                  GEL-CHEM : MUD TYPE
MUDD.                           : MUD DENSITY
MUDV.                           : MUD VISCOSITY
PH  .                           : MUD PH
FL  .                           : FLUID LOSS
MUDS.                  FLOWLINE : SOURCE OF SAMPLE
RM  .OHMM                   3.6 : MUD RESISTIVITY
RMT .DEGF                    72 : RM TEMPERATURE
RMF .OHMM                   2.7 : MUD FILTRATE RESISTIVITY
RMFT.DEGF                    72 : RMF TEMPERATURE
RMC .OHMM                   4.5 : MUD CAKE RESISTIVITY
RMCT.DEGF                    72 : RMC TEMPERATURE
RMFS.                      CALC : RMF SOURCE
RMCS.                      CALC : RMC SOURCE
RMBH.OHMM                   3.0 : MUD RESISTIVITY AT BHT
BHT .DEGF                    85 : BOTTOM HOLE TEMPERATURE
TIMC.           0245 2010-10-13 : TIME CIRCULATION STOPPED
TIML.           0540 2010-10-13 : TIME LOGGER ON BOTTOM
TMAX.DEGF                    85 : MAXIMUM RECORDED TEMPERATURE
UNIT.                      M-19 : EQUIPMENT NUMBER
BASE.             GRAHAM, TEXAS : BASE LOCATION
ENG .                    WENDEL : RECORDED BY
WIT .           WOMBLE/BURLESON : WITNESSED BY
~Curve Information -----------------------------------------
DEPT.F          :DEPTH
CILD.MMHO       :
GRR.GAPI        :
RILD.OHMM       :
RILM.OHMM       :
RSFL.OHMM       :
SP.MV           :
~ASCII ------------------------------------------------------
# ...
121.00000      246.38845       50.64317        4.17245        3.71668        9.43383      144.34007
121.50000      232.10249       54.09250        4.38069        3.87849        9.54940      145.11980
122.00000      216.24313       56.86387        4.68268        4.09693       10.01259      145.80174
122.50000      198.56575       57.84713        5.24158        4.62742       10.19528      146.48368
123.00000      184.35681       56.96101        5.86753        5.70375       11.75554      147.37707
123.50000      163.04341       56.62995        6.76301        6.84920       14.34155      148.38940
124.00000      143.01914       59.68876        7.95529        8.69848       18.11866      149.27487
124.50000      125.57314       63.76651        9.16939       10.81483       21.66345      150.28456
125.00000      108.12714       69.14470       10.78590       13.39625       25.91754      151.17002
125.50000       90.68115       72.45528       11.75268       15.65560       29.09578      152.18235
126.00000       85.39931       75.04624       12.66886       17.60756       29.37343      153.06517
126.50000       80.11747       76.85021       13.61413       18.50550       29.69166      153.72597
127.00000       74.83563       74.23743       13.98119       18.76987       28.96676      154.48191
127.50000       72.85926       71.95175       14.30405       18.88449       27.54444      155.14271
128.00000       71.54400       71.12906       13.87519       18.23707       28.72266      155.52861
128.50000       71.55092       73.45439       13.51092       16.84216       28.39579      155.79293
129.00000       74.20453       75.80748       13.19470       15.37881       24.53566      156.02553
129.50000       76.19474       78.49558       12.92439       14.20253       23.48339      156.05460
130.00000       78.18495       81.97664       12.62267       13.09387       20.84195      155.95945
130.50000       80.17516       86.16739       12.32724       12.42444       17.70430      155.85108
131.00000       82.16537       86.16739       12.13809       12.06441       17.11088      155.74271
131.50000       84.15558       86.16739       12.02042       11.83165       16.29747      155.65020
132.00000       82.77420       85.31695       12.18250       12.01677       17.05576      155.43081
132.50000       81.39282       83.83016       12.57818       12.75942       17.84824      155.14271
133.00000       80.01145       81.70704       13.04613       13.99652       18.54271      154.81231
133.50000       77.15583       79.16959       13.61993       15.17698       22.81680      154.48456
134.00000       73.57300       75.97796       14.33806       16.80939       28.91918      154.19645
134.50000       69.98356       68.72246       15.09313       18.54271       34.67611      153.86870
135.00000       66.39413       63.32642       15.78673       19.70668       38.97108      153.58059
135.50000       62.80469       61.07048       16.61809       20.19247       37.00568      153.25020
136.00000       60.20029       62.63457       16.71957       19.98334       33.78423      152.92244
136.50000       59.54612       67.17620       16.83601       19.43384       30.41989      152.63434
137.00000       58.89194       69.94757       16.88323       19.07863       25.88600      152.30658
137.50000       58.64765       72.11232       16.73994       18.86611       23.44054      152.01848
138.00000       59.21650       75.36343       16.62416       18.59245       24.46108      151.76738
138.50000       59.79197       79.48083       16.64644       18.15178       25.29401      151.56121
139.00000       60.36743       80.79316       16.67180       17.66124       22.48584      151.38147
139.50000       60.93629       77.44492       16.69719       17.74747       24.88618      151.17795
140.00000       61.70578       77.57179       16.71957       17.50069       28.05214      150.99821
140.50000       62.27463       78.48567       17.09838       17.07966       27.28241      150.79469
141.00000       61.35602       80.17069       17.48472       17.28889       22.80708      150.58852
141.50000       59.68376       80.28171       17.83086       17.55404       21.72289      150.41143
142.00000       58.01150       78.32906       18.23374       18.92017       26.82782      150.30835
142.50000       56.33924       75.15131       18.52128       20.20231       28.39579      150.30835
143.00000       55.13636       71.95968       18.35291       21.77320       33.02367      150.30835
143.50000       54.85901       70.97444       18.18607       22.46258       36.89320      150.38500
144.00000       54.58167       71.07356       18.04161       22.46258       38.38243      150.64932
144.50000       55.32902       71.99338       17.87760       20.56466       38.85263      150.95064
145.00000       56.08298       75.66078       18.23152       18.61850       33.46896      151.21495
145.50000       55.59408       80.39867       18.64346       17.37330       21.67929      151.42641
146.00000       52.62607       82.93016       19.06586       17.63975       17.44750      151.54535
146.50000       52.93710       77.20307       19.44212       19.04614       20.84448      151.65108
147.00000       53.24813       67.51122       19.89957       20.66883       28.22344      151.77002
147.50000       53.55915       59.03061       20.41994       21.41692       30.34591      151.87310
148.00000       53.87679       52.59581       21.02931       22.30314       31.02589      151.99469
148.50000       52.21775       46.62488       21.65818       23.21191       31.11101      152.11363
149.00000       49.58029       42.38656       22.22318       24.03154       31.02967      152.28015
149.50000       46.94284       37.99559       22.88775       25.00464       30.92218      152.52068
150.00000       42.92566       36.60793       23.30536       25.81675       31.11101      152.73213
150.50000       42.05382       35.15881       23.51630       26.27821       31.24197      152.97531
151.00000       42.06075       34.67114       23.72770       26.74791       30.77756      153.21583
151.50000       42.06769       34.87334       23.91478       26.95388       31.20586      152.94623
152.00000       42.07463       37.51982       24.12977       26.59203       33.73285      152.63434
152.50000       42.08156       40.01762       24.20923       26.27981       34.32952      152.36473
153.00000       42.08850       43.22907       24.13271       25.14049       33.27797      152.05548
153.50000       42.09544       47.51101       24.05496       23.94538       32.15276      151.74623
154.00000       42.10238       47.68546       23.98915       24.11508       30.99380      151.35769
154.50000       42.10931       44.44427       23.91187       24.86801       29.63207      150.81584
155.00000       42.11625       41.17929       23.84500       25.44848       30.61870      150.34006
155.50000       42.12319       39.05220       23.76963       25.44848       31.63241      149.79821
156.00000       42.13013       37.89052       23.70316       25.44848       32.12536      149.25372
156.50000       42.13706       39.58149       23.72337       25.44848       32.92932      148.78059
157.00000       42.14400       43.46696       23.90605       25.44848       33.40179      148.23610
157.50000       41.68058       47.07488       24.06522       25.44848       33.59144      147.76033
158.00000       41.22378       50.99405       24.25053       25.44848       33.03775      147.21848
158.50000       40.76036       54.84581       24.41348       25.44848       32.17038      146.67663
159.00000       40.30356       57.93039       24.59997       25.49810       31.99459      146.23522
159.50000       39.84014       59.95043       24.78940       25.56650       33.26582      145.73830
160.00000       39.53571       59.60352       24.86801       25.62571       34.50343      145.45548
160.50000       39.54265       55.07180       24.91954       25.69289       36.36249      145.26253
