~Version ---------------------------------------------------
VERS. 2.0 : CWLS LOG ASCII STANDARD - VERSION 2.0
WRAP. NO  : One line per depth step
DLM . SPACE : Column Data Section Delimiter
~Well ------------------------------------------------------
STRT.F           40 : START DEPTH
STOP.F       1284.0 : STOP DEPTH
STEP.F          0.5 : STEP
NULL.       -999.25 : NULL VALUE
COMP.                 WALSH & WATTS, INC. : COMPANY
WELL.                         HOWARD G 17 : WELL
FLD .             MONTAGUE COUNTY REGULAR : FIELD
CNTY.                            MONTAGUE : COUNTY
STAT.                               TEXAS : STATE
CTRY.                                 USA : COUNTRY
SEC .                                     : SECTION
TWP .                                     : TOWNSHIP
RGE .                                     : RANGE
LOC . 520'FNL & 4250'FEL OF THE J.CHAMBLIS SURVEY, A-123 : LOCATION
EKB .F                      519 : ELEVATION KELLY BUSHING
EDF .F                      518 : ELEVATION DERRICK FLOOR
EGL .F                      512 : ELEVATION GROUND LEVEL
PDAT.                        GL : PERMANENT DATUM
EPD .                       512 : ELEVATION PERMANENT DATUM
APD .                         7 : ABOVE PERMANENT DATUM
LMF .                        KB : LOG MEASURED FROM
DMF .                        KB : DRILLING MEASURED FROM
API .            42337343900000 : API NUMBER
UWI .                           : UWI NUMBER
DIGC.                     NthDS : DIGITIZING COMPANY
~Params ----------------------------------------------------
SRVC. PIONEER WIRELINE SERVICES : LOGGING COMPANY
LOG .                      DIFL : LOG
DATE.                2010-10-13 : RUN DATE
RUN .                         1 : RUN NUMBER
TDD .F                     1298 : TOTAL DEPTH DRILLER
TDL .F                     1280 : TOTAL DEPTH LOGGER
BOTL.F                     1280 : BOTTOM LOGGED INTERVAL
TOPL.F                       50 : TOP LOGGED INTERVAL
CSGS.IN                         : CASING SIZE
CSGD.F                          : CASING DRILLER
CSGL.F                          : CASING LOGGER
BS  .IN                   7.875 : BIT SIZE
MUD .                  GEL-CHEM : MUD TYPE
MUDD.                           : MUD DENSITY
MUDV.                           : MUD VISCOSITY
PH  .                           : MUD PH
FL  .                           : FLUID LOSS
MUDS.                  FLOWLINE : SOURCE OF SAMPLE
RM  .OHMM                   3.6 : MUD RESISTIVITY
RMT .DEGF                    72 : RM TEMPERATURE
RMF .OHMM                   2.7 : MUD FILTRATE RESISTIVITY
RMFT.DEGF                    72 : RMF TEMPERATURE
RMC .OHMM                   4.5 : MUD CAKE RESISTIVITY
RMCT.DEGF                    72 : RMC TEMPERATURE
RMFS.                      CALC : RMF SOURCE
RMCS.                      CALC : RMC SOURCE
RMBH.OHMM                   3.0 : MUD RESISTIVITY AT BHT
BHT .DEGF                    85 : BOTTOM HOLE TEMPERATURE
TIMC.           0245 2010-10-13 : TIME CIRCULATION STOPPED
TIML.           0540 2010-10-13 : TIME LOGGER ON BOTTOM
TMAX.DEGF                    85 : MAXIMUM RECORDED TEMPERATURE
UNIT.                      M-19 : EQUIPMENT NUMBER
BASE.             GRAHAM, TEXAS : BASE LOCATION
ENG .                    WENDEL : RECORDED BY
WIT .           WOMBLE/BURLESON : WITNESSED BY
~Curve Information -----------------------------------------
DEPT.F          :DEPTH
CILD.MMHO       :
GRR.GAPI        :
RILD.OHMM       :
RILM.OHMM       :
RSFL.OHMM       :
SP.MV           :
~ASCII ------------------------------------------------------
# ...
681.00000      273.15731      104.60351        3.66410        3.70110        5.68884      164.61583
681.50000      275.61512      108.56827        3.65920        3.68760        5.48746      165.12068
682.00000      279.14616      110.20769        3.65363        3.67237        5.48746      165.20526
682.50000      282.67719      111.20681        3.64076        3.65898        5.58010      165.30041
683.00000      284.18765      111.31386        3.57204        3.61249        5.45415      165.38235
683.50000      284.68451      111.43478        3.50461        3.51615        5.45415      165.47751
684.00000      285.18137      111.42884        3.45778        3.43386        5.27455      165.57266
684.50000      284.04853      110.41584        3.48122        3.44957        5.11641      165.65460
685.00000      282.90906      107.74756        3.50184        3.46346        5.25852      165.74975
685.50000      279.55027      105.41430        3.52558        3.47931        5.46745      165.83169
686.00000      274.91289      103.68567        3.54949        3.49524        5.55164      166.02464
686.50000      269.94427      104.77003        3.59779        3.57987        5.58758      166.50834
687.00000      264.97566      105.71959        3.69569        3.69322        5.62890      166.93125
687.50000      260.00704      105.82069        3.78357        3.79533        5.66534      167.41231
688.00000      256.56213      102.38324        3.88653        3.94133        5.98879      167.83522
688.50000      256.16464       98.57708        3.93677        4.09693        6.85880      167.74270
689.00000      254.04469       97.65527        3.95214        4.09693        7.04329      167.30129
689.50000      253.09072       99.94492        3.96975        4.09693        6.40905      166.91539
690.00000      256.17789      102.56166        3.98500        4.05722        5.88793      166.44755
690.50000      259.46380      102.17311        3.96781        3.97894        5.81844      166.01143
691.00000      267.77796      100.50395        3.84792        3.90218        5.97277      165.51451
691.50000      276.08549       99.39580        3.74621        3.81758        5.86146      165.07839
692.00000      284.39964      100.54954        3.63301        3.67170        5.54556      164.58147
692.50000      291.14371      100.49007        3.53676        3.54863        5.27294      164.08456
693.00000      297.10606      100.08567        3.42989        3.41302        4.97814      163.64843
693.50000      301.74344       99.62179        3.32645        3.31493        4.94371      163.43962
694.00000      303.73088      100.24228        3.25077        3.27800        4.91221      163.33918
694.50000      305.38709      101.82818        3.25077        3.23616        4.86755      163.22288
695.00000      306.38081      105.07928        3.25077        3.23104        4.82889      163.10923
695.50000      307.37454      108.40967        3.25077        3.23104        4.90802      163.00878
696.00000      308.83862      111.34359        3.25077        3.23104        4.98815      162.99557
696.50000      310.54783      110.96496        3.25077        3.23104        5.05972      162.99557
697.00000      312.78702      108.46320        3.23734        3.20577        5.12514      163.20702
697.50000      315.56282      107.61672        3.20635        3.14775        5.07669      163.77002
698.00000      317.26540      107.08148        3.17141        3.08288        4.83536      164.44931
698.50000      318.96798      106.98236        3.13665        3.05449        4.58061      165.50658
699.00000      321.45229      105.59470        3.11173        3.04854        4.49771      166.43169
699.50000      323.93660      104.24073        3.09831        3.04187        4.51609      167.48896
700.00000      326.42091      103.52708        3.08645        3.03595        4.65143      168.41407
700.50000      328.78597      103.48545        3.07314        3.02930        4.76464      169.39469
701.00000      328.42161      102.62113        3.05970        3.02267        4.74149      169.84931
701.50000      328.06387      104.19316        3.04817        3.01679        4.69610      169.94447
702.00000      327.69950      105.99117        3.03484        3.01000        4.64464      169.19381
702.50000      328.90522      106.10615        3.02340        3.00432        4.60017      168.53830
703.00000      331.73402      106.71078        3.01018        2.98518        4.55004      167.78764
703.50000      334.98681      108.21738        2.99720        2.96453        4.65568      166.96033
704.00000      338.23960      109.71210        2.98591        2.94654        4.77045      166.03522
704.50000      341.49239      109.73192        2.97285        2.92598        4.84774      165.37442
705.00000      341.49239      107.61672        2.96165        2.90822        4.57532      165.37442
705.50000      341.49239      106.44514        2.94869        2.88811        4.35411      165.37442
706.00000      341.49239      105.60659        2.93758        2.88284        4.37563      165.37442
706.50000      341.49239      104.75219        2.92990        2.89568        4.46307      164.97795
707.00000      341.73088      103.72135        2.92723        2.90858        4.55226      164.44931
707.50000      342.09524      102.81937        2.92491        2.90769        4.63193      163.98676
708.00000      342.45299      103.41408        2.92224        2.89638        4.75247      163.43698
708.50000      342.81735      104.00879        2.91993        2.88653        5.03913      162.73125
709.00000      341.49239      106.95857        2.91727        2.87530        4.69182      162.46693
709.50000      340.16742      110.61606        2.91460        2.86412        4.40932      162.46693
710.00000      334.60257      113.85527        2.94295        2.85437        4.42277      162.46693
710.50000      319.91533      118.48016        3.06417        2.84327        4.43814      162.46693
711.00000      303.44602      117.21144        3.17450        3.00341        4.45167      162.42464
711.50000      290.11024      111.71826        3.30525        3.31069        4.54367      162.08632
712.00000      283.04818      100.24228        3.42426        3.60524        4.74149      161.74799
712.50000      275.97949       86.56386        3.56530        3.97410        6.85295      161.45196
713.00000      268.91080       77.84140        3.68491        4.05006        9.90468      160.64843
713.50000      261.84874       74.97686        3.78910        4.02450        7.34994      159.88720
714.00000      254.78005       73.67840        3.91193        3.99569        5.22660      159.01495
714.50000      253.24972       72.83788        4.02278        3.96902        5.41214      158.14535
715.00000      262.78946       72.10439        3.91765        3.92768        5.47178      157.74887
715.50000      270.14964       72.56827        3.82805        3.87849        5.38716      157.85460
716.00000      276.41673       71.73567        3.72801        3.78518        5.29159      157.94711
716.50000      282.68381       71.49779        3.63057        3.69412        5.19804      158.15592
717.00000      288.95090       71.49779        3.54755        3.61623        5.17909      158.39645
717.50000      295.61547       75.06607        3.45483        3.52924        5.14452      158.60790
718.00000      303.06840       86.08215        3.37808        3.45483        5.20279      158.84843
718.50000      310.52133       92.15417        3.29240        3.30485        5.05233      159.17090
719.00000      317.97426       98.16078        3.20889        3.16119        4.61532      160.28368
719.50000      324.26784      102.67069        3.13761        3.04076        4.26413      161.39645
720.00000      328.24274      103.03148        3.05802        2.90875        4.06662      162.28456
720.50000      335.81491      104.73038        2.99009        2.86063        4.04120      163.25989
