~Version ---------------------------------------------------
VERS. 2.0 : CWLS LOG ASCII STANDARD - VERSION 2.0
WRAP. NO  : One line per depth step
DLM . SPACE : Column Data Section Delimiter
~Well ------------------------------------------------------
STRT.F           40 : START DEPTH
STOP.F       1284.0 : STOP DEPTH
STEP.F          0.5 : STEP
NULL.       -999.25 : NULL VALUE
COMP.                 WALSH & WATTS, INC. : COMPANY
WELL.                         HOWARD G 17 : WELL
FLD .             MONTAGUE COUNTY REGULAR : FIELD
CNTY.                            MONTAGUE : COUNTY
STAT.                               TEXAS : STATE
CTRY.                                 USA : COUNTRY
SEC .                                     : SECTION
TWP .                                     : TOWNSHIP
RGE .                                     : RANGE
LOC . 520'FNL & 4250'FEL OF THE J.CHAMBLIS SURVEY, A-123 : LOCATION
EKB .F                      519 : ELEVATION KELLY BUSHING
EDF .F                      518 : ELEVATION DERRICK FLOOR
EGL .F                      512 : ELEVATION GROUND LEVEL
PDAT.                        GL : PERMANENT DATUM
EPD .                       512 : ELEVATION PERMANENT DATUM
APD .                         7 : ABOVE PERMANENT DATUM
LMF .                        KB : LOG MEASURED FROM
DMF .                        KB : DRILLING MEASURED FROM
API .            42337343900000 : API NUMBER
UWI .                           : UWI NUMBER
DIGC.                     NthDS : DIGITIZING COMPANY
~Params ----------------------------------------------------
SRVC. PIONEER WIRELINE SERVICES : LOGGING COMPANY
LOG .                      DIFL : LOG
DATE.                2010-10-13 : RUN DATE
RUN .                         1 : RUN NUMBER
TDD .F                     1298 : TOTAL DEPTH DRILLER
TDL .F                     1280 : TOTAL DEPTH LOGGER
BOTL.F                     1280 : BOTTOM LOGGED INTERVAL
TOPL.F                       50 : TOP LOGGED INTERVAL
CSGS.IN                         : CASING SIZE
CSGD.F                          : CASING DRILLER
CSGL.F                          : CASING LOGGER
BS  .IN                   7.875 : BIT SIZE
MUD .                  GEL-CHEM : MUD TYPE
MUDD.                           : MUD DENSITY
MUDV.                           : MUD VISCOSITY
PH  .                           : MUD PH
FL  .                           : FLUID LOSS
MUDS.                  FLOWLINE : SOURCE OF SAMPLE
RM  .OHMM                   3.6 : MUD RESISTIVITY
RMT .DEGF                    72 : RM TEMPERATURE
RMF .OHMM                   2.7 : MUD FILTRATE RESISTIVITY
RMFT.DEGF                    72 : RMF TEMPERATURE
RMC .OHMM                   4.5 : MUD CAKE RESISTIVITY
RMCT.DEGF                    72 : RMC TEMPERATURE
RMFS.                      CALC : RMF SOURCE
RMCS.                      CALC : RMC SOURCE
RMBH.OHMM                   3.0 : MUD RESISTIVITY AT BHT
BHT .DEGF                    85 : BOTTOM HOLE TEMPERATURE
TIMC.           0245 2010-10-13 : TIME CIRCULATION STOPPED
TIML.           0540 2010-10-13 : TIME LOGGER ON BOTTOM
TMAX.DEGF                    85 : MAXIMUM RECORDED TEMPERATURE
UNIT.                      M-19 : EQUIPMENT NUMBER
BASE.             GRAHAM, TEXAS : BASE LOCATION
ENG .                    WENDEL : RECORDED BY
WIT .           WOMBLE/BURLESON : WITNESSED BY
~Curve Information -----------------------------------------
DEPT.F          :DEPTH
CILD.MMHO       :
GRR.GAPI        :
RILD.OHMM       :
RILM.OHMM       :
RSFL.OHMM       :
SP.MV           :
~ASCII ------------------------------------------------------
# ...
1241.00000      376.10710      108.70108        2.66457        2.71424        3.69620      150.71275
1241.50000      376.05410      107.77531        2.67886        2.71969        3.78988      150.58852
1242.00000      374.39789      106.79998        2.69518        2.72564        3.80164      150.63874
1242.50000      372.74169      106.07443        2.71160        2.73177        3.75573      150.69689
1243.00000      371.08548      105.43809        2.72597        2.73726        3.71601      150.75504
1243.50000      370.64162      104.99998        2.72068        2.74358        3.73117      150.80791
1244.00000      372.62906        -999.25        2.71539        2.75226        3.80742      150.60967
1244.50000      372.89406        -999.25        2.71078        2.75980        3.79265      150.15769
1245.00000      372.29782        -999.25        2.70765        2.76853        3.75938      149.76121
1245.50000      371.70159        -999.25        2.70519        2.77611        3.71601      149.30658
1246.00000      371.60222        -999.25        2.70289        2.77611        3.80742      149.03698
1246.50000      372.50982        -999.25        2.70042        2.77611        3.87745      148.75152
1247.00000      373.41079        -999.25        2.69796        2.77038        3.87015      148.46606
1247.50000      374.31839        -999.25        2.69583        2.75026        3.81993      148.21495
1248.00000      374.47076        -999.25        2.69338        2.72763        3.74525      147.92949
1248.50000      374.37139        -999.25        2.68211        2.70502        3.64248      147.45901
1249.00000      373.62279        -999.25        2.67138        2.68554        3.55503      147.04932
1249.50000      372.88081        -999.25        2.66927        2.66328        3.51829      146.57883
1250.00000      365.56038        -999.25        2.73111        2.66053        3.75003      146.16650
1250.50000      349.57467        -999.25        2.78536        2.74195        3.77368      145.43434
1251.00000      340.00180        -999.25        2.85924        2.90822        3.60832      144.95064
1251.50000      337.51749        -999.25        2.89409        3.06193        3.69547      144.45901
1252.00000      337.12000        -999.25        2.91975        3.20869        4.28912      143.96474
1252.50000      337.84873        -999.25        2.94259        3.22456        4.88626      143.96474
1253.00000      340.82990        -999.25        2.96869        3.17256        5.19488      143.96474
1253.50000      343.81107        -999.25        2.94905        2.93830        4.65908      143.96474
1254.00000      346.79225        -999.25        2.80886        2.78333        3.58053      143.96474
1254.50000      351.95961        -999.25        2.69167        2.70152        3.27062      143.86429
1255.00000      364.46065        -999.25        2.56372        2.61097        3.22318      143.70042
1255.50000      391.62244        -999.25        2.45676        2.54118        3.27720      143.55769
1256.00000      414.14684        -999.25        2.33997        2.46350        3.34045      143.33566
1256.50000      427.39649        -999.25        2.25494        2.39765        3.35717      142.97883
1257.00000      437.00249        -999.25        2.24630        2.39255        3.35125      142.57178
1257.50000      439.32118        -999.25        2.23880        2.38818        3.39830      142.21496
1258.00000      442.71971        -999.25        2.23023        2.38310        3.41302      141.96914
1258.50000      448.28457        -999.25        2.22263        2.37528        3.34106      141.77883
1259.00000      448.01957        -999.25        2.22101        2.35957        3.33354      141.60967
1259.50000      444.83966        -999.25        2.26222        2.32803        3.20557      141.67311
1260.00000      434.57118        -999.25        2.31038        2.29245        3.05877      141.76297
1260.50000      423.49447        -999.25        2.35325        2.31165        3.38673      141.82377
1261.00000      421.06316        -999.25        2.40335        2.35713        4.04735      141.64403
1261.50000      418.63185        -999.25        2.45436        2.39765        3.58336      141.43786
1262.00000      414.19984        -999.25        2.49064        2.42555        3.49715      141.25813
1262.50000      405.75319        -999.25        2.50616        2.45033        3.53138      141.05196
1263.00000      397.30654        -999.25        2.51977        2.48413        3.62483      140.86958
1263.50000      392.50354        -999.25        2.53531        2.54180        3.71668      140.63698
1264.00000      389.52237        -999.25        2.54909        2.58613        3.75649      140.42024
1264.50000      385.08373        -999.25        2.56497        2.66526        3.80250      140.20615
1265.00000      379.91637        -999.25        2.57890        2.68660        -999.25      140.06870
1265.50000      378.47216        -999.25        2.59481        2.70185        -999.25      139.91275
1266.00000      377.02795        -999.25        2.60891        2.71504        -999.25      139.75416
1266.50000      375.57711        -999.25        2.62516        2.72465        -999.25      139.47134
1267.00000      374.61651        -999.25        2.63942        2.72465        -999.25      139.11980
1267.50000      374.61651        -999.25        2.65570        2.71752        -999.25      138.81055
1268.00000      374.83513        -999.25        2.67013        2.72697        -999.25      138.45901
1268.50000      375.49761        -999.25        2.68676        2.73795        -999.25      137.96474
1269.00000      372.62906        -999.25        2.70136        2.74747        -999.25      137.36738
1269.50000      369.84664        -999.25        2.71802        2.75836        -999.25      136.84403
1270.00000      370.64162        -999.25        2.73279        2.76795        -999.25      136.24403
1270.50000      392.10605        -999.25        2.67338        2.76559        -999.25      135.72068
1271.00000      408.20437        -999.25        2.55842        2.74429        -999.25      135.12333
1271.50000      424.30270        -999.25        2.43309        2.62356        -999.25      134.59998
1272.00000      424.96518        -999.25        -999.25        2.51089        -999.25      133.92068
1272.50000      425.62766        -999.25        -999.25        2.38789        -999.25      133.30483
1273.00000      426.49552        -999.25        -999.25        2.28534        -999.25      132.59910
1273.50000      427.36999        -999.25        -999.25        2.14591        -999.25      131.89337
1274.00000      428.23785        -999.25        -999.25        2.04117        -999.25      131.02377
1274.50000      429.10570        -999.25        -999.25        2.01917        -999.25      129.64139
1275.00000      429.97355        -999.25        -999.25        2.00008        -999.25      128.43082
1275.50000      452.34558        -999.25        -999.25        1.99825        -999.25      127.04844
1276.00000      478.29502        -999.25        -999.25        1.99911        -999.25      125.36738
1276.50000      483.26364        -999.25        -999.25        -999.25        -999.25      124.98148
1277.00000      479.28875        -999.25        -999.25        -999.25        -999.25      125.42289
1277.50000      477.85116        -999.25        -999.25        -999.25        -999.25      126.07311
1278.00000      477.68554        -999.25        -999.25        -999.25        -999.25      126.64139
1278.50000      477.51992        -999.25        -999.25        -999.25        -999.25      127.21496
1279.00000      477.35430        -999.25        -999.25        -999.25        -999.25      127.60615
1279.50000      464.71413        -999.25        -999.25        -999.25        -999.25      128.05020
1280.00000      450.13952        -999.25        -999.25        -999.25        -999.25      128.71099
1280.50000      447.48959        -999.25        -999.25        -999.25        -999.25        -999.25
