~Version ---------------------------------------------------
VERS. 2.0 : CWLS LOG ASCII STANDARD - VERSION 2.0
WRAP. NO  : One line per depth step
DLM . SPACE : Column Data Section Delimiter
~Well ------------------------------------------------------
STRT.F           40 : START DEPTH
STOP.F       1271.0 : STOP DEPTH
STEP.F          0.5 : STEP
NULL.       -999.25 : NULL VALUE
COMP.                 WALSH & WATTS, INC. : COMPANY
WELL.                         HOWARD G 17 : WELL
FLD .             MONTAGUE COUNTY REGULAR : FIELD
CNTY.                            MONTAGUE : COUNTY
STAT.                               TEXAS : STATE
CTRY.                                 USA : COUNTRY
SEC .                                     : SECTION
TWP .                                     : TOWNSHIP
RGE .                                     : RANGE
LOC . 520'FNL & 4250'FEL OF THE J.CHAMBLIS SURVEY, A-123 : LOCATION
EKB .F                      519 : ELEVATION KELLY BUSHING
EDF .F                      518 : ELEVATION DERRICK FLOOR
EGL .F                      512 : ELEVATION GROUND LEVEL
PDAT.                        GL : PERMANENT DATUM
EPD .                       512 : ELEVATION PERMANENT DATUM
APD .                         7 : ABOVE PERMANENT DATUM
LMF .                        KB : LOG MEASURED FROM
DMF .                        KB : DRILLING MEASURED FROM
API .            42337343900000 : API NUMBER
UWI .                           : UWI NUMBER
DIGC.                     NthDS : DIGITIZING COMPANY
~Params ----------------------------------------------------
SRVC. PIONEER WIRELINE SERVICES : LOGGING COMPANY
LOG .                      CNFD : LOG
DATE.                2010-10-13 : RUN DATE
RUN .                         1 : RUN NUMBER
TDD .F                     1298 : TOTAL DEPTH DRILLER
TDL .F                     1280 : TOTAL DEPTH LOGGER
BOTL.F                     1280 : BOTTOM LOGGED INTERVAL
TOPL.F                       50 : TOP LOGGED INTERVAL
CSGS.IN                         : CASING SIZE
CSGD.F                          : CASING DRILLER
CSGL.F                          : CASING LOGGER
BS  .IN                   7.875 : BIT SIZE
MUD .                  GEL-CHEM : MUD TYPE
MUDD.                           : MUD DENSITY
MUDV.                           : MUD VISCOSITY
PH  .                           : MUD PH
FL  .                           : FLUID LOSS
MUDS.                  FLOWLINE : SOURCE OF SAMPLE
RM  .OHMM                   3.6 : MUD RESISTIVITY
RMT .DEGF                    72 : RM TEMPERATURE
RMF .OHMM                   2.7 : MUD FILTRATE RESISTIVITY
RMFT.DEGF                    72 : RMF TEMPERATURE
RMC .OHMM                   4.5 : MUD CAKE RESISTIVITY
RMCT.DEGF                    72 : RMC TEMPERATURE
RMFS.                      CALC : RMF SOURCE
RMCS.                      CALC : RMC SOURCE
RMBH.OHMM                   3.0 : MUD RESISTIVITY AT BHT
BHT .DEGF                    85 : BOTTOM HOLE TEMPERATURE
TIMC.           0245 2010-10-13 : TIME CIRCULATION STOPPED
TIML.           0540 2010-10-13 : TIME LOGGER ON BOTTOM
TMAX.DEGF                    85 : MAXIMUM RECORDED TEMPERATURE
UNIT.                      M-19 : EQUIPMENT NUMBER
BASE.             GRAHAM, TEXAS : BASE LOCATION
ENG .                    WENDEL : RECORDED BY
WIT .           WOMBLE/BURLESON : WITNESSED BY
~Curve Information -----------------------------------------
DEPT.F          :DEPTH
CALI.IN         :
DPHI.PU         :
GRD.GAPI        :
MINV.OHMM       :
MNOR.OHMM       :
NPHI.PU         :
RHOC.G/CC       :
~ASCII ------------------------------------------------------
# ...
1055.00000        7.98502       15.17863      105.94243        3.81194        2.68657       18.54358        0.03582
1055.50000        7.96255       15.06092      101.95752        4.09851        2.64925       19.65323        0.04097
1056.00000        7.94382       14.96720       98.59526        4.32836        2.83582       20.56532        0.04328
1056.50000        7.92509       15.08641       96.14432        4.32836        2.94776       22.12746        0.04608
1057.00000        7.90262       15.22962       93.67922        4.32836        3.04179       23.66973        0.04142
1057.50000        7.89401       15.44105       92.66036        4.32836        3.13134       25.82643        0.03653
1058.00000        7.90075       15.40019       93.62262        4.32836        3.11343       27.25098        0.03769
1058.50000        7.90880       15.38894       95.99998        4.32836        3.09552       26.75726        0.03884
1059.00000        7.91629       15.41219       96.79243        4.32836        3.07463       23.96439        0.03750
1059.50000        7.92565       15.71397       96.79243        4.32836        3.05672       19.93065        0.03414
1060.00000        7.92884       16.01050      100.18866        4.32836        3.03433       18.35352        0.02369
1060.50000        7.92884       16.17432      104.43394        4.32836        3.01642       18.02249        0.00970
1061.00000        7.92884       15.82118      107.42545        4.19403        2.99552       18.54920        0.01418
1061.50000        7.92097       15.34208      107.83016        3.97015        2.98507       19.33271        0.01791
1062.00000        7.91330       15.17339      106.06130        3.82537        2.98507       20.85286        0.02183
1062.50000        7.89644       15.06542      103.06979        3.73134        2.98507       21.42755        0.02742
1063.00000        7.87940       14.97882       99.85469        3.73134        2.98507       20.16308        0.03209
1063.50000        7.86236       14.77976       97.01885        3.28358        3.10000       18.34114        0.04608
1064.00000        7.84195       14.68604       94.30186        3.94627        3.21492       17.68510        0.04981
1064.50000        7.83783       14.71415       92.07451        4.56268        3.38358       17.51640        0.04825
1065.00000        7.84288       14.73740       89.43394        5.07462        3.68209       17.51640        0.04701
1065.50000        7.84719       14.76101       89.43394        4.45074        3.63134       18.10197        0.04701
1066.00000        7.85131       14.90834       90.84904        4.69403        3.49701       19.05342        0.04642
1066.50000        7.85655       15.22962       93.99054        4.60746        3.43283       19.13590        0.04586
1067.00000        7.86105       15.55089       94.13205        4.32836        3.41940       19.01069        0.04526
1067.50000        7.86554       15.71697       94.55658        3.30448        3.37761       19.16064        0.04455
1068.00000        7.87079       15.71959       96.42451        3.00149        3.34328       19.50853        0.04399
1068.50000        7.87266       15.51078       96.98205        2.92089        3.30149       20.16720        0.04328
1069.00000        7.87266       15.33683       95.84998        3.34776        3.26567       21.23861        0.04142
1069.50000        7.87659       15.06729       94.90469        4.32836        3.23134       22.56495        0.03955
1070.00000        7.88333       14.66729       93.67922        4.44776        3.18955       22.51621        0.03731
1070.50000        7.89139       14.70666       92.97168        4.54776        3.15522       21.27460        0.03369
1071.00000        7.89813       14.74639       94.56224        4.50746        3.11343       20.70291        0.02090
1071.50000        7.90468       14.79363       96.50941        4.20895        3.07761       21.26523        0.02090
1072.00000        7.91011       14.74902       97.14620        4.72686        3.03433       23.41443        0.02649
1072.50000        7.91011       14.54471       97.84243        4.60149        3.00000       25.14527        0.03582
1073.00000        7.91011       14.52409       98.16790        4.47761        2.89552       24.94733        0.03395
1073.50000        7.91011       14.72877       97.35847        4.32836        2.96866       23.86429        0.03224
1074.00000        7.91011       14.99419       92.83017        4.20448        3.13433       22.31490        0.03295
1074.50000        7.90599       15.24911       92.60375        4.05522        2.79851       20.21556        0.03381
1075.00000        7.89551       15.50403       95.80186        4.52686        2.95522       17.68510        0.03451
1075.50000        7.88521       15.80994       99.33960        4.55224        3.31343       17.11640        0.03526
1076.00000        7.87266       16.06486      103.20847        4.40298        3.13433       18.49860        0.03310
1076.50000        7.87809       16.31678      106.03865        4.43433        3.13433       21.39269        0.02631
1077.00000        7.88333       16.44536      109.81130        4.27910        2.83582       22.06486        0.02198
1077.50000        7.88970       16.33815      110.37733        3.28358        2.86567       21.55277        0.02463
1078.00000        7.89513       15.84817      105.56601        4.02985        2.71642       20.12821        0.04328
1078.50000        7.90150       15.37957       96.54054        3.92985        2.68657       18.94096        0.05739
1079.00000        7.90693       14.15258       86.79338        4.13880        4.07910       18.00375        0.06474
1079.50000        7.91011       13.13027       77.46508        4.95224        6.86567       17.19138        0.05914
1080.00000        7.91011       11.81818       67.64149        5.31343        4.77612       15.76945        0.05448
1080.50000        7.91011       10.44986       65.83017        7.06418        8.65671       15.32971        0.04888
1081.00000        7.91011       10.53833       69.73583       14.02984       18.17163       15.96064        0.04422
1081.50000        7.91404       11.18088       78.39621        7.66119        7.46268       18.00375        0.03000
1082.00000        7.92397       13.37395       90.51790        3.94030        2.12686       21.67760        0.01429
1082.50000        7.93577       15.01706      105.37639        3.90149        2.22089       22.52746        0.01858
1083.00000        7.94551       16.84161      112.13205        3.43283        2.08955       23.00206        0.02377
1083.50000        7.94757       17.68135      111.36790        2.94776        2.08955       23.55202        0.04168
1084.00000        7.93933       17.62887      101.46224        2.85522        2.25672       23.25211        0.06071
1084.50000        7.92528       17.02905       92.26413        4.25373        2.63283       21.53702        0.06798
1085.00000        7.91142       16.86673       86.51036        4.55224        3.10746       20.07085        0.05504
1085.50000        7.89494       16.92896       87.07639        4.70149        3.43283       18.86598        0.03955
1086.00000        7.88090       16.89785       90.84904        4.17910        3.02836       18.35989        0.03157
1086.50000        7.87715       16.83637       95.60375        4.34925        3.13433       18.79100        0.03142
1087.00000        7.88483       16.80413       99.56601        3.69403        2.77612       22.63355        0.03750
1087.50000        7.89232       16.99157      103.24526        3.23433        2.53731       25.63262        0.03955
1088.00000        7.90150       17.07741      105.18960        3.53283        2.53731       25.50141        0.05198
1088.50000        7.90918       16.99681      103.37262        2.77164        2.43731       20.59044        0.05981
1089.00000        7.91667       16.93009       95.28394        3.19851        2.74627       17.78632        0.06071
