~Version ---------------------------------------------------
VERS. 2.0 : CWLS LOG ASCII STANDARD - VERSION 2.0
WRAP. NO  : One line per depth step
DLM . SPACE : Column Data Section Delimiter
~Well ------------------------------------------------------
STRT.F           48 : START DEPTH
STOP.F       1439.0 : STOP DEPTH
STEP.F          0.5 : STEP
NULL.       -999.25 : NULL VALUE
COMP.                 WALSH & WATTS, INC. : COMPANY
WELL.                         HOWARD F 14 : WELL
FLD .             MONTAGUE COUNTY REGULAR : FIELD
CNTY.                            MONTAGUE : COUNTY
STAT.                               TEXAS : STATE
CTRY.                                 USA : COUNTRY
SEC .                                     : SECTION
TWP .                                     : TOWNSHIP
RGE .                                     : RANGE
LOC . 1430'FEL & 2600'FSL OF THE J.CHAMBLIS SURVEY A-123 : LOCATION
EKB .F                      849 : ELEVATION KELLY BUSHING
EDF .F                      848 : ELEVATION DERRICK FLOOR
EGL .F                      841 : ELEVATION GROUND LEVEL
PDAT.                        GL : PERMANENT DATUM
EPD .                       841 : ELEVATION PERMANENT DATUM
APD .                         8 : ABOVE PERMANENT DATUM
LMF .                        KB : LOG MEASURED FROM
DMF .                        KB : DRILLING MEASURED FROM
API .            42337351020000 : API NUMBER
UWI .                           : UWI NUMBER
DIGC.                     NthDS : DIGITIZING COMPANY
~Params ----------------------------------------------------
SRVC.                   PIONEER : LOGGING COMPANY
LOG .                      CNFD : LOG
DATE.                2013-08-01 : RUN DATE
RUN .                         1 : RUN NUMBER
TDD .F                     1450 : TOTAL DEPTH DRILLER
TDL .F                     1449 : TOTAL DEPTH LOGGER
BOTL.F                     1429 : BOTTOM LOGGED INTERVAL
TOPL.F                       50 : TOP LOGGED INTERVAL
CSGS.IN                         : CASING SIZE
CSGD.F                          : CASING DRILLER
CSGL.F                          : CASING LOGGER
BS  .IN                   7.875 : BIT SIZE
MUD .                       GEL : MUD TYPE
MUDD.                       9.2 : MUD DENSITY
MUDV.                        75 : MUD VISCOSITY
PH  .                           : MUD PH
FL  .                           : FLUID LOSS
MUDS.                  FLOWLINE : SOURCE OF SAMPLE
RM  .OHMM                   2.8 : MUD RESISTIVITY
RMT .DEGF                    72 : RM TEMPERATURE
RMF .OHMM                   2.1 : MUD FILTRATE RESISTIVITY
RMFT.DEGF                    72 : RMF TEMPERATURE
RMC .OHMM                   3.5 : MUD CAKE RESISTIVITY
RMCT.DEGF                    72 : RMC TEMPERATURE
RMFS.                      CALC : RMF SOURCE
RMCS.                      CALC : RMC SOURCE
RMBH.OHMM                   2.3 : MUD RESISTIVITY AT BHT
BHT .DEGF                    87 : BOTTOM HOLE TEMPERATURE
TIMC.           0130 2018-08-01 : TIME CIRCULATION STOPPED
TIML.           0400 2018-08-01 : TIME LOGGER ON BOTTOM
TMAX.DEGF                    87 : MAXIMUM RECORDED TEMPERATURE
UNIT.                     C-052 : EQUIPMENT NUMBER
BASE.                GRAHAM, TX : BASE LOCATION
ENG .                    WENDEL : RECORDED BY
WIT .                  BURLESON : WITNESSED BY
~Curve Information -----------------------------------------
DEPT.F          :DEPTH
CALD.IN         :
DPHI.%          :
GRD.GAPI        :
MINV.OHMM       :
MNOR.OHMM       :
NPHI.%          :
RHOC.G/CC       :
~ASCII ------------------------------------------------------
# ...
1235.50000        7.96850       13.44323       96.70327        6.03430        4.18175       14.16520        0.05339
1236.00000        7.97326       13.40660       96.70327        4.17883        3.48686       14.47290        0.04234
1236.50000        7.97729       14.50550       97.52745        3.96934        3.40292       15.25421        0.01387
1237.00000        7.97619       15.42125       98.35163        3.90511        3.30146       16.01575        0.01022
1237.50000        7.97418       15.98425       99.72525        3.86861        3.28467       16.96264        0.01387
1238.00000        7.97198       16.00733      103.29668        4.20949        3.28467       17.89377        0.02847
1238.50000        7.96960       15.64103      107.96701        4.18467        3.35766       19.26740        0.02847
1239.00000        7.96777       15.33590      111.81316        3.79562        2.86788       21.32601        0.03212
1239.50000        7.96538       15.04066      116.48349        3.64963        2.60657       22.17949        0.03942
1240.00000        7.96355       14.80660      120.60437        3.48248        2.61095       22.40843        0.04307
1240.50000        7.96117       14.52601      122.25272        3.45693        2.66715       23.69451        0.04599
1241.00000        7.96667       14.46374      123.35162        3.41825        2.64087       25.78755        0.04380
1241.50000        8.00788       14.62051      124.72525        3.35766        2.54160       25.05971        0.03631
1242.00000        7.99634       14.90843      123.35162        3.28467        2.77372       23.06777        0.02285
1242.50000        7.96886       15.47619      120.32964        3.64963        2.94598       21.50183        0.01022
1243.00000        7.94597       15.56777      120.05492        3.40657        2.74744       21.29267        0.01387
1243.50000        7.94524       15.49048      122.80217        3.32847        2.65182       20.53480        0.02482
1244.00000        7.94908       15.34799      124.99997        3.43066        2.69270       19.47143        0.01752
1244.50000        7.95366       15.53627      126.64832        3.16277        2.72482       19.00037        0.01022
1245.00000        7.95751       15.88169      128.02195        3.33649        2.82263       18.60806        0.00292
1245.50000        7.96209       16.22711      126.37360        4.08759        2.97810       17.94872        0.00292
1246.00000        7.96575       16.26887      122.52744        3.80365        3.03649       18.10586        0.01022
1246.50000        7.97033       15.94725      116.20877        3.85255        2.99270       18.07546        0.03212
1247.00000        7.97418       15.24799      114.01096        3.74671        2.94963       17.61062        0.03942
1247.50000        7.97381       14.64469      115.38459        3.64963        2.89854       17.05275        0.04671
1248.00000        7.95275       14.71062      116.75822        3.64963        2.85547       16.72528        0.02482
1248.50000        7.92729       15.58352      115.10986        3.64963        2.84671       17.39927        0.01387
1249.00000        7.89377       16.54945      112.36261        3.64963        2.87299       18.07070       -0.00438
1249.50000        7.84982       16.83407      109.06591        3.64963        2.95255       18.49304        0.00657
1250.00000        7.84744       16.88645      107.41756        3.89270        2.94379       18.46667        0.01752
1250.50000        7.80788       16.19048      108.24173        3.84058        2.89855       18.60293        0.04058
1251.00000        7.80549       15.45788      111.26371        3.98551        3.02246       18.47729        0.04783
1251.50000        7.80256       15.59817      111.81316        3.98551        3.22971       18.09854        0.03333
1252.00000        7.80018       16.09341      108.24173        4.74637        3.47826       17.33920        0.02609
1252.50000        7.79725       16.89011      104.39558        4.42029        3.11594       16.95971        0.02246
1253.00000        7.79487       17.84616      103.29668        4.13043        3.18840       16.95971        0.02246
1253.50000        7.80092       18.64286      104.67031        4.49275        3.45435       16.95971        0.02971
1254.00000        7.80604       19.43846      104.67031        4.56522        3.38768       17.09707        0.04783
1254.50000        7.81209       19.96740       99.72525        5.55579        4.56522       17.47766        0.07681
1255.00000        7.81319       20.58608       90.65932        6.32826        4.52174       17.83883        0.08768
1255.50000        7.81319       21.31868       84.06592        4.78261        3.88188       17.61282        0.08768
1256.00000        7.81319       23.57985       81.59339        6.32826        5.00000       17.71685        0.05870
1256.50000        7.81319       25.69414       78.02196        6.95652        6.44927       18.64469        0.02971
1257.00000        7.81319       28.00366       72.80218        6.53623        7.48768       20.00916        0.02609
1257.50000        7.81319       29.89011       66.48350        6.88405        6.93840       20.87912        0.02971
1258.00000        7.81319       29.89853       64.28570        6.52174        6.81159       19.99268        0.03333
1258.50000        7.81319       29.90549       62.63735        6.93550        7.47319       18.41026        0.04058
1259.00000        7.81319       29.91392       60.43955        6.11594        6.65797       17.32601        0.04420
1259.50000        7.81319       29.92125       57.69229        6.64275        7.56521       17.80220        0.02971
1260.00000        7.81319       29.51465       59.06592        7.69347        7.10145       17.77766        0.02971
1260.50000        7.81319       28.48425       65.38460        8.11594        6.12319       17.36996        0.04420
1261.00000        7.81319       25.47876       75.54943        6.78768        4.49275       16.65898        0.05145
1261.50000        7.81319       22.67912       89.56042        5.28985        3.59927       16.46264        0.05145
1262.00000        7.81319       20.03663      101.37360        4.51377        3.65217       16.22711        0.03333
1262.50000        7.81319       19.74359      104.67031        4.34782        3.54348       15.65312        0.02971
1263.00000        7.81319       20.81575      101.64833        5.77898        4.03406       15.72638        0.04420
1263.50000        7.81319       22.33114       92.58240        6.94203        5.14493       16.21502        0.06232
1264.00000        7.81319       24.28059       81.31866        7.39130        5.97319       16.52747        0.07319
1264.50000        7.80989       26.45202       70.60438        7.64492        5.89855       16.67399        0.06232
1265.00000        7.80146       29.05824       63.46152        7.62319        6.47319       16.65092        0.05870
1265.50000        7.79579       29.92674       60.71427        8.35145        7.48768       16.34139        0.03333
1266.00000        7.79798       29.92674       64.28570        9.13043        8.18840       15.67436        0.02971
1266.50000        7.80055       29.92674       73.35163        7.21014        4.52898       14.74176        0.04264
1267.00000        7.80275       27.72894       81.04394        4.94565        3.62319       13.47692        0.06956
1267.50000        7.80531       23.33736       80.21976       11.42826        5.27971       11.81319        0.10489
1268.00000        7.80751       18.08718       72.80218       19.71014       11.65652        9.81685        0.12076
1268.50000        7.81007       14.90843       61.53845       19.71014       19.71014        9.28205        0.11485
1269.00000        7.81227       13.65568       57.41757       16.71521       11.52173        9.85348        0.09373
1269.50000        7.81319       14.89524       62.08790        9.03405        8.13043       11.23736        0.06475
