~Version ---------------------------------------------------
VERS. 2.0 : CWLS LOG ASCII STANDARD - VERSION 2.0
WRAP. NO  : One line per depth step
DLM . SPACE : Column Data Section Delimiter
~Well ------------------------------------------------------
STRT.F         48.5 : START DEPTH
STOP.F       1455.5 : STOP DEPTH
STEP.F          0.5 : STEP
NULL.       -999.25 : NULL VALUE
COMP.                 WALSH & WATTS, INC. : COMPANY
WELL.                         HOWARD F 25 : WELL
FLD .                            MONTAGUE : FIELD
CNTY.                            MONTAGUE : COUNTY
STAT.                               TEXAS : STATE
CTRY.                                 USA : COUNTRY
SEC .                                     : SECTION
TWP .                                     : TOWNSHIP
RGE .                                     : RANGE
LOC . 1115'FEL & 2300'FSL OF THE J.CHAMBLIS SURVEY A-123 : LOCATION
EKB .F                      512 : ELEVATION KELLY BUSHING
EDF .F                      511 : ELEVATION DERRICK FLOOR
EGL .F                      505 : ELEVATION GROUND LEVEL
PDAT.                        GL : PERMANENT DATUM
EPD .                       505 : ELEVATION PERMANENT DATUM
APD .                         7 : ABOVE PERMANENT DATUM
LMF .                        KB : LOG MEASURED FROM
DMF .                        KB : DRILLING MEASURED FROM
API .            42337343120000 : API NUMBER
UWI .                           : UWI NUMBER
DIGC.                     NthDS : DIGITIZING COMPANY
~Params ----------------------------------------------------
SRVC. PIONEER WIRELINE SERVICES : LOGGING COMPANY
LOG .                      DIFL : LOG
DATE.                2010-10-07 : RUN DATE
RUN .                         1 : RUN NUMBER
TDD .F                     1450 : TOTAL DEPTH DRILLER
TDL .F                     1452 : TOTAL DEPTH LOGGER
BOTL.F                     1452 : BOTTOM LOGGED INTERVAL
TOPL.F                       50 : TOP LOGGED INTERVAL
CSGS.IN                         : CASING SIZE
CSGD.F                          : CASING DRILLER
CSGL.F                          : CASING LOGGER
BS  .IN                   7.875 : BIT SIZE
MUD .                  GEL-CHEM : MUD TYPE
MUDD.                           : MUD DENSITY
MUDV.                           : MUD VISCOSITY
PH  .                           : MUD PH
FL  .                           : FLUID LOSS
MUDS.                  FLOWLINE : SOURCE OF SAMPLE
RM  .OHMM                   4.0 : MUD RESISTIVITY
RMT .DEGF                    72 : RM TEMPERATURE
RMF .OHMM                   3.0 : MUD FILTRATE RESISTIVITY
RMFT.DEGF                    72 : RMF TEMPERATURE
RMC .OHMM                   5.0 : MUD CAKE RESISTIVITY
RMCT.DEGF                    72 : RMC TEMPERATURE
RMFS.                      CALC : RMF SOURCE
RMCS.                      CALC : RMC SOURCE
RMBH.OHMM                     3 : MUD RESISTIVITY AT BHT
BHT .DEGF                    88 : BOTTOM HOLE TEMPERATURE
TIMC.           0730 2010-10-07 : TIME CIRCULATION STOPPED
TIML.           1020 2010-10-07 : TIME LOGGER ON BOTTOM
TMAX.DEGF                    88 : MAXIMUM RECORDED TEMPERATURE
UNIT.                      M-19 : EQUIPMENT NUMBER
BASE.                GRAHAM, TX : BASE LOCATION
ENG .                    WENDEL : RECORDED BY
WIT .           WOMBLE/BURLESON : WITNESSED BY
~Curve Information -----------------------------------------
DEPT.F          :DEPTH
CILD.MMHO       :
GRR.GAPI        :
RILD.OHMM       :
RILM.OHMM       :
RSFL.OHMM       :
SP.MV           :
~ASCII ------------------------------------------------------
# ...
329.50000      148.22133       89.01458        6.61771        7.46998       10.47032      155.47442
330.00000      143.05196       85.49177        6.94857        7.89327       11.48751      155.10945
330.50000      137.88258       82.93794        7.23730        8.26370       11.38926      154.74449
331.00000      132.72239       85.12772        7.59978        8.49996       10.64359      154.74449
331.50000      127.90676       90.87589        7.88067        8.74297       10.55225      154.74449
332.00000      125.66664       92.79195        8.03874        8.95077       10.73034      154.37953
332.50000      123.43570       93.61312        8.23235        9.20667       10.63826      155.10945
333.00000      121.19557       93.61312        8.40503        9.60381       10.54727      155.10945
333.50000      118.86843       91.69706        8.44362       10.25568       11.18736      155.47442
334.00000      118.26281       84.30655        8.45140       10.45491       13.81368      155.83938
334.50000      118.27243       79.37954        8.42664       10.17647       14.90193      155.83938
335.00000      118.51161       78.83210        8.39675        9.85179       14.64984      156.20434
335.50000      119.21473       84.58027        8.34651        9.36354       13.23649      155.83938
336.00000      121.29043       91.69706        8.30101        8.94269       11.56205      155.83938
336.50000      123.36614       93.06567        8.24716        8.50955       11.08221      156.20434
337.00000      125.44184       93.33940        7.97191        8.23596       10.62259      156.20434
337.50000      126.47553       92.51823        7.85185        8.01391        9.92712      156.20434
338.00000      124.38233       90.87589        7.89499        8.05387        8.96913      156.56931
338.50000      122.29831       85.12772        8.01741        8.47250        8.54289      156.56931
339.00000      120.20511       83.48538        8.19388        9.68136       10.79615      156.56931
339.50000      118.11191       77.73721        8.37424       10.74877       14.26203      156.56931
340.00000      114.98588       75.54743        8.52780       10.88415       15.25626      156.56931
340.50000      112.89268       76.36860        8.71551       10.74529       15.77744      156.20434
341.00000      113.36143       78.01093        8.81013       10.47472       15.64250      155.83938
341.50000      113.83017       83.75911        8.67452       10.05811       13.20999      155.47442
342.00000      114.53329       85.94889        8.28299        9.25393       11.73538      155.10945
342.50000      117.41707       89.78100        7.90847        8.63227       10.96737      155.10945
343.00000      122.70668       88.95983        7.60997        8.29920        9.49944      155.43427
343.50000      127.99630       87.04378        7.36531        8.04935        9.41791      155.40142
344.00000      135.92613       85.40144        7.24827        7.87543        9.33737      155.36858
344.50000      137.15704       84.85400        7.11063        7.80785        9.10225      155.34303
345.00000      138.39712       85.94889        7.05199        7.73953        9.49300      155.31018
345.50000      139.62803       87.59122        7.03549        7.67788       10.06941      155.27369
346.00000      141.47897       87.86494        7.01527        7.60364       10.41340      155.24814
346.50000      142.40685       87.86494        6.99157        7.56580       10.15148      155.21529
347.00000      143.33473       89.50728        6.96638        7.59412        9.81267      155.18245
347.50000      144.26260       94.54377        6.91477        7.61589        9.72846      155.15325
348.00000      145.65442      102.64596        6.75945        7.52339        9.64526      155.12040
348.50000      146.58230      103.19341        6.70787        7.25512        9.40239      154.78464
349.00000      147.51017      101.55107        6.70668        6.99583        8.86129      154.37953
349.50000      146.95047      100.45618        6.70569        6.95300        8.56579      155.10945
350.00000      142.80253       99.90874        6.90820        7.30774        8.70755      154.74449
350.50000      140.75524       99.72525        6.99973        7.70881        9.08136      154.57872
351.00000      138.70796      101.92305        7.07652        8.05969        9.79679      154.21242
351.50000      136.66067      106.86811        7.26901        8.40001       11.02392      154.21242
352.00000      133.58973      106.75822        7.47516        8.65064       11.79241      153.47982
352.50000      131.54245      100.59064        7.73052        8.84105       11.20799      153.11352
353.00000      129.49516       86.01097        7.99461        9.01204       11.11214      152.74722
353.50000      127.44787       71.42856        8.05712        9.15718       11.88643      152.01462
354.00000      124.37694       54.03021        8.13223        9.32798       12.82247      152.01462
354.50000      122.32965       45.60439        8.19581        9.44865       12.92927      151.28202
355.00000      121.31081       49.58790        8.19436        9.59486       13.14710      150.91572
355.50000      121.32043       60.88735        8.19291        9.67315       13.14516      150.54942
356.00000      122.15210       67.70053        8.17305        9.75343       12.81416      149.81682
356.50000      122.97897       67.49174        8.14406        9.65097       12.92051      149.81682
357.00000      123.80584       58.70054        8.12021        9.49280       12.28055      149.45052
357.50000      125.04155       51.37361        7.97476        9.30626       11.87068      149.08422
358.00000      126.59385       48.35164        7.83192        9.14497       11.76915      149.08422
358.50000      128.15532       45.32966        7.71528        9.03085       11.66815      149.08422
359.00000      129.70762       42.05494        7.57708        8.89534       11.96532      149.08422
359.50000      132.04524       38.12362        7.46424        8.82820       12.47935      148.71792
360.00000      134.27705       34.99999        7.33054        8.82664       13.92444      148.71792
360.50000      135.71915       32.69230        7.24007        8.68172       13.80535      149.08422
361.00000      137.87313       31.86812        7.16544        8.50562       12.36825      149.08422
361.50000      139.30605       31.59340        7.07761        8.29775       11.17468      149.08422
362.00000      140.74815       31.86812        7.00464        8.12875       10.89362      149.08422
362.50000      142.19025       32.96703        6.91820        7.93075       10.70934      149.08422
363.00000      144.34422       33.51648        6.79773        7.74870       10.70776      149.08422
363.50000      145.77714       32.41758        6.69309        7.64554       10.52663      149.45052
364.00000      147.21925       32.14285        6.67329        7.52446       10.34856      149.45052
364.50000      149.06539       32.96703        6.67400        7.45507       10.08827      149.81682
365.00000      149.25428       34.06593        6.67451        7.51695       10.08649      149.81682
365.50000      149.37409       34.34065        6.67559        7.57933       10.34368      149.81682
366.00000      149.50308       32.69230        6.67573        7.63150       10.51795      150.18312
366.50000      149.68279       31.86812        6.67680        7.66566       10.69515      150.18312
367.00000      149.81178       31.59340        6.67751        7.69371       10.78423      150.18312
367.50000      149.93159       31.59340        6.67802        7.64380       10.96592      149.81682
368.00000      150.06058       31.86812        6.67853        7.59421       10.69011      149.81682
368.50000      150.24947       32.69230        6.67924        7.56238       10.33332      149.81682
369.00000      150.36928       32.96703        6.68031        7.57063       10.24464      149.81682
