~Version ---------------------------------------------------
VERS. 2.0 : CWLS LOG ASCII STANDARD - VERSION 2.0
WRAP. NO  : One line per depth step
DLM . SPACE : Column Data Section Delimiter
~Well ------------------------------------------------------
STRT.F         48.5 : START DEPTH
STOP.F       1455.5 : STOP DEPTH
STEP.F          0.5 : STEP
NULL.       -999.25 : NULL VALUE
COMP.                 WALSH & WATTS, INC. : COMPANY
WELL.                         HOWARD F 25 : WELL
FLD .                            MONTAGUE : FIELD
CNTY.                            MONTAGUE : COUNTY
STAT.                               TEXAS : STATE
CTRY.                                 USA : COUNTRY
SEC .                                     : SECTION
TWP .                                     : TOWNSHIP
RGE .                                     : RANGE
LOC . 1115'FEL & 2300'FSL OF THE J.CHAMBLIS SURVEY A-123 : LOCATION
EKB .F                      512 : ELEVATION KELLY BUSHING
EDF .F                      511 : ELEVATION DERRICK FLOOR
EGL .F                      505 : ELEVATION GROUND LEVEL
PDAT.                        GL : PERMANENT DATUM
EPD .                       505 : ELEVATION PERMANENT DATUM
APD .                         7 : ABOVE PERMANENT DATUM
LMF .                        KB : LOG MEASURED FROM
DMF .                        KB : DRILLING MEASURED FROM
API .            42337343120000 : API NUMBER
UWI .                           : UWI NUMBER
DIGC.                     NthDS : DIGITIZING COMPANY
~Params ----------------------------------------------------
SRVC. PIONEER WIRELINE SERVICES : LOGGING COMPANY
LOG .                      DIFL : LOG
DATE.                2010-10-07 : RUN DATE
RUN .                         1 : RUN NUMBER
TDD .F                     1450 : TOTAL DEPTH DRILLER
TDL .F                     1452 : TOTAL DEPTH LOGGER
BOTL.F                     1452 : BOTTOM LOGGED INTERVAL
TOPL.F                       50 : TOP LOGGED INTERVAL
CSGS.IN                         : CASING SIZE
CSGD.F                          : CASING DRILLER
CSGL.F                          : CASING LOGGER
BS  .IN                   7.875 : BIT SIZE
MUD .                  GEL-CHEM : MUD TYPE
MUDD.                           : MUD DENSITY
MUDV.                           : MUD VISCOSITY
PH  .                           : MUD PH
FL  .                           : FLUID LOSS
MUDS.                  FLOWLINE : SOURCE OF SAMPLE
RM  .OHMM                   4.0 : MUD RESISTIVITY
RMT .DEGF                    72 : RM TEMPERATURE
RMF .OHMM                   3.0 : MUD FILTRATE RESISTIVITY
RMFT.DEGF                    72 : RMF TEMPERATURE
RMC .OHMM                   5.0 : MUD CAKE RESISTIVITY
RMCT.DEGF                    72 : RMC TEMPERATURE
RMFS.                      CALC : RMF SOURCE
RMCS.                      CALC : RMC SOURCE
RMBH.OHMM                     3 : MUD RESISTIVITY AT BHT
BHT .DEGF                    88 : BOTTOM HOLE TEMPERATURE
TIMC.           0730 2010-10-07 : TIME CIRCULATION STOPPED
TIML.           1020 2010-10-07 : TIME LOGGER ON BOTTOM
TMAX.DEGF                    88 : MAXIMUM RECORDED TEMPERATURE
UNIT.                      M-19 : EQUIPMENT NUMBER
BASE.                GRAHAM, TX : BASE LOCATION
ENG .                    WENDEL : RECORDED BY
WIT .           WOMBLE/BURLESON : WITNESSED BY
~Curve Information -----------------------------------------
DEPT.F          :DEPTH
CILD.MMHO       :
GRR.GAPI        :
RILD.OHMM       :
RILM.OHMM       :
RSFL.OHMM       :
SP.MV           :
~ASCII ------------------------------------------------------
# ...
129.50000      638.74553       44.14990        1.53677        2.39272        7.89829      122.48626
130.00000      705.75258       40.31078        1.43073        2.09860        6.84184      121.75500
130.50000      750.42701       39.21389        1.31599        1.84063        6.67011      121.75500
131.00000      806.81093       38.66544        1.22401        1.66672        7.25581      121.75500
131.50000      844.40021       37.56855        1.15230        1.55245        7.76115      121.75500
132.00000      900.78413       33.45520        1.10583        1.48419        7.56589      121.75500
132.50000      923.70817       31.26142        1.08260        1.46112        7.50102      122.12063
133.00000      943.65813       27.42230        1.07504        1.43388        8.02344      123.21752
133.50000      937.70997       26.05118        1.07141        1.40561        8.80190      124.31441
134.00000      939.32358       25.50274        1.06845        1.37608        8.50865      125.77694
134.50000      948.49896       24.95429        1.05750        1.37352        7.62369      127.60509
135.00000      895.26936       28.09140        1.08624        1.38495        6.71651      129.43324
135.50000      866.35614       34.15173        1.18166        1.39879        6.17216      131.62703
136.00000      808.53885       43.11059        1.23141        1.42233        5.81745      133.82081
136.50000      750.72157       53.86562        1.27444        1.44230        5.08216      136.38023
137.00000      692.90429       64.61790        1.43876        1.56234        3.91593      137.84275
137.50000      635.08700       73.57951        1.60093        1.76861        2.42760      140.40216
138.00000      554.43777       85.21479        1.87031        2.08142        2.69386      143.32721
138.50000      473.78854       93.78426        2.12905        2.38401        3.42304      145.52099
139.00000      393.13931       94.60693        2.48730        2.90439        4.66291      147.71477
139.50000      352.81469       91.86470        2.90608        3.52416        5.85999      150.27419
140.00000      293.40256       90.49358        3.31733        4.44448        7.17351      153.19923
140.50000      255.21837       91.86470        3.89749        5.33708        8.41883      154.66176
141.00000      197.94667       97.62338        4.45730        5.96776        9.23593      156.48991
141.50000      183.29103       98.72027        5.27940        6.82358        9.55115      157.95243
142.00000      168.63538       99.54294        5.90774        7.62992        9.23293      158.68369
142.50000      153.97974       94.98535        6.38221        8.58759        9.46786      159.78059
143.00000      143.29288       88.15172        6.80600        9.22994       10.01429      160.14622
143.50000      136.58396       82.67823        7.23817       10.06502       10.88722      160.87748
144.00000      131.09889       79.79889        7.46000       10.58560       11.99436      161.24311
144.50000      131.10849       79.52466        7.53477       10.62967       13.48351      161.97437
145.00000      131.11809       78.42777        7.53344       10.01680       13.03429      162.34000
145.50000      134.17989       77.60510        7.45626        9.37923       12.07971      162.70563
146.00000      138.77718       77.05666        7.33046        8.66426       10.82333      163.07126
146.50000      141.84815       76.23399        7.14725        8.00447        9.77977      163.07126
147.00000      144.90995       78.42777        6.98353        7.55847        8.98715      163.43689
147.50000      147.97175       81.17000        6.79235        7.35714        8.61476      163.43689
148.00000      152.56904       82.81534        6.60641        7.16177        8.25756      163.80252
148.50000      155.64000       86.38024        6.50153        7.02433        8.32627      163.43689
149.00000      158.70180       87.20291        6.39165        6.96704        8.75719      163.80252
149.50000      157.66650       85.83179        6.35469        6.92034        8.98001      163.80252
150.00000      155.16677       84.46068        6.40942        6.97821        8.78111      164.16815
150.50000      154.13052       78.71558        6.44505        6.96757        8.56025      164.03666
151.00000      153.09427       79.54127        6.49859        6.96654        8.55899      164.77061
151.50000      152.04885       80.64218        6.57254        7.03083        8.85112      164.77061
152.00000      150.49447       82.84402        6.64789        7.19657        9.07681      164.77061
152.50000      148.30228       83.66971        6.71068        7.34491        9.44042      164.77061
153.00000      146.11008       83.94494        6.80082        7.46287        9.62625      164.77061
153.50000      142.81698       83.94494        6.93384        7.53577        9.54392      164.77061
154.00000      136.22598       83.11925        7.09679        7.62458        9.65975      164.77061
154.50000      130.96043       82.56879        7.43057        7.77190        9.69591      164.77061
155.00000      124.81416       80.91741        7.75008        8.14385        9.06772      164.40363
155.50000      118.67706       78.71558        8.32572        8.80904        9.50209      164.03666
156.00000      112.53079       76.78897        8.77594        9.67298       10.13365      164.03666
156.50000      103.31597       75.68806        9.17239       11.00619       12.10632      164.03666
157.00000       97.16970       74.86237       10.42322       12.25705       14.41711      164.03666
157.50000       91.03260       75.96329       10.90731       13.91118       16.20516      164.40363
158.00000       84.88633       81.74310       11.51720       15.58610       18.21652      164.40363
158.50000       81.64391       82.29356       11.88623       16.06153       19.72642      164.40363
159.00000       81.47003       85.59631       12.07646       16.17969       19.19726      164.40363
159.50000       81.29616       89.44952       12.00211       15.65515       17.64054      164.40363
160.00000       81.12228       91.10090       11.94066       14.93028       15.93819      164.77061
160.50000       82.75135       94.95411       11.65940       14.12533       15.10107      164.03666
161.00000       86.35723       96.33025       11.26073       13.39239       14.42842      164.03666
161.50000       89.95395       97.98163       10.69764       12.48998       13.45534      164.03666
162.00000       93.55984       98.25686       10.06443       11.64838       13.38499      164.40363
162.50000       98.95949       93.02750        9.56548       10.80076       12.96051      163.66969
163.00000      102.56538       86.97246        9.26941        9.94132       10.90817      163.66969
163.50000      106.17127       84.77062        9.03045        9.75271       10.00642      163.66969
164.00000      109.76798       78.71558        8.81353        9.59787        9.98638      163.30272
164.50000      115.17681       75.96329        8.56024        9.47554        9.92830      162.93574
165.00000      118.78270       73.21099        8.31423        9.47386       10.08619      162.56877
165.50000      122.37942       72.11008        8.16886        9.30931       10.42138      162.20180
166.00000      124.19197       71.00916        8.09254        8.98903       10.73291      162.20180
166.50000      123.28416       72.93576        8.06882        8.73068       10.70780      161.83483
167.00000      121.45893       74.31191        8.11319        8.55638       10.44787      161.83483
167.50000      119.63370       76.78897        8.46968        8.44732       10.05663      161.83483
168.00000      115.28557       82.84402        8.83388        8.62606        9.82411      161.83483
168.50000      108.76796       87.52292        9.29165        9.20401        9.67453      161.83483
169.00000      104.41983       86.42200        9.69119       10.31510       10.15852      161.46785
