~Version ---------------------------------------------------
VERS. 2.0 : CWLS LOG ASCII STANDARD - VERSION 2.0
WRAP. NO  : One line per depth step
DLM . SPACE : Column Data Section Delimiter
~Well ------------------------------------------------------
STRT.F           48 : START DEPTH
STOP.F       1432.0 : STOP DEPTH
STEP.F          0.5 : STEP
NULL.       -999.25 : NULL VALUE
COMP.                 WALSH & WATTS, INC. : COMPANY
WELL.                         HOWARD F 25 : WELL
FLD .                            MONTAGUE : FIELD
CNTY.                            MONTAGUE : COUNTY
STAT.                               TEXAS : STATE
CTRY.                                 USA : COUNTRY
SEC .                                     : SECTION
TWP .                                     : TOWNSHIP
RGE .                                     : RANGE
LOC . 1115'FEL & 2300'FSL OF THE J.CHAMBLIS SURVEY A-123 : LOCATION
EKB .F                      512 : ELEVATION KELLY BUSHING
EDF .F                      511 : ELEVATION DERRICK FLOOR
EGL .F                      505 : ELEVATION GROUND LEVEL
PDAT.                        GL : PERMANENT DATUM
EPD .                       505 : ELEVATION PERMANENT DATUM
APD .                         7 : ABOVE PERMANENT DATUM
LMF .                        KB : LOG MEASURED FROM
DMF .                        KB : DRILLING MEASURED FROM
API .            42337343120000 : API NUMBER
UWI .                           : UWI NUMBER
DIGC.                     NthDS : DIGITIZING COMPANY
~Params ----------------------------------------------------
SRVC. PIONEER WIRELINE SERVICES : LOGGING COMPANY
LOG .                   CNFD/ML : LOG
DATE.                2010-10-07 : RUN DATE
RUN .                         1 : RUN NUMBER
TDD .F                     1450 : TOTAL DEPTH DRILLER
TDL .F                     1452 : TOTAL DEPTH LOGGER
BOTL.F                     1452 : BOTTOM LOGGED INTERVAL
TOPL.F                       50 : TOP LOGGED INTERVAL
CSGS.IN                         : CASING SIZE
CSGD.F                          : CASING DRILLER
CSGL.F                          : CASING LOGGER
BS  .IN                   7.875 : BIT SIZE
MUD .                  GEL-CHEM : MUD TYPE
MUDD.                           : MUD DENSITY
MUDV.                           : MUD VISCOSITY
PH  .                           : MUD PH
FL  .                           : FLUID LOSS
MUDS.                  FLOWLINE : SOURCE OF SAMPLE
RM  .OHMM                   4.0 : MUD RESISTIVITY
RMT .DEGF                    72 : RM TEMPERATURE
RMF .OHMM                   3.0 : MUD FILTRATE RESISTIVITY
RMFT.DEGF                    72 : RMF TEMPERATURE
RMC .OHMM                   5.0 : MUD CAKE RESISTIVITY
RMCT.DEGF                    72 : RMC TEMPERATURE
RMFS.                      CALC : RMF SOURCE
RMCS.                      CALC : RMC SOURCE
RMBH.OHMM                     3 : MUD RESISTIVITY AT BHT
BHT .DEGF                    88 : BOTTOM HOLE TEMPERATURE
TIMC.           0730 2010-10-07 : TIME CIRCULATION STOPPED
TIML.           1020 2010-10-07 : TIME LOGGER ON BOTTOM
TMAX.DEGF                    88 : MAXIMUM RECORDED TEMPERATURE
UNIT.                      M-19 : EQUIPMENT NUMBER
BASE.                GRAHAM, TX : BASE LOCATION
ENG .                    WENDEL : RECORDED BY
WIT .           WOMBLE/BURLESON : WITNESSED BY
~Curve Information -----------------------------------------
DEPT.F          :DEPTH
CALD.IN         :
DPHI.%          :
GRD.GAPI        :
MINV.OHMM       :
MNOR.OHMM       :
NPHI.%          :
RHOC.G/CC       :
~ASCII ------------------------------------------------------
# ...
678.50000        7.78018       26.45005       50.68908        7.95072        9.01014       21.47722        0.04420
679.00000        7.60000       27.92272       47.45453        7.38116        8.47826       21.28768        0.02971
679.50000        7.60618       28.96635       45.40908        8.18840        9.46811       19.94903        0.02971
680.00000        7.61364       29.71881       42.95454        9.25652       12.75362       19.39340        0.03333
680.50000        7.62091       29.98416       40.81908        7.40869        9.45652       19.70743        0.03696
681.00000        7.62709       30.00786       42.27272        6.25652        7.39130       20.39901        0.05145
681.50000        7.63455       29.25584       45.54544        5.94203        7.10145       20.57507        0.06232
682.00000        7.64200       28.62922       48.81817        5.55507        6.75362       20.42396        0.06956
682.50000        7.64800       28.16192       51.54544        5.49855        6.47391       20.62295        0.06594
683.00000        7.65545       28.33798       50.11363        5.90724        7.04637       21.44714        0.05507
683.50000        7.66164       28.80083       45.16908        6.31739        8.04927       20.77074        0.04783
684.00000        7.66909       29.44203       39.23726        6.81159        8.69565       20.12376        0.04058
684.50000        7.66745       29.97637       35.78181        7.68116        9.13043       20.30018        0.03696
685.00000        7.65891       29.97701       36.81817        7.85507        9.38116       20.32864        0.04058
685.50000        7.64855       29.88373       39.54545        7.62319        9.14347       20.14971        0.05145
686.00000        7.63982       29.41374       46.29272        7.39130        9.22753       20.72943        0.05870
686.50000        7.63636       28.84982       54.38726        8.11594        9.83043       21.84480        0.06594
687.00000        7.63636       28.40618       62.48453        8.98550       10.25797       22.40439        0.07681
687.50000        7.63636       28.55333       65.79544        8.40579        9.37246       21.70128        0.08043
688.00000        7.60436       29.43241       66.65453        8.24782        8.76811       20.85740        0.08406
688.50000        7.57745       30.01859       65.83635        7.78985        8.13043       20.53283        0.09855
689.00000        7.54545       30.01936       64.85453        6.76956        7.18840       20.47857        0.12029
689.50000        7.48727       30.02012       65.38635        6.64637        6.56377       19.91942        0.16196
690.00000        7.41455       28.31025       68.20635        6.54203        6.40290       18.46352        0.19275
690.50000        7.32727       25.46040       71.92635        6.76377        6.48261       18.16932        0.19275
691.00000        7.28545       22.04015       77.60998        5.25362        5.82608       18.45761        0.19275
691.50000        7.44000       19.19030       79.63635        5.57971        5.57971       18.15353        0.16377
692.00000        7.62545       18.33106       76.79998        7.53623        6.01449       17.64195        0.12899
692.50000        7.78000       17.61514       73.25453        6.81159        6.37681       17.21551        0.10580
693.00000        7.85909       16.96010       73.32544        7.43913        7.00869       18.35552        0.10217
693.50000        7.83182       16.96074       77.59907        8.09565        7.31884       19.49516        0.08406
694.00000        7.80909       17.54705       82.54907        6.54203        6.23188       20.31921        0.08043
694.50000        7.89164       18.13335       88.49180        6.23188        6.08695       20.59994        0.08768
695.00000        8.00636       17.96565       91.63634        5.09275        5.09130       20.77637        0.10942
695.50000        8.14382       17.17593       91.63634        4.52174        4.36232       20.92340        0.11667
696.00000        8.28145       16.51784       91.63634        4.34782        4.10145       21.70805        0.11667
696.50000        8.34091       16.07213       91.63634        4.01884        3.79855       22.25947        0.09855
697.00000        8.37400       16.13877       91.40180        3.62319        3.48840       21.28714        0.08768
697.50000        8.42600       15.88690       91.10998        3.33333        3.39130       20.06193        0.09493
698.00000        8.48836       15.34787       91.18089        4.27536        4.56522       19.89496        0.10217
698.50000        8.55454       14.93680       93.36271        5.79710        4.41014       24.01903        0.09493
699.00000        8.61145       14.73628       95.18180        5.79710        4.49275       26.84979        0.07319
699.50000        8.67964       15.12594       95.06452        5.34493        5.07246       27.16418        0.05507
700.00000        8.69091       15.60545       94.96634        5.53623        5.07246       26.97824        0.04420
700.50000        8.64164       16.24043       96.51816        6.30036        5.19855       26.35943        0.03393
701.00000        8.59473       17.42692      100.28180        6.27148        5.19855       25.75623        0.01949
701.50000        8.56491       18.29525      103.41816        6.58050        5.48736       25.91803        0.00505
702.00000        8.57273       18.75970      107.18179        6.35379        5.11769       27.06060        0.00866
702.50000        8.57927       18.91477      107.99998        5.68953        4.47653       27.53333        0.01227
703.00000        8.58709       18.43979      105.77179        5.51624        4.54873       27.38405        0.02671
703.50000        8.59473       17.72692       98.95361        5.34296        4.62094       26.21544        0.02671
704.00000        8.60054       17.13287       93.27271        5.88447        4.41444       24.20011        0.02671
704.50000        8.60436       16.76512       89.72725        5.77617        4.66281       23.27267        0.01949
705.00000        8.60745       16.51617       90.43634        5.84837        4.81299       25.29941        0.01949
705.50000        8.61127       16.35079       94.69089        5.93502        4.52419       28.03501        0.01949
706.00000        8.61509       16.21176       98.94543        6.02166        4.64260       30.00869        0.02310
706.50000        8.61818       16.35219      100.99361        6.22960        4.81011       30.00933        0.01588
707.00000        8.68054       16.52094      102.25089        6.28159        4.66281       30.01009        0.01588
707.50000        8.73254       16.66174      103.71816        5.92057        4.32635       28.39134        0.01588
708.00000        8.79473       16.69032      107.48179        5.92057        4.29025       25.15334        0.01588
708.50000        8.81673       16.69108      109.36361        5.92057        4.25559       23.21730        0.01588
709.00000        8.76745       16.80883      109.36361        5.92057        4.22671       23.01752        0.00505
709.50000        8.70836       17.32231      111.04088        5.92057        4.19061       22.97571        0.00505
710.00000        8.65909       17.90350      113.14088        5.87581        4.16173       24.13145        0.00505
710.50000        8.60000       18.29205      115.00088        5.61011        4.12563       26.49268        0.00505
711.00000        8.64964       18.29575      113.60452        5.38772        4.09675       28.01695        0.00505
711.50000        8.70909       18.25064      111.37088        5.65198        4.06065       28.58922        0.01588
712.00000        8.63964       18.19651      111.69816        5.72852        3.97112       27.90198        0.01227
712.50000        8.58182       18.27560      114.11997        5.66787        3.85126       27.09750        0.00505
713.00000        8.58709       18.34174      115.09088        5.58700        3.70686       26.75646        0.00866
