~Version ---------------------------------------------------
VERS. 2.0 : CWLS LOG ASCII STANDARD - VERSION 2.0
WRAP. NO  : One line per depth step
DLM . SPACE : Column Data Section Delimiter
~Well ------------------------------------------------------
STRT.F           40 : START DEPTH
STOP.F       1271.0 : STOP DEPTH
STEP.F          0.5 : STEP
NULL.       -999.25 : NULL VALUE
COMP.                 WALSH & WATTS, INC. : COMPANY
WELL.                         HOWARD G 17 : WELL
FLD .             MONTAGUE COUNTY REGULAR : FIELD
CNTY.                            MONTAGUE : COUNTY
STAT.                               TEXAS : STATE
CTRY.                                 USA : COUNTRY
SEC .                                     : SECTION
TWP .                                     : TOWNSHIP
RGE .                                     : RANGE
LOC . 520'FNL & 4250'FEL OF THE J.CHAMBLIS SURVEY, A-123 : LOCATION
EKB .F                      519 : ELEVATION KELLY BUSHING
EDF .F                      518 : ELEVATION DERRICK FLOOR
EGL .F                      512 : ELEVATION GROUND LEVEL
PDAT.                        GL : PERMANENT DATUM
EPD .                       512 : ELEVATION PERMANENT DATUM
APD .                         7 : ABOVE PERMANENT DATUM
LMF .                        KB : LOG MEASURED FROM
DMF .                        KB : DRILLING MEASURED FROM
API .            42337343900000 : API NUMBER
UWI .                           : UWI NUMBER
DIGC.                     NthDS : DIGITIZING COMPANY
~Params ----------------------------------------------------
SRVC. PIONEER WIRELINE SERVICES : LOGGING COMPANY
LOG .                      CNFD : LOG
DATE.                2010-10-13 : RUN DATE
RUN .                         1 : RUN NUMBER
TDD .F                     1298 : TOTAL DEPTH DRILLER
TDL .F                     1280 : TOTAL DEPTH LOGGER
BOTL.F                     1280 : BOTTOM LOGGED INTERVAL
TOPL.F                       50 : TOP LOGGED INTERVAL
CSGS.IN                         : CASING SIZE
CSGD.F                          : CASING DRILLER
CSGL.F                          : CASING LOGGER
BS  .IN                   7.875 : BIT SIZE
MUD .                  GEL-CHEM : MUD TYPE
MUDD.                           : MUD DENSITY
MUDV.                           : MUD VISCOSITY
PH  .                           : MUD PH
FL  .                           : FLUID LOSS
MUDS.                  FLOWLINE : SOURCE OF SAMPLE
RM  .OHMM                   3.6 : MUD RESISTIVITY
RMT .DEGF                    72 : RM TEMPERATURE
RMF .OHMM                   2.7 : MUD FILTRATE RESISTIVITY
RMFT.DEGF                    72 : RMF TEMPERATURE
RMC .OHMM                   4.5 : MUD CAKE RESISTIVITY
RMCT.DEGF                    72 : RMC TEMPERATURE
RMFS.                      CALC : RMF SOURCE
RMCS.                      CALC : RMC SOURCE
RMBH.OHMM                   3.0 : MUD RESISTIVITY AT BHT
BHT .DEGF                    85 : BOTTOM HOLE TEMPERATURE
TIMC.           0245 2010-10-13 : TIME CIRCULATION STOPPED
TIML.           0540 2010-10-13 : TIME LOGGER ON BOTTOM
TMAX.DEGF                    85 : MAXIMUM RECORDED TEMPERATURE
UNIT.                      M-19 : EQUIPMENT NUMBER
BASE.             GRAHAM, TEXAS : BASE LOCATION
ENG .                    WENDEL : RECORDED BY
WIT .           WOMBLE/BURLESON : WITNESSED BY
~Curve Information -----------------------------------------
DEPT.F          :DEPTH
CALI.IN         :
DPHI.PU         :
GRD.GAPI        :
MINV.OHMM       :
MNOR.OHMM       :
NPHI.PU         :
RHOC.G/CC       :
~ASCII ------------------------------------------------------
# ...
355.50000        7.47940       20.25233       71.94338        6.85650        8.40148       23.18929        0.03974
356.00000        7.46386       20.30537       77.32074        7.03791        8.32713       20.64926        0.03907
356.50000        7.48614       20.36684       79.81130        7.18661        8.57546       19.42986        0.03829
357.00000        7.51180       20.41460       80.24998        6.69145        9.07063       20.31083        0.03762
357.50000        7.47940       20.61342       79.60470        6.19628        7.83643       21.29682        0.03695
358.00000        7.42322       20.80269       78.50376        6.19033        7.56877       21.12986        0.03829
358.50000        7.42322       21.01322       76.20281        6.28847        7.50929       20.79095        0.04294
359.00000        7.42322       21.11985       74.71696        6.41487        7.18661       20.39306        0.04572
359.50000        7.42322       21.22685       75.40470        6.52193        7.30706       19.18196        0.03643
360.00000        7.42322       21.35775       76.41508        6.54275        7.58364       18.46569        0.02993
360.50000        7.42322       21.47834       76.62734        6.42379        7.68327       19.44100        0.02665
361.00000        7.42322       21.71868       75.16979        6.54275        8.21561       21.22811        0.03364
361.50000        7.42322       22.31663       69.92546        7.32936        9.07063       22.76945        0.03149
362.00000        7.42322       23.63318       64.64149        7.42156        8.88922       22.84564        0.02528
362.50000        7.42322       24.73075       59.35753        7.15093        8.47583       21.43114        0.01907
363.00000        7.43109       25.96277       55.94433        6.93977        7.81710       18.96005        0.01413
363.50000        7.43876       26.63733       56.09433        6.85650        8.24238       18.28140        0.01413
364.00000        7.44813       27.03150       56.60376        6.46840        7.76951       19.52739        0.01717
364.50000        7.45599       27.43485       54.76414        6.37769        7.43494       20.47137        0.02223
365.00000        7.45936       27.78299       52.92452        6.70780        7.88104       20.69850        0.02453
365.50000        7.45524       28.20068       51.71037        6.64238        8.23791       20.14060        0.02230
366.00000        7.45206       28.54882       51.60282        6.39405        7.90632       20.23440        0.02045
366.50000        7.44794       28.61481       51.74433        6.98884        8.02974       21.24115        0.01822
367.00000        7.44457       28.64974       50.94338        7.06319        8.17843       21.46325        0.01636
367.50000        7.44195       28.90656       49.52829        7.06319        8.47583       21.53188        0.01450
368.00000        7.45225       29.48237       47.83018        7.50929        9.21933       21.74795        0.01413
368.50000        7.46067       29.98635       45.09339        7.58364        9.21933       21.08036        0.01413
369.00000        7.47097       29.98933       39.33961        7.32936        8.17843       20.18284        0.01413
369.50000        7.47940       29.99181       33.67924        6.98884        7.73234       19.29665        0.01413
370.00000        7.50618       29.99466       29.71697        6.98884        7.65799       18.93132        0.01413
370.50000        7.48801       29.99764       29.07452        6.47881        7.80669       19.20135        0.01829
371.00000        7.45206       30.00012       28.68679        6.54275        8.92193       19.47175        0.02528
371.50000        7.44064       30.00309       28.61886        8.57546       11.30111       19.93586        0.03643
372.00000        7.48446       30.00595       30.21226        9.68624       11.85130       20.33003        0.02714
372.50000        7.52809       30.00843       32.26414        9.79330       11.62825       21.46281        0.01784
373.00000        7.57303       30.01141       31.27358       10.13234       11.44981       22.89736       -0.00074
373.50000        7.57303       30.01389       28.41509        9.98215       11.44981       25.31315        0.00160
374.00000        7.57303       30.01724       24.90565        9.47955       10.65724       26.40808        0.01554
374.50000        7.54625       30.01972       26.65188        9.32490        9.96282       26.63521        0.02974
375.00000        7.51948       30.02269       31.13207        9.21933       10.11152       26.37165        0.03208
375.50000        7.50000       30.02517       37.48018        9.09145       10.11152       25.88595        0.03111
376.00000        7.50468       30.02765       39.50093        8.98587        9.87360       25.46730        0.03030
376.50000        7.51030       30.03101       41.01792        9.07063        9.66542       24.26488        0.02933
377.00000        7.51498       30.03348       40.92452        9.31895       10.03717       22.54409        0.02996
377.50000        7.53090       30.03533       40.83112        9.29814       10.11152       20.58243        0.03160
378.00000        7.50599       30.03592       40.94433        9.19256       10.11152       18.42077        0.03353
378.50000        7.47640       30.03651       41.60376        9.10632       10.11152       17.70929        0.03513
379.00000        7.44101       30.03722       43.16037        8.90111       10.11152       17.96698        0.03309
379.50000        7.43202       30.03782       44.45659        8.29739       10.11152       18.93813        0.02472
380.00000        7.45412       30.03853       44.59244        7.43494       10.11152       21.07355        0.01636
380.50000        7.48052       30.03912       43.83678        8.10409       10.11152       22.58621        0.00632
381.00000        7.49682       30.03971       42.00848        8.81040       10.11152       23.46126        0.00855
381.50000        7.48933       30.04043       39.67924        8.14126        9.96282       22.26676        0.01093
382.00000        7.48315       30.04102       39.52924        7.80669        9.81412       20.41831        0.00561
382.50000        7.46910       30.04173       40.02735        7.53457        9.31301       19.90166        0.00033
383.00000        7.43858       30.04232       40.75471        7.53457        9.30855       20.07999       -0.00227
383.50000        7.42322       30.04292       45.31414        7.89591       10.40892       19.59002        0.00866
384.00000        7.42322       28.93684       49.66980        8.52044       10.91895       17.08772        0.02178
384.50000        7.42322       27.93102       49.95282        8.98141       11.51375       16.73436        0.03271
385.00000        7.42322       27.61464       47.32074        9.90334       11.89591       17.29004        0.03130
385.50000        7.42322       27.93233       47.02357       10.11152       11.79628       19.07376        0.02955
386.00000        7.42322       28.31028       47.35188       10.11152       11.30111       21.10277        0.03208
386.50000        7.42004       28.76382       47.03772        9.66542       11.18959       22.76373        0.03829
387.00000        7.40449       28.92969       46.10376        9.36803       10.85501       23.19198        0.04346
387.50000        7.41030       29.02236       45.11320        9.36803       10.44609       22.33107        0.04732
388.00000        7.41742       29.00231       45.16980        9.36803       10.11152       21.23733        0.04572
388.50000        7.42322       28.99272       47.54716        8.56505        9.73977       21.65955        0.04439
389.00000        7.49663       28.99343       51.22640        6.95910        8.75093       22.44995        0.03751
389.50000        7.49288       28.80534       55.47169        6.26617        7.83494       23.03179        0.03476
390.00000        7.48914       27.63613       59.71697        5.84832        7.13754       21.80597        0.03981
