~Version ---------------------------------------------------
VERS. 2.0 : CWLS LOG ASCII STANDARD - VERSION 2.0
WRAP. NO  : One line per depth step
DLM . SPACE : Column Data Section Delimiter
~Well ------------------------------------------------------
STRT.F         48.5 : START DEPTH
STOP.F       1455.5 : STOP DEPTH
STEP.F          0.5 : STEP
NULL.       -999.25 : NULL VALUE
COMP.                 WALSH & WATTS, INC. : COMPANY
WELL.                         HOWARD F 25 : WELL
FLD .                            MONTAGUE : FIELD
CNTY.                            MONTAGUE : COUNTY
STAT.                               TEXAS : STATE
CTRY.                                 USA : COUNTRY
SEC .                                     : SECTION
TWP .                                     : TOWNSHIP
RGE .                                     : RANGE
LOC . 1115'FEL & 2300'FSL OF THE J.CHAMBLIS SURVEY A-123 : LOCATION
EKB .F                      512 : ELEVATION KELLY BUSHING
EDF .F                      511 : ELEVATION DERRICK FLOOR
EGL .F                      505 : ELEVATION GROUND LEVEL
PDAT.                        GL : PERMANENT DATUM
EPD .                       505 : ELEVATION PERMANENT DATUM
APD .                         7 : ABOVE PERMANENT DATUM
LMF .                        KB : LOG MEASURED FROM
DMF .                        KB : DRILLING MEASURED FROM
API .            42337343120000 : API NUMBER
UWI .                           : UWI NUMBER
DIGC.                     NthDS : DIGITIZING COMPANY
~Params ----------------------------------------------------
SRVC. PIONEER WIRELINE SERVICES : LOGGING COMPANY
LOG .                      DIFL : LOG
DATE.                2010-10-07 : RUN DATE
RUN .                         1 : RUN NUMBER
TDD .F                     1450 : TOTAL DEPTH DRILLER
TDL .F                     1452 : TOTAL DEPTH LOGGER
BOTL.F                     1452 : BOTTOM LOGGED INTERVAL
TOPL.F                       50 : TOP LOGGED INTERVAL
CSGS.IN                         : CASING SIZE
CSGD.F                          : CASING DRILLER
CSGL.F                          : CASING LOGGER
BS  .IN                   7.875 : BIT SIZE
MUD .                  GEL-CHEM : MUD TYPE
MUDD.                           : MUD DENSITY
MUDV.                           : MUD VISCOSITY
PH  .                           : MUD PH
FL  .                           : FLUID LOSS
MUDS.                  FLOWLINE : SOURCE OF SAMPLE
RM  .OHMM                   4.0 : MUD RESISTIVITY
RMT .DEGF                    72 : RM TEMPERATURE
RMF .OHMM                   3.0 : MUD FILTRATE RESISTIVITY
RMFT.DEGF                    72 : RMF TEMPERATURE
RMC .OHMM                   5.0 : MUD CAKE RESISTIVITY
RMCT.DEGF                    72 : RMC TEMPERATURE
RMFS.                      CALC : RMF SOURCE
RMCS.                      CALC : RMC SOURCE
RMBH.OHMM                     3 : MUD RESISTIVITY AT BHT
BHT .DEGF                    88 : BOTTOM HOLE TEMPERATURE
TIMC.           0730 2010-10-07 : TIME CIRCULATION STOPPED
TIML.           1020 2010-10-07 : TIME LOGGER ON BOTTOM
TMAX.DEGF                    88 : MAXIMUM RECORDED TEMPERATURE
UNIT.                      M-19 : EQUIPMENT NUMBER
BASE.                GRAHAM, TX : BASE LOCATION
ENG .                    WENDEL : RECORDED BY
WIT .           WOMBLE/BURLESON : WITNESSED BY
~Curve Information -----------------------------------------
DEPT.F          :DEPTH
CILD.MMHO       :
GRR.GAPI        :
RILD.OHMM       :
RILM.OHMM       :
RSFL.OHMM       :
SP.MV           :
~ASCII ------------------------------------------------------
# ...
489.50000      131.14247       87.08789        7.49033        8.22961       10.44856      153.47982
490.00000      132.17135       89.28569        7.39495        8.18183       10.44702      154.21242
490.50000      137.34640       90.93405        7.29054        8.09491       10.01423      154.57872
491.00000      140.79950       92.58240        7.04765        7.99183        9.92845      154.94502
491.50000      144.25259       92.30767        6.85163        7.67260       10.44180      155.31132
492.00000      147.70569       92.30767        6.62337        7.24037       10.52830      155.67762
492.50000      152.88992       92.58240        6.48415        6.83249        9.04500      155.67762
493.00000      156.34302       92.58240        6.37055        6.51057        7.90297      155.67762
493.50000      159.79611       90.93405        6.24086        6.50394        7.90158      155.67762
494.00000      158.89227       88.46152        6.16294        6.46999        8.59501      155.31132
494.50000      158.28666       87.63734        6.30224        6.47995        8.30866      155.31132
495.00000      156.15672       86.26372        6.47335        6.56122        7.33626      154.94502
495.50000      152.49330       84.61537        6.62247        7.16414        8.44714      154.57872
496.00000      146.99815       82.41756        6.81260        7.96188       10.47900      154.21242
496.50000      143.33473       80.76921        7.00759        8.19875       10.87290      153.84612
497.00000      136.91652       78.57141        7.30993        8.40176       10.78008      153.11352
497.50000      130.49831       77.19778        7.80515        8.77654       10.59805      152.38092
498.00000      124.08009       76.92306        7.94333        9.12285       10.59649      152.01462
498.50000      123.17626       75.27471        8.02265        9.44188       10.95781      150.91572
499.00000      124.23269       69.50548        8.02123        9.65501       10.95588      150.18312
499.50000      125.29831       67.58240        8.02005        9.49706       10.86235      149.45052
500.00000      125.79634       66.20878        8.04742        9.53233       10.61213      149.08422
500.50000      126.85277       66.36196        7.90515        9.37611       10.34498      147.71477
501.00000      127.91839       66.08774        7.78863        9.32866       10.16982      146.61788
501.50000      128.97482       65.81351        7.65158        9.35066       10.16802      145.88662
502.00000      132.51537       62.79706        7.50954        9.36904       10.96983      144.78973
502.50000      135.53688       61.15172        7.33452        9.31691       13.54770      144.05847
503.00000      138.54921       55.94149        7.16418        8.97282       14.37108      142.59595
503.50000      141.56154       55.39304        7.02466        8.57579       11.83067      141.49905
504.00000      146.08463       55.11882        6.88184        8.19702       11.33924      140.76779
504.50000      147.53591       52.65081        6.85182        8.21728       11.72732      139.67090
505.00000      148.98720       50.45703        6.79698        8.24223       12.12832      139.30527
505.50000      150.43848       47.98902        6.70565        8.26261       12.54340      138.93964
506.00000      152.62000       43.60145        6.63086        8.39260       12.86316      138.93964
506.50000      154.07129       41.68189        6.54176        8.52536       13.19145      138.57401
507.00000      155.52257       37.56855        6.51102        8.59056       13.64252      138.20838
507.50000      156.25762       39.35100        6.47476        8.44524       13.18679      137.84275
508.00000      156.27204       45.43600        6.43870        8.32579       12.53305      137.47712
508.50000      156.28166       51.89121        6.40844        8.17666       11.81114      137.47712
509.00000      157.51256       55.11882        6.37275        8.06621       10.58088      137.47712
509.50000      158.75265       54.29615        6.31820        8.16573       10.14136      137.47712
510.00000      160.60359       51.55392        6.25335        8.28720       10.94074      137.47712
510.50000      161.83449       44.97257        6.19982        8.38945       12.41733      137.84275
511.00000      160.00759       40.03655        6.20920        8.34065       12.31067      138.57401
511.50000      158.18068       39.21389        6.36749        8.43904       11.79965      138.57401
512.00000      155.44032       37.29432        6.47232        8.64619       11.89767      138.93964
512.50000      155.44994       35.37476        6.45643        8.90239       12.83549      138.93964
513.00000      155.45956       34.55209        6.44294        9.12091       13.61559      138.57401
513.50000      155.46917       35.92321        6.42712        9.11930       14.20064      137.84275
514.00000      155.48360       39.76233        6.43685        8.94867       14.68665      137.84275
514.50000      154.73106       42.50456        6.48778        8.72481       13.60876      137.47712
515.00000      153.20718       49.36014        6.54997        8.68579       11.10885      137.47712
515.50000      151.68330       51.27970        6.60178        8.84283       10.03618      138.20838
516.00000      152.31296       49.36014        6.53955        9.03518       10.64583      138.20838
516.50000      153.69996       41.35282        6.35698        9.01785       11.19782      138.20838
517.00000      155.08697       35.92321        6.40998        8.99725       11.10164      138.57401
517.50000      156.47398       34.27787        6.47416        8.97669       10.91399      138.57401
518.00000      154.19275       34.55209        6.52427        8.95947       10.72920      138.57401
518.50000      152.66887       35.10054        6.56459        8.97681       10.81833      138.57401
519.00000      152.96315       37.02010        6.49246        9.00737       11.67141      138.20838
519.50000      155.07558       39.48811        6.37607        8.92404       12.69824      137.47712
520.00000      158.23964       41.40767        6.26176        8.72360       12.58954      137.47712
520.50000      159.59910       40.31078        6.24235        8.56037       11.56741      137.47712
521.00000      160.22395       40.03655        6.24124        8.39073       10.62826      137.84275
521.50000      160.84880       40.85922        6.16902        8.28882       10.44861      138.20838
522.00000      163.30580       41.68189        6.08304        8.06307       10.53541      138.20838
522.50000      165.46415       41.95611        5.99827        7.84347       10.71339      137.84275
523.00000      167.61331       42.50456        5.92886        7.66493       11.36418      138.20838
523.50000      166.09424       43.60145        6.04158        7.45617       10.98455      137.47712
524.00000      163.04605       47.71480        6.13950        7.44878       10.26504      137.84275
524.50000      159.99785       50.18280        6.26152        7.58772        9.92213      137.47712
525.00000      156.94048       49.36014        6.38597        8.13244       10.52516      137.47712
525.50000      153.89229       48.53747        6.49165        8.83828       12.78071      137.11149
526.00000      150.23367       41.95611        6.59332        9.52463       14.69065      137.11149
526.50000      149.87598       39.76233        6.65728        9.78235       15.87141      137.11149
527.00000      149.51829       36.74588        6.69955       10.02979       15.77902      137.11149
527.50000      150.03295       37.29432        6.56888        9.86708       14.25540      136.74586
528.00000      152.11346       38.39122        6.46167        9.31888       13.89612      136.01459
528.50000      159.12022       37.02010        6.17341        8.75077       13.20721      136.01459
529.00000      166.13617       32.35831        5.91715        8.29560       11.63292      135.64896
