~Version ---------------------------------------------------
VERS. 2.0 : CWLS LOG ASCII STANDARD - VERSION 2.0
WRAP. NO  : One line per depth step
DLM . SPACE : Column Data Section Delimiter
~Well ------------------------------------------------------
STRT.F           40 : START DEPTH
STOP.F       1284.0 : STOP DEPTH
STEP.F          0.5 : STEP
NULL.       -999.25 : NULL VALUE
COMP.                 WALSH & WATTS, INC. : COMPANY
WELL.                         HOWARD G 17 : WELL
FLD .             MONTAGUE COUNTY REGULAR : FIELD
CNTY.                            MONTAGUE : COUNTY
STAT.                               TEXAS : STATE
CTRY.                                 USA : COUNTRY
SEC .                                     : SECTION
TWP .                                     : TOWNSHIP
RGE .                                     : RANGE
LOC . 520'FNL & 4250'FEL OF THE J.CHAMBLIS SURVEY, A-123 : LOCATION
EKB .F                      519 : ELEVATION KELLY BUSHING
EDF .F                      518 : ELEVATION DERRICK FLOOR
EGL .F                      512 : ELEVATION GROUND LEVEL
PDAT.                        GL : PERMANENT DATUM
EPD .                       512 : ELEVATION PERMANENT DATUM
APD .                         7 : ABOVE PERMANENT DATUM
LMF .                        KB : LOG MEASURED FROM
DMF .                        KB : DRILLING MEASURED FROM
API .            42337343900000 : API NUMBER
UWI .                           : UWI NUMBER
DIGC.                     NthDS : DIGITIZING COMPANY
~Params ----------------------------------------------------
SRVC. PIONEER WIRELINE SERVICES : LOGGING COMPANY
LOG .                      DIFL : LOG
DATE.                2010-10-13 : RUN DATE
RUN .                         1 : RUN NUMBER
TDD .F                     1298 : TOTAL DEPTH DRILLER
TDL .F                     1280 : TOTAL DEPTH LOGGER
BOTL.F                     1280 : BOTTOM LOGGED INTERVAL
TOPL.F                       50 : TOP LOGGED INTERVAL
CSGS.IN                         : CASING SIZE
CSGD.F                          : CASING DRILLER
CSGL.F                          : CASING LOGGER
BS  .IN                   7.875 : BIT SIZE
MUD .                  GEL-CHEM : MUD TYPE
MUDD.                           : MUD DENSITY
MUDV.                           : MUD VISCOSITY
PH  .                           : MUD PH
FL  .                           : FLUID LOSS
MUDS.                  FLOWLINE : SOURCE OF SAMPLE
RM  .OHMM                   3.6 : MUD RESISTIVITY
RMT .DEGF                    72 : RM TEMPERATURE
RMF .OHMM                   2.7 : MUD FILTRATE RESISTIVITY
RMFT.DEGF                    72 : RMF TEMPERATURE
RMC .OHMM                   4.5 : MUD CAKE RESISTIVITY
RMCT.DEGF                    72 : RMC TEMPERATURE
RMFS.                      CALC : RMF SOURCE
RMCS.                      CALC : RMC SOURCE
RMBH.OHMM                   3.0 : MUD RESISTIVITY AT BHT
BHT .DEGF                    85 : BOTTOM HOLE TEMPERATURE
TIMC.           0245 2010-10-13 : TIME CIRCULATION STOPPED
TIML.           0540 2010-10-13 : TIME LOGGER ON BOTTOM
TMAX.DEGF                    85 : MAXIMUM RECORDED TEMPERATURE
UNIT.                      M-19 : EQUIPMENT NUMBER
BASE.             GRAHAM, TEXAS : BASE LOCATION
ENG .                    WENDEL : RECORDED BY
WIT .           WOMBLE/BURLESON : WITNESSED BY
~Curve Information -----------------------------------------
DEPT.F          :DEPTH
CILD.MMHO       :
GRR.GAPI        :
RILD.OHMM       :
RILM.OHMM       :
RSFL.OHMM       :
SP.MV           :
~ASCII ------------------------------------------------------
40.00000        -999.25       48.50220        -999.25        -999.25      484.57668        -999.25
40.50000        -999.25       46.89251        3.41302        -999.25      478.71220        -999.25
41.00000      298.44455       46.55352        3.52237        -999.25      477.86776        -999.25
41.50000      288.05488       48.22665        3.75191        -999.25      498.24808        -999.25
42.00000      272.46708       49.69162        3.96468        -999.25      518.13940        -999.25
42.50000      256.87927       51.77312        4.22305        -999.25      555.14093        -999.25
43.00000      241.29147       53.13105        4.46280        -999.25      586.12172        -999.25
43.50000      227.14786       54.19361        4.75334        -999.25      307.99412        -999.25
44.00000      212.14535       54.74669        5.02901        -999.25      132.83893      106.96034
44.50000      200.89016       54.94493        5.36621        -999.25       66.94053      106.96034
45.00000      193.73570       56.99867        5.38355        -999.25       51.25343      106.96034
45.50000      188.62830       61.55814        5.27230        -999.25       41.07586      106.96034
46.00000      185.06448       68.39140        5.31128        -999.25       31.56123      106.96034
46.50000      184.57456       72.20550        5.28805        5.05119       24.23872      106.96034
47.00000      187.13867       70.47884        5.13451        5.18204       24.03154      106.91805
47.50000      189.69615       64.22841        4.93679        5.31628       24.73363      106.57972
48.00000      197.71476       60.04757        4.75595        5.38585       25.36341      106.28368
48.50000      204.87647       57.35352        4.55752        5.29212       25.37113      105.94536
49.00000      212.03817       54.25109        4.39084        4.97626       22.79875      105.45109
49.50000      222.00216       51.47576        4.19793        4.59028       19.88020      104.84580
50.00000      234.81909       51.27753        4.02278        4.15373       17.93210      104.08985
50.50000      250.69461       52.07048        3.83155        3.82200       16.08750      103.22289
51.00000      263.16979       51.82268        3.64941        3.60371       14.35902      102.36386
51.50000      277.06633       51.30132        3.49715        3.42301       13.92343      101.64228
52.00000      293.82541       49.26145        3.33091        3.22770       13.44282      100.81761
52.50000      310.57788       47.89757        3.19194        3.08138       12.58430       99.99029
53.00000      324.31576       47.82422        3.04020        2.94528       11.32422       99.26871
53.50000      332.00461       47.74096        2.96453        2.87338       11.18037       98.44404
54.00000      339.70007       45.66938        2.92349        2.82911       11.50210       97.99470
54.50000      344.03056       41.78788        2.88319        2.78570       11.75984       97.60615
55.00000      346.68186       40.23370        2.84830        2.77149       10.67550       97.21496
55.50000      354.84009       40.79669        2.80886        2.76694        9.54940       96.87399
56.00000      367.19197       41.16740        2.75803        2.76307        9.84456       96.48545
56.50000      376.45423       41.80770        2.70103        2.75853       10.67679       96.38765
57.00000      384.04392       42.90594        2.65214        2.63156       10.30449       96.38765
57.50000      388.30169       45.10242        2.59734        2.47176        9.89443       96.38765
58.00000      392.55945       45.52863        2.56372        2.33485        9.15099       97.11188
58.50000      392.89692       44.73568        2.57200        2.29888        8.50629       97.93919
59.00000      393.23440       41.84735        2.63910        2.30982        8.64569       98.66342
59.50000      389.77057       40.57268        2.69939        2.34710        9.49144      100.14360
60.00000      377.16379       40.30903        2.76997        2.45138       10.25255      101.71364
60.50000      359.98223       41.66299        2.83308        2.60304        9.75507      103.09073
61.00000      338.39117       48.24647        3.01568        2.78791       10.21081      104.66342
61.50000      314.59865       57.81938        3.28159        3.04632       10.70739      106.23611
62.00000      290.80614       69.23193        3.53332        3.32685        9.43383      107.66606
62.50000      278.46811       84.75197        3.84464        3.67908        8.35234      109.31012
63.00000      259.96436       95.98016        4.13956        4.01789        8.57701      110.74800
63.50000      241.46061       99.26298        4.50456        4.44328        9.04024      112.39470
64.00000      222.95686       98.96562        4.85010        4.85246        9.29416      114.13126
64.50000      204.45311       97.77818        5.27744        5.36621       10.02052      116.22201
65.00000      185.89647       95.62532        5.75748        5.93471       10.94465      118.61408
65.50000      167.30678       93.63104        6.25600        6.56104       12.40705      120.70483
66.00000      148.72370       91.29778        6.87845        7.40023       15.32274      122.14536
66.50000      135.24428       90.29074        7.47357        8.22167       18.30270      123.58853
67.00000      121.76485       93.21871        8.21717        9.27325       18.95937      124.73302
67.50000      108.28543       97.07047        8.91183       10.30260       19.14962      125.22994
68.00000      101.00708       97.07047        9.65756       11.61752       20.75331      125.66342
68.50000       96.82266       89.93391       10.46571       12.89138       23.44054      126.16298
69.00000       92.64485       83.83809       10.92269       13.53479       24.83623      126.65989
69.50000       89.78923       81.40968       11.20217       14.06229       24.53566      127.09602
70.00000       87.58809       79.82378       11.45249       14.17661       23.88714      127.59293
70.50000       85.39357       82.40087       11.74553       14.30928       22.31265      127.95505
71.00000       85.19555       85.71739       11.74553       14.12148       21.26491      128.15328
71.50000       85.99579       88.38765       11.74553       13.65896       22.51186      128.38060
72.00000       86.79603       86.89492       11.66216       13.19550       21.72289      128.57884
72.50000       87.59626       84.29404       11.56600       12.70826       19.36652      128.26958
73.00000       88.39650       82.59911       11.45737       12.17361       18.57548      127.82553
73.50000       89.11080       83.67554       11.36290       11.98024       18.09661      127.71452
74.00000       89.77881       86.69668       11.25549       11.81150       18.09661      127.58500
74.50000       90.44683       88.21519       11.17016       11.66571       17.87760      127.47399
75.00000       91.11485       89.58699       11.07334       11.58785       17.44750      127.34447
75.50000       91.78287       93.00659       10.97735       11.56318       17.02774      127.39734
76.00000       93.15826       96.93765       10.84582       11.54208       17.30363      127.49249
76.50000       94.89064       98.06166       10.56172       11.22128       17.68276      127.52950
77.00000       96.62964       98.06166       10.43580       10.83922       17.13173      127.36033
77.50000       98.36202       98.56320       10.31578       10.52833       16.58070      127.16738
78.00000      100.09440      100.57333       10.21268       10.26379       16.10514      126.99822
78.50000      101.83339      101.87179       10.09523        9.96941       14.55529      126.87663
79.00000      104.14324      102.04822        9.97973        9.68406       14.09915      126.74183
79.50000      105.87562      102.20285        9.65463        9.44073       14.55707      126.62289
80.00000      107.61461      100.37509        9.25577        9.16995       14.79202      126.59381
