~Version ---------------------------------------------------
VERS. 2.0 : CWLS LOG ASCII STANDARD - VERSION 2.0
WRAP. NO  : One line per depth step
DLM . SPACE : Column Data Section Delimiter
~Well ------------------------------------------------------
STRT.F           40 : START DEPTH
STOP.F       1284.0 : STOP DEPTH
STEP.F          0.5 : STEP
NULL.       -999.25 : NULL VALUE
COMP.                 WALSH & WATTS, INC. : COMPANY
WELL.                         HOWARD G 17 : WELL
FLD .             MONTAGUE COUNTY REGULAR : FIELD
CNTY.                            MONTAGUE : COUNTY
STAT.                               TEXAS : STATE
CTRY.                                 USA : COUNTRY
SEC .                                     : SECTION
TWP .                                     : TOWNSHIP
RGE .                                     : RANGE
LOC . 520'FNL & 4250'FEL OF THE J.CHAMBLIS SURVEY, A-123 : LOCATION
EKB .F                      519 : ELEVATION KELLY BUSHING
EDF .F                      518 : ELEVATION DERRICK FLOOR
EGL .F                      512 : ELEVATION GROUND LEVEL
PDAT.                        GL : PERMANENT DATUM
EPD .                       512 : ELEVATION PERMANENT DATUM
APD .                         7 : ABOVE PERMANENT DATUM
LMF .                        KB : LOG MEASURED FROM
DMF .                        KB : DRILLING MEASURED FROM
API .            42337343900000 : API NUMBER
UWI .                           : UWI NUMBER
DIGC.                     NthDS : DIGITIZING COMPANY
~Params ----------------------------------------------------
SRVC. PIONEER WIRELINE SERVICES : LOGGING COMPANY
LOG .                      DIFL : LOG
DATE.                2010-10-13 : RUN DATE
RUN .                         1 : RUN NUMBER
TDD .F                     1298 : TOTAL DEPTH DRILLER
TDL .F                     1280 : TOTAL DEPTH LOGGER
BOTL.F                     1280 : BOTTOM LOGGED INTERVAL
TOPL.F                       50 : TOP LOGGED INTERVAL
CSGS.IN                         : CASING SIZE
CSGD.F                          : CASING DRILLER
CSGL.F                          : CASING LOGGER
BS  .IN                   7.875 : BIT SIZE
MUD .                  GEL-CHEM : MUD TYPE
MUDD.                           : MUD DENSITY
MUDV.                           : MUD VISCOSITY
PH  .                           : MUD PH
FL  .                           : FLUID LOSS
MUDS.                  FLOWLINE : SOURCE OF SAMPLE
RM  .OHMM                   3.6 : MUD RESISTIVITY
RMT .DEGF                    72 : RM TEMPERATURE
RMF .OHMM                   2.7 : MUD FILTRATE RESISTIVITY
RMFT.DEGF                    72 : RMF TEMPERATURE
RMC .OHMM                   4.5 : MUD CAKE RESISTIVITY
RMCT.DEGF                    72 : RMC TEMPERATURE
RMFS.                      CALC : RMF SOURCE
RMCS.                      CALC : RMC SOURCE
RMBH.OHMM                   3.0 : MUD RESISTIVITY AT BHT
BHT .DEGF                    85 : BOTTOM HOLE TEMPERATURE
TIMC.           0245 2010-10-13 : TIME CIRCULATION STOPPED
TIML.           0540 2010-10-13 : TIME LOGGER ON BOTTOM
TMAX.DEGF                    85 : MAXIMUM RECORDED TEMPERATURE
UNIT.                      M-19 : EQUIPMENT NUMBER
BASE.             GRAHAM, TEXAS : BASE LOCATION
ENG .                    WENDEL : RECORDED BY
WIT .           WOMBLE/BURLESON : WITNESSED BY
~Curve Information -----------------------------------------
DEPT.F          :DEPTH
CILD.MMHO       :
GRR.GAPI        :
RILD.OHMM       :
RILM.OHMM       :
RSFL.OHMM       :
SP.MV           :
~ASCII ------------------------------------------------------
# ...
921.00000      998.67503       44.10132        0.71907        0.77359        4.70948      106.04844
921.50000      998.67503       42.29735        0.69152        0.74436        4.64696      103.78853
922.00000      998.67503       40.84823        0.69845        0.71693        4.99443      102.55417
922.50000      998.67503       39.19295        0.70549        0.72231        5.11417      101.14536
923.00000      998.67503       39.58149        0.71168        0.73350        4.76387      100.67488
923.50000      998.67503       42.81872        0.71885        0.75654        4.08442      100.75681
924.00000      998.67503       48.39317        0.72817        0.77727        3.52685      100.85197
924.50000      998.67503       52.31828        0.74039        0.79905        3.59303      100.93391
925.00000      998.67503       51.31717        0.75122        0.81276        3.86123      101.02906
925.50000      998.67503       46.71806        0.76383        0.80490        3.94277      101.12157
926.00000      998.67503       45.29669        0.77665        0.81831        4.10531      101.47576
926.50000      998.67503       45.03303        0.79663        0.83721        4.43190      102.00439
927.00000      998.67503       45.72687        0.82419        0.87221        4.58721      102.46695
927.50000      998.67503       46.51982        0.84910        0.90404        4.84089      103.71717
928.00000      998.67503       46.87070        0.87848        0.94011        4.90423      105.69161
928.50000      998.67503       48.79162        0.94998        0.97714        5.21647      107.41761
929.00000      998.67503       51.73942        1.03049        1.01071        4.95003      109.39205
929.50000      858.89123       54.68722        1.13086        1.05046        4.09535      111.23963
930.00000      827.09207       57.22466        1.22201        1.10855        4.28887      113.45461
930.50000      788.00560       59.76211        1.33275        1.24532        5.17449      115.66959
931.00000      720.43238       64.85682        1.43790        1.35801        4.77865      117.60967
931.50000      660.80896       71.27774        1.56831        1.49927        3.85584      119.82465
932.00000      597.21063       75.38325        1.71054        1.65534        3.10405      122.03963
932.50000      539.90590       77.13765        1.83811        1.82188        2.82031      123.97707
933.00000      504.13184       77.85924        1.94188        2.04889        3.27094      126.19205
933.50000      468.24516       78.48964        2.03760        2.13790        3.87745      128.08456
934.00000      460.36162       80.15087        2.13907        2.24437        3.64890      130.11452
934.50000      459.79189       84.62906        2.14792        2.29678        4.17067      132.14447
935.00000      459.53352       91.58523        2.15577        2.33619        3.80164      133.92068
935.50000      459.89788      105.57289        2.16482        2.37367        3.18273      135.26606
936.00000      460.25563      114.48765        2.17273        2.38494        2.91135      135.15505
936.50000      460.61999      120.56165        2.17246        2.39787        2.90676      133.92068
937.00000      463.17055      119.94117        2.16403        2.34999        3.04800      133.92068
937.50000      466.81420      118.62685        2.15446        2.28565        3.00424      133.12773
938.00000      467.36406      117.06870        2.14505        2.25969        2.80544      133.77795
938.50000      466.03910      116.33522        2.14505        2.23715        2.59666      134.20086
939.00000      456.19461      115.18941        2.20343        2.24628        2.79065      134.26694
939.50000      448.81455      113.12774        2.25585        2.28301        3.07814      134.33302
940.00000      435.12104      108.03897        2.31724        2.32571        3.23143      134.39117
940.50000      421.43415      102.22465        2.37237        2.42291        3.42695      134.27223
941.00000      407.74064       99.64756        2.43827        2.56608        3.69194      132.86342
941.50000      394.39824      100.57333        2.51530        2.63223        3.77678      133.19910
942.00000      376.60396      101.62994        2.58470        2.69142        3.72053      131.91187
942.50000      373.62279      102.55571        2.66635        2.73393        3.64647      131.78500
943.00000      372.18520      103.11672        2.68864        2.74792        3.71601      131.80615
943.50000      371.52272      102.85307        2.70453        2.76399        3.85396      130.22024
944.00000      368.65417      102.62113        2.72051        2.77341        3.92485      128.82201
944.50000      364.67927      102.54580        2.73460        2.76399        3.87156      128.19293
945.00000      359.16079      102.97201        2.75578        2.75327        3.76716      127.57707
945.50000      353.63569      102.71034        2.77898        2.74392        3.71601      127.75417
946.00000      348.11721      100.78346        2.80578        2.85617        3.71601      127.42906
946.50000      345.73227       93.46651        2.82940        2.97446        3.82295      126.71011
947.00000      346.12976       82.59911        2.85652        3.11577        4.60900      125.87751
947.50000      343.34734       74.39602        2.88407        3.06117        5.82526      125.08456
948.00000      339.78981       72.04294        2.90835        3.01430        4.94402      124.38677
948.50000      334.67544       78.30329        2.93640        2.96796        4.00505      124.30747
949.00000      329.56770       85.40219        2.96112        2.96796        3.78436      124.23875
949.50000      332.21763       90.37994        2.98152        2.96796        3.78436      124.15945
950.00000      340.56491       90.03303        2.94999        2.96796        4.09038      123.87663
950.50000      349.04469       89.61276        2.93212        2.96544        4.51341      123.71804
951.00000      350.43590       91.39690        2.89671        2.93301        3.89090      124.15945
951.50000      351.82711       92.95703        2.86608        2.90464        3.74571      124.79646
952.00000      353.29782       93.83325        2.83784        2.87288        3.75710      125.52597
952.50000      354.92091       92.83413        2.82236        2.84526        3.84367      126.16562
953.00000      356.55061       92.63589        2.80493        2.81397        3.89918      126.46958
953.50000      358.17370       93.58743        2.78743        2.79812        3.77013      126.68368
954.00000      360.79713       98.29954        2.77240        2.78625        3.78620      126.92685
954.50000      363.92404      103.01761        2.75527        2.77274        3.84998      127.02994
955.00000      366.00424      103.92355        2.74025        2.76097        3.82295      126.97972
955.50000      366.00424      104.44492        2.72332        2.74759        3.85396      126.93214
956.00000      366.85884      103.88985        2.70634        2.73426        3.76487      126.88985
956.50000      369.40940      104.92069        2.69174        2.72266        3.53801      126.83963
957.00000      371.96658      105.33897        2.67512        2.70946        3.50762      126.79734
957.50000      375.57711      105.22597        2.66053        2.69796        3.64514      126.38765
958.00000      379.19427      102.55571        2.64185        2.64249        3.83062      125.92509
958.50000      382.80479       98.06166        2.62329        2.56343        3.60484      125.39646
959.00000      385.95821       95.76805        2.60709        2.53432        3.28089      124.70395
959.50000      388.19740       99.40571        2.58878        2.53432        3.22614      123.71276
960.00000      390.42997      104.42509        2.57279        2.53432        3.32745      122.84315
960.50000      391.50982      106.88324        2.55472        2.53432        3.33373      121.85196
