~Version ---------------------------------------------------
VERS. 2.0 : CWLS LOG ASCII STANDARD - VERSION 2.0
WRAP. NO  : One line per depth step
DLM . SPACE : Column Data Section Delimiter
~Well ------------------------------------------------------
STRT.F         48.5 : START DEPTH
STOP.F       1455.5 : STOP DEPTH
STEP.F          0.5 : STEP
NULL.       -999.25 : NULL VALUE
COMP.                 WALSH & WATTS, INC. : COMPANY
WELL.                         HOWARD F 25 : WELL
FLD .                            MONTAGUE : FIELD
CNTY.                            MONTAGUE : COUNTY
STAT.                               TEXAS : STATE
CTRY.                                 USA : COUNTRY
SEC .                                     : SECTION
TWP .                                     : TOWNSHIP
RGE .                                     : RANGE
LOC . 1115'FEL & 2300'FSL OF THE J.CHAMBLIS SURVEY A-123 : LOCATION
EKB .F                      512 : ELEVATION KELLY BUSHING
EDF .F                      511 : ELEVATION DERRICK FLOOR
EGL .F                      505 : ELEVATION GROUND LEVEL
PDAT.                        GL : PERMANENT DATUM
EPD .                       505 : ELEVATION PERMANENT DATUM
APD .                         7 : ABOVE PERMANENT DATUM
LMF .                        KB : LOG MEASURED FROM
DMF .                        KB : DRILLING MEASURED FROM
API .            42337343120000 : API NUMBER
UWI .                           : UWI NUMBER
DIGC.                     NthDS : DIGITIZING COMPANY
~Params ----------------------------------------------------
SRVC. PIONEER WIRELINE SERVICES : LOGGING COMPANY
LOG .                      DIFL : LOG
DATE.                2010-10-07 : RUN DATE
RUN .                         1 : RUN NUMBER
TDD .F                     1450 : TOTAL DEPTH DRILLER
TDL .F                     1452 : TOTAL DEPTH LOGGER
BOTL.F                     1452 : BOTTOM LOGGED INTERVAL
TOPL.F                       50 : TOP LOGGED INTERVAL
CSGS.IN                         : CASING SIZE
CSGD.F                          : CASING DRILLER
CSGL.F                          : CASING LOGGER
BS  .IN                   7.875 : BIT SIZE
MUD .                  GEL-CHEM : MUD TYPE
MUDD.                           : MUD DENSITY
MUDV.                           : MUD VISCOSITY
PH  .                           : MUD PH
FL  .                           : FLUID LOSS
MUDS.                  FLOWLINE : SOURCE OF SAMPLE
RM  .OHMM                   4.0 : MUD RESISTIVITY
RMT .DEGF                    72 : RM TEMPERATURE
RMF .OHMM                   3.0 : MUD FILTRATE RESISTIVITY
RMFT.DEGF                    72 : RMF TEMPERATURE
RMC .OHMM                   5.0 : MUD CAKE RESISTIVITY
RMCT.DEGF                    72 : RMC TEMPERATURE
RMFS.                      CALC : RMF SOURCE
RMCS.                      CALC : RMC SOURCE
RMBH.OHMM                     3 : MUD RESISTIVITY AT BHT
BHT .DEGF                    88 : BOTTOM HOLE TEMPERATURE
TIMC.           0730 2010-10-07 : TIME CIRCULATION STOPPED
TIML.           1020 2010-10-07 : TIME LOGGER ON BOTTOM
TMAX.DEGF                    88 : MAXIMUM RECORDED TEMPERATURE
UNIT.                      M-19 : EQUIPMENT NUMBER
BASE.                GRAHAM, TX : BASE LOCATION
ENG .                    WENDEL : RECORDED BY
WIT .           WOMBLE/BURLESON : WITNESSED BY
~Curve Information -----------------------------------------
DEPT.F          :DEPTH
CILD.MMHO       :
GRR.GAPI        :
RILD.OHMM       :
RILM.OHMM       :
RSFL.OHMM       :
SP.MV           :
~ASCII ------------------------------------------------------
# ...
1409.50000      344.34005       56.83059        2.84627        3.07493       10.15339      115.96328
1410.00000      337.20688       59.01638        2.91863        3.19751        6.54745      116.69722
1410.50000      336.60293       61.47540        2.93052        3.32526        4.91421      117.06419
1411.00000      341.34688       62.02184        2.93000        3.43557        5.25631      117.06419
1411.50000      356.47095       60.65572        2.92948        3.52617        5.16748      117.43117
1412.00000      375.48211       59.83605        2.84249        3.52555        4.87050      117.79814
1412.50000      394.49327       60.10928        2.70324        3.32872        4.47576      117.79814
1413.00000      423.01458       60.65572        2.50536        3.05402        5.03584      117.79814
1413.50000      439.13201       59.83605        2.32197        2.76797        5.96030      118.16511
1414.00000      458.99044       57.65026        2.20531        2.50892        6.37522      119.26603
1414.50000      472.22329       56.37430        2.11752        2.31146        5.52265      118.55043
1415.00000      485.46530       55.46447        2.05388        2.22506        5.24935      117.48254
1415.50000      491.17558       54.37157        2.01077        2.20600        5.71030      116.58713
1416.00000      490.26943       53.00545        2.00196        2.23110        5.70929      115.51557
1416.50000      487.53180        -999.25        2.03563        2.32945        5.11563      114.44401
1417.00000      484.79418        -999.25        2.05325        2.51954        4.21283      113.55227
1417.50000      476.26472        -999.25        2.07462        2.63001        4.10685      112.29355
1418.00000      464.67191        -999.25        2.09622        2.65941        4.24714      111.92658
1418.50000      464.22363        -999.25        2.11436        2.61450        4.94258      111.92658
1419.00000      463.77535        -999.25        2.12936        2.56978        5.46805      111.92658
1419.50000      496.75631        -999.25        2.12343        2.53705        5.33064      112.29355
1420.00000      518.74362        -999.25        2.04619        2.43667        4.65688      112.66053
1420.50000      528.82633        -999.25        1.95729        2.34506        4.20787      113.02750
1421.00000      521.51481        -999.25        1.89049        2.23979        4.73457      113.76144
1421.50000      500.00455        -999.25        1.86647        2.13761        5.74715      113.76144
1422.00000      471.62625        -999.25        1.88845        2.04912        6.09560      113.76144
1422.50000      443.24796        -999.25        1.96290        2.10883        5.99276      112.66053
1423.00000      425.40065        -999.25        2.03898        2.18663        6.35610      111.55961
1423.50000      425.41024        -999.25        2.19425        2.29485        5.94032      110.82566
1424.00000      439.16070        -999.25        2.31055        2.50671        5.74241      110.82566
1424.50000      448.32767        -999.25        2.30865        2.99143        5.69318      110.09172
1425.00000      471.74353        -999.25        2.22236        3.14982        6.40560      108.99080
1425.50000      506.85816        -999.25        2.13478        2.99879        7.02730      109.35777
1426.00000      530.26487        -999.25        2.04641        2.66462        6.85051      109.35777
1426.50000      585.37006        -999.25        1.89342        2.30217        5.64154      108.99080
1427.00000      648.74874        -999.25        1.72841        2.02852        5.05493      108.99080
1427.50000      727.54409        -999.25        1.58284        1.74272        4.76428      108.62383
1428.00000      773.80325        -999.25        1.47085        1.64719        4.64442      108.25686
1428.50000      804.64575        -999.25        1.34698        1.59182        4.26813      107.15594
1429.00000      805.57108        -999.25        1.27625        1.56349        3.69735      106.05502
1429.50000      806.95907        -999.25        1.23751        1.53554        4.37596      104.95410
1430.00000      812.46309        -999.25        1.22743        1.51063        5.35699      103.85319
1430.50000      830.22885        -999.25        1.23239        1.49231        4.71954      103.48622
1431.00000      868.40204        -999.25        1.23221        1.47070        4.88062      103.11924
1431.50000      893.84168        -999.25        1.19196        1.42543        5.09009      103.48622
1432.00000      932.01488        -999.25        1.15293        1.38870        4.75713      104.22016
1432.50000      934.54275        -999.25        1.12143        1.31967        4.12095      104.95410
1433.00000      934.09447        -999.25        1.08480        1.24176        4.26160      105.32108
1433.50000      930.51437        -999.25        1.06685        1.19036        4.26098      106.05502
1434.00000      906.23422        -999.25        1.06669        1.16044        3.85014      107.52291
1434.50000      871.07946        -999.25        1.06650        1.16611        3.47892      109.35777
1435.00000      835.92470        -999.25        1.08901        1.18077        3.36301      110.45869
1435.50000      800.76994        -999.25        1.13094        1.21723        3.47779      110.82566
1436.00000      765.61518        -999.25        1.18938        1.27421        3.56628      111.55961
1436.50000      714.16028        -999.25        1.25084        1.36299        3.56576      113.02750
1437.00000      646.40524        -999.25        1.30447        1.51246        3.63037      113.76144
1437.50000      591.07676        -999.25        1.41891        1.67847        3.65831      115.59630
1438.00000      548.17486        -999.25        1.55382        1.79178        3.68160      117.43117
1438.50000      505.28211        -999.25        1.67600        1.93197        -999.25      118.89906
1439.00000      462.38021        -999.25        1.85542        2.08962        -999.25      121.10089
1439.50000      456.89537        -999.25        2.05636        2.32688        -999.25      121.83483
1440.00000      451.41053        -999.25        2.17358        2.58663        -999.25      122.56878
1440.50000      450.20218        -999.25        2.20196        2.74540        -999.25      123.66970
1441.00000      448.38509        -999.25        2.21018        2.81883        -999.25      124.77061
1441.50000      445.94966        -999.25        2.21987        2.78998        -999.25      125.50456
1442.00000      442.29630        -999.25        2.22979        2.69862        -999.25      125.87153
1442.50000      440.34621        -999.25        2.23642        2.59979        -999.25      126.97245
1443.00000      439.96682        -999.25        2.24301        2.48580        -999.25      128.07337
1443.50000      439.71085        -999.25        2.24981        2.47429        -999.25      129.54126
1444.00000      439.46403        -999.25        -999.25        2.50624        -999.25      129.90823
1444.50000      439.20806        -999.25        -999.25        2.57060        -999.25      130.27520
1445.00000      438.82867        -999.25        -999.25        2.68980        -999.25      130.64217
1445.50000      451.98827        -999.25        -999.25        2.81935        -999.25      130.64217
1446.00000      478.55426        -999.25        -999.25        3.00529        -999.25      130.64217
1446.50000      490.38167        -999.25        -999.25        3.20348        -999.25      130.64217
1447.00000      488.92608        -999.25        -999.25        3.20301        -999.25      131.74309
1447.50000      488.43201        -999.25        -999.25        -999.25        -999.25      133.21098
1448.00000      488.89947        -999.25        -999.25        -999.25        -999.25      135.04584
1448.50000      489.60066        -999.25        -999.25        -999.25        -999.25      136.14676
1449.00000      490.06812        -999.25        -999.25        -999.25        -999.25      136.88070
