~Version ---------------------------------------------------
VERS. 2.0 : CWLS LOG ASCII STANDARD - VERSION 2.0
WRAP. NO  : One line per depth step
DLM . SPACE : Column Data Section Delimiter
~Well ------------------------------------------------------
STRT.F           11 : START DEPTH
STOP.F       1368.0 : STOP DEPTH
STEP.F          0.5 : STEP
NULL.       -999.25 : NULL VALUE
COMP.                 WALSH & WATTS, INC. : COMPANY
WELL.                      HOWARD AB E 4E : WELL
FLD .             MONTAGUE COUNTY REGULAR : FIELD
CNTY.                            MONTAGUE : COUNTY
STAT.                                     : STATE
CTRY.                                 USA : COUNTRY
SEC .                                     : SECTION
TWP .                                     : TOWNSHIP
RGE .                                     : RANGE
LOC . 3250'FEL & 1590'FSL OF THE J.CHAMBLIS SURVEY A-123 : LOCATION
EKB .F                          : ELEVATION KELLY BUSHING
EDF .F                          : ELEVATION DERRICK FLOOR
EGL .F                          : ELEVATION GROUND LEVEL
PDAT.                        GL : PERMANENT DATUM
EPD .                           : ELEVATION PERMANENT DATUM
APD .                         8 : ABOVE PERMANENT DATUM
LMF .                        KB : LOG MEASURED FROM
DMF .                        KB : DRILLING MEASURED FROM
API .            42337348780000 : API NUMBER
UWI .                           : UWI NUMBER
DIGC.                     NthDS : DIGITIZING COMPANY
~Params ----------------------------------------------------
SRVC. PIONEER WIRELINE SERVICES : LOGGING COMPANY
LOG .                      CNFD : LOG
DATE.                2012-08-01 : RUN DATE
RUN .                         1 : RUN NUMBER
TDD .F                     1400 : TOTAL DEPTH DRILLER
TDL .F                     1396 : TOTAL DEPTH LOGGER
BOTL.F                     1368 : BOTTOM LOGGED INTERVAL
TOPL.F                       50 : TOP LOGGED INTERVAL
CSGS.IN                         : CASING SIZE
CSGD.F                          : CASING DRILLER
CSGL.F                          : CASING LOGGER
BS  .IN                   7.875 : BIT SIZE
MUD .                  CHEM-GEL : MUD TYPE
MUDD.                           : MUD DENSITY
MUDV.                           : MUD VISCOSITY
PH  .                           : MUD PH
FL  .                           : FLUID LOSS
MUDS.                  FLOWLINE : SOURCE OF SAMPLE
RM  .OHMM                   2.4 : MUD RESISTIVITY
RMT .DEGF                    73 : RM TEMPERATURE
RMF .OHMM                   1.8 : MUD FILTRATE RESISTIVITY
RMFT.DEGF                    73 : RMF TEMPERATURE
RMC .OHMM                   3.0 : MUD CAKE RESISTIVITY
RMCT.DEGF                    73 : RMC TEMPERATURE
RMFS.                      CALC : RMF SOURCE
RMCS.                      CALC : RMC SOURCE
RMBH.OHMM                   2.0 : MUD RESISTIVITY AT BHT
BHT .DEGF                    86 : BOTTOM HOLE TEMPERATURE
TIMC.           0200 2012-08-01 : TIME CIRCULATION STOPPED
TIML.           0430 2012-08-01 : TIME LOGGER ON BOTTOM
TMAX.DEGF                    86 : MAXIMUM RECORDED TEMPERATURE
UNIT.                       110 : EQUIPMENT NUMBER
BASE.                GRAHAM, TX : BASE LOCATION
ENG .                    WENDEL : RECORDED BY
WIT .           OVERBY/BURLESON : WITNESSED BY
~Curve Information -----------------------------------------
DEPT.F          :DEPTH
CALD.IN         :
DPHI.V/V        :
GRD.GAPI        :
NPHI.%          :
PEC.B/E         :
RLML.OHMM       :
RNML.OHMM       :
ZCOR.G/C3       :
~ASCII ------------------------------------------------------
# ...
446.00000        8.33886        0.29984      118.50826       26.27358        2.64139        2.88809        3.29025        0.13502
446.50000        8.33886        0.29997      121.54693       30.03606        2.65559        3.14585        3.70036        0.12538
447.00000        8.33886        0.29215      125.41434       30.00481        2.57681        3.03249        3.44765        0.11336
447.50000        8.30203        0.27255      126.24307       29.97901        2.48221        2.59928        3.17689        0.12123
448.00000        8.22836        0.25295      119.61323       30.00043        2.39795        2.88809        4.83754        0.12780
448.50000        7.87845        0.23242      108.56351       28.62510        2.29273        2.67148        5.30686        0.10614
449.00000        7.73112        0.23040       92.81766       27.24940        2.20516        5.64982        9.57184        0.08809
449.50000        7.69429        0.23482       81.76794       25.59900        2.10031        7.61733       10.19494        0.07025
450.00000        7.71271        0.24107       75.41435       24.88509        2.19780        7.79783       12.03971        0.06177
450.50000        7.67587        0.24821       70.99446       24.11940        2.23397        8.33935       12.34656        0.05877
451.00000        7.67587        0.25627       71.27070       23.48145        2.27937        9.14079       12.53573        0.04838
451.50000        7.69429        0.26097       72.92816       20.98796        2.34294        9.44404       11.40794        0.03935
452.00000        7.69429        0.25678       75.41435       18.90986        2.28541        9.21299       11.76895        0.02852
452.50000        7.73112        0.25306       74.86186       16.88967        2.22752        9.00722       10.68592        0.02397
453.00000        7.73112        0.25679       70.16573       16.29149        2.15856        8.51985       10.47942        0.01986
453.50000        7.74954        0.26715       64.64087       16.23188        2.15817        9.60288       11.61444        0.01639
454.00000        7.69429        0.27304       59.94474       16.62376        2.15771        8.14945       11.23971        0.01227
454.50000        7.65746        0.27566       58.28728       17.35052        2.12070        6.96751       10.10830        0.01653
455.00000        7.63904        0.27846       58.28728       18.20546        2.01035        6.42599        9.89819        0.02162
455.50000        7.62063        0.28795       58.01104       18.91778        1.91839        7.41588       10.13429        0.02671
456.00000        7.60221        0.29685       57.45855       20.35466        1.80804        7.28014        9.86787        0.02671
456.50000        7.58379        0.30060       56.90606       20.35509        1.81967        5.64404        8.71263        0.02671
457.00000        7.58379        0.30116       58.83977       19.61880        1.88412        4.98195        7.36462        0.02574
457.50000        7.58379        0.30116       62.43093       18.73524        1.97157        5.56967        7.87003        0.02285
458.00000        7.58379        0.28854       65.19336       18.70171        2.04445        6.85920        8.66426        0.02047
458.50000        7.58379        0.28316       66.85081       18.87193        2.12494        6.85920        8.59205        0.01949
459.00000        7.56538        0.27603       66.57457       18.55626        2.16229        5.92057        8.23104        0.02581
459.50000        7.58379        0.26081       66.57457       17.35338        2.20688        5.34296        7.15595        0.04476
460.00000        7.58379        0.24255       68.23203       16.88817        2.24423        5.34296        6.46209        0.07859
460.50000        7.56538        0.23342       70.71822       17.22119        2.28919        6.26570        8.26209        0.10202
461.00000        7.52854        0.24204       73.48065       19.06139        2.32617        6.84332        9.31408        0.09393
461.50000        7.62063        0.26341       73.20440       20.60760        2.37113        6.04115        8.90180        0.06336
462.00000        7.73112        0.28293       70.99446       20.83307        2.28935        6.57761        9.08303        0.02671
462.50000        7.78637        0.28883       68.78451       20.33508        2.22120        8.27436       10.51768        0.01318
463.00000        7.86004        0.28706       67.40330       18.86221        2.13905        9.50180       12.53934        0.00505
463.50000        7.89687        0.28832       65.74584       18.16540        2.07090        9.81949       13.50180        0.00505
464.00000        7.95212        0.30048       61.60220       18.40884        2.00891        8.95306       10.75812        0.00986
464.50000        7.95212        0.30048       56.62982       18.85126        2.03893        8.77256       11.08303        0.01588
465.00000        7.97053        0.30049       52.76242       19.63025        2.07509        8.54368       11.38700        0.02310
465.50000        7.97053        0.30049       51.93369       20.46345        2.20292        7.97834       11.26353        0.02310
466.00000        7.97053        0.30049       53.86739       20.43625        2.31564        7.82166       10.24043        0.02310
466.50000        7.97053        0.28345       55.80109       20.35483        2.22471        8.22093       11.11913        0.03480
467.00000        7.97053        0.27877       56.07734       20.32653        2.14886        9.25198       11.76895        0.04646
467.50000        7.97053        0.28636       54.41988       20.57550        2.08357        9.45848       12.34656        0.06047
468.00000        7.97053        0.29521       50.82872       21.62565        2.13520        9.14584       11.77906        0.06076
468.50000        7.98895        0.30051       49.17126       22.67579        2.19774        8.51985       11.54368        0.04838
469.00000        8.06261        0.30072       50.27623       23.13950        2.22923        8.92130       12.08158        0.03805
469.50000        8.09945        0.30089       53.31491       22.82095        2.25075        9.14584       11.75667        0.02982
470.00000        8.08103        0.29660       56.90606       22.32996        2.26868        9.06859       12.29241        0.02884
470.50000        8.09945        0.29275       58.83977       21.92118        2.29019        9.09747       11.53429        0.03520
471.00000        8.13628        0.29027       63.53590       21.65561        2.39970        8.30325       10.73718        0.04159
471.50000        8.16004        0.28892       73.20440       22.25603        2.53111        7.87003       10.10830        0.05585
472.00000        8.46243        0.28752       87.56904       24.01372        2.66435        4.52780        6.42599        0.08906
472.50000        8.82560        0.28778      104.41987       25.67153        2.77825        3.15307        3.88881        0.11671
473.00000        9.00571        0.29024      116.85080       30.05515        2.91515        2.96029        3.39350        0.16148
473.50000        9.12412        0.29971      124.86185       30.05543        2.99828        3.24910        3.66426        0.17971
474.00000        9.22284        0.29987      121.82318       30.05578        2.94141        3.06137        3.42455        0.17834
474.50000        8.41252        0.29995      107.45854       30.09304        2.79195        2.85198        2.98411        0.16029
475.00000        7.73720        0.30003       88.95026       27.42305        2.52445        4.94079        8.02671        0.10581
475.50000        7.60221        0.30012       68.23203       24.26326        2.30173        7.50902        9.37617        0.04476
476.00000        7.60221        0.30021       54.14363       21.66693        2.17562        7.38844       10.40722        0.03213
476.50000        7.60221        0.30028       46.68507       20.16828        2.12022        7.47292       10.29819        0.02231
