~Version ---------------------------------------------------
VERS. 2.0 : CWLS LOG ASCII STANDARD - VERSION 2.0
WRAP. NO  : One line per depth step
DLM . SPACE : Column Data Section Delimiter
~Well ------------------------------------------------------
STRT.F         48.5 : START DEPTH
STOP.F       1449.0 : STOP DEPTH
STEP.F          0.5 : STEP
NULL.       -999.25 : NULL VALUE
COMP.                 WALSH & WATTS, INC. : COMPANY
WELL.                         HOWARD F 14 : WELL
FLD .             MONTAGUE COUNTY REGULAR : FIELD
CNTY.                            MONTAGUE : COUNTY
STAT.                               TEXAS : STATE
CTRY.                                 USA : COUNTRY
SEC .                                     : SECTION
TWP .                                     : TOWNSHIP
RGE .                                     : RANGE
LOC . 1430'FEL & 2600'FSL OF THE J.CHAMBLIS SURVEY A-123 : LOCATION
EKB .F                      849 : ELEVATION KELLY BUSHING
EDF .F                      848 : ELEVATION DERRICK FLOOR
EGL .F                      841 : ELEVATION GROUND LEVEL
PDAT.                        GL : PERMANENT DATUM
EPD .                       841 : ELEVATION PERMANENT DATUM
APD .                         8 : ABOVE PERMANENT DATUM
LMF .                        KB : LOG MEASURED FROM
DMF .                        KB : DRILLING MEASURED FROM
API .            42337351020000 : API NUMBER
UWI .                           : UWI NUMBER
DIGC.                     NthDS : DIGITIZING COMPANY
~Params ----------------------------------------------------
SRVC. PIONEER WIRELINE SERVICES : LOGGING COMPANY
LOG .                      DIFL : LOG
DATE.                2013-08-01 : RUN DATE
RUN .                         1 : RUN NUMBER
TDD .F                     1450 : TOTAL DEPTH DRILLER
TDL .F                     1449 : TOTAL DEPTH LOGGER
BOTL.F                     1449 : BOTTOM LOGGED INTERVAL
TOPL.F                       50 : TOP LOGGED INTERVAL
CSGS.IN                         : CASING SIZE
CSGD.F                          : CASING DRILLER
CSGL.F                          : CASING LOGGER
BS  .IN                   7.875 : BIT SIZE
MUD .                       GEL : MUD TYPE
MUDD.                       9.2 : MUD DENSITY
MUDV.                        75 : MUD VISCOSITY
PH  .                           : MUD PH
FL  .                           : FLUID LOSS
MUDS.                  FLOWLINE : SOURCE OF SAMPLE
RM  .OHMM                   2.8 : MUD RESISTIVITY
RMT .DEGF                    72 : RM TEMPERATURE
RMF .OHMM                   2.1 : MUD FILTRATE RESISTIVITY
RMFT.DEGF                    72 : RMF TEMPERATURE
RMC .OHMM                   3.5 : MUD CAKE RESISTIVITY
RMCT.DEGF                    72 : RMC TEMPERATURE
RMFS.                      CALC : RMF SOURCE
RMCS.                      CALC : RMC SOURCE
RMBH.OHMM                   2.3 : MUD RESISTIVITY AT BHT
BHT .DEGF                    87 : BOTTOM HOLE TEMPERATURE
TIMC.           0130 2018-08-01 : TIME CIRCULATION STOPPED
TIML.           0400 2018-08-01 : TIME LOGGER ON BOTTOM
TMAX.DEGF                    87 : MAXIMUM RECORDED TEMPERATURE
UNIT.                     C-052 : EQUIPMENT NUMBER
BASE.                GRAHAM, TX : BASE LOCATION
ENG .                    WENDEL : RECORDED BY
WIT .                  BURLESON : WITNESSED BY
~Curve Information -----------------------------------------
DEPT.F          :DEPTH
CILD.MMHO       :
GRR.GAPI        :
RILD.OHMM       :
RILM.OHMM       :
RSFL.OHMM       :
SP.MV           :
~ASCII ------------------------------------------------------
# ...
689.50000      295.29384       77.72711        3.74602        4.52992        9.97012      135.44582
690.00000      319.11047       82.93157        3.49633        4.32437        9.94437      133.61129
690.50000      331.01999       83.20101        3.30343        4.14567        7.10204      132.14112
691.00000      349.33974       78.80772        3.08791        3.94094        6.36529      131.03658
691.50000      372.24062       62.45839        2.89521        3.74633        7.28118      129.93331
692.00000      391.47612       53.73241        2.75070        3.59968        8.32860      129.56003
692.50000      402.46988       50.27243        2.58664        3.43345        9.21178      129.18674
693.00000      410.71641       51.08935        2.49013        3.28953       11.46156      128.44910
693.50000      413.47084       56.84322        2.41245        3.23418       11.85166      126.97893
694.00000      410.72839       64.78989        2.41426        3.16899       10.18503      126.24002
694.50000      407.98595       67.52636        2.43505        3.13670        8.46293      125.86801
695.00000      405.24350       67.52157        2.45236        3.13615        7.97763      126.22598
695.50000      397.00896       70.80649        2.47327        3.14326        8.04383      126.94958
696.00000      390.60352       70.80170        2.49107        3.18189        7.20939      128.04008
696.50000      380.53509       70.24751        2.55621        3.22905        6.27933      129.12931
697.00000      365.88792       65.58001        2.64610        3.29626        7.32932      130.58544
697.50000      344.83052       61.18672        2.72315        3.43734        9.35239      132.04030
698.00000      317.36528       65.02104        2.91415        3.61463        9.35102      133.49515
698.50000      299.05513       74.61304        3.10058        3.76933        8.59514      135.31691
699.00000      274.33473       79.27002        3.34017        3.98380        7.70350      137.50302
699.50000      246.86710       84.20026        3.59827        4.25318        8.30809      138.95788
700.00000      226.60344       87.95997        3.92018        4.52876        8.18002      140.40258
700.50000      209.17951       92.64166        4.32527        4.83586        7.32924      142.22307
701.00000      200.01004       94.29125        4.69490        5.10763        7.08505      143.31357
701.50000      191.75799       98.14574        5.07667        5.45399        6.96531      144.40280
702.00000      186.25823      100.07010        5.27212        5.69462        7.14254      146.59019
702.50000      182.59332      101.99543        5.41921        5.90358        7.32449      147.67942
703.00000      181.68309      103.09259        5.49465        6.03188        7.14023      148.78692
703.50000      181.68790      105.56938        5.55863        5.98033        6.90234      149.73849
704.00000      182.61013      106.39080        5.63648        5.87926        7.01852      150.87890
704.50000      185.36722      106.38599        5.57403        5.77990        7.07671      151.83047
705.00000      188.12671      108.31035        5.52267        5.67041        6.95732      152.64913
705.50000      189.04894      112.89002        5.46148        5.54176        6.61283      153.14970
706.00000      189.97117      116.24089        5.40143        5.41603        6.28539      153.56379
706.50000      190.89340      117.26084        5.35166        5.34219        6.12745      154.06435
707.00000      193.65289      115.22112        5.29237        5.30578        5.85557      154.47845
707.50000      194.57512      112.77510        5.25689        5.27555        5.54846      154.97536
708.00000      195.49735      110.32632        5.23826        5.23959        6.71978      155.39310
708.50000      194.58473      109.76177        5.21970        5.20387        6.77550      155.83882
709.00000      194.59194      112.48576        5.20398        5.17422        6.66118      156.22970
709.50000      195.51417      115.37615        5.18554        5.13895        6.27818      156.55604
710.00000      196.43640      115.62681        5.15758        5.07602        6.17226      156.94692
710.50000      197.35863      114.49424        5.09543        5.01231        6.11934      157.27326
711.00000      198.28326      114.47744        5.02116        4.93717        6.06687      157.66414
711.50000      201.95778      117.98175        4.96023        4.87520        5.76664      158.05501
712.00000      204.71487      121.37949        4.88834        4.80212        5.76562      158.38135
712.50000      206.55453      124.77351        4.81709        4.73012        5.76460      158.56748
713.00000      212.06630      124.76870        4.75904        4.67076        5.81257      158.63788
713.50000      214.82339      124.82634        4.68967        4.60073        5.86077      158.72163
714.00000      217.58047      124.92907        4.62170        4.53405        5.90954      158.80538
714.50000      221.25739      124.71098        4.56562        4.47941        5.71248      158.87212
715.00000      223.09705      122.79437        4.49945        4.41524        5.52200      158.95587
715.50000      224.93671      121.19857        4.44523        4.36240        5.38324      159.02627
716.00000      228.61123      120.30769        4.38117        4.29954        5.38229      159.11002
716.50000      232.28814      119.73487        4.31804        4.23758        5.38134      159.18042
717.00000      235.96266      119.04803        4.26600        4.18687        5.33535      158.92779
717.50000      238.71975      120.53673        4.20453        4.12688        5.33441      158.67882
718.00000      241.47683      124.37013        4.14394        4.06947        5.33363      158.46769
718.50000      246.98861      126.22556        4.09435        4.02348        5.33268      158.21506
719.00000      248.82827      124.42848        4.03535        3.96885        5.28696      158.00758
719.50000      251.58535      123.31977        3.98672        3.92400        5.15410      157.75495
720.00000      254.34244      124.00333        3.92927        3.87072        5.06700      157.50598
720.50000      258.01936      125.69979        3.88246        3.81816        5.02355      157.29485
721.00000      259.85902      128.03775        3.85253        3.77469        4.98063      157.04222
721.50000      261.69868      128.81327        3.81628        3.72344        4.89645      156.80184
722.00000      262.62091      128.42146        3.78069        3.72404        4.97901      156.45780
722.50000      263.54554      126.48652        3.76867        3.74617        5.10570      156.11376
723.00000      262.63292      124.24730        3.76801        3.77819        5.19164      155.82585
723.50000      260.80287      123.39502        3.81510        3.82799        5.06118      155.47816
724.00000      257.13796      123.87274        3.87245        3.88914        5.06029      155.34380
724.50000      249.80574      125.67302        3.93033        3.95093        4.93298      155.23011
725.00000      246.14083      126.61949        3.97945        4.00335        4.89083      155.11277
725.50000      241.55850      126.76537        4.03927        4.06730        5.18736      155.01864
726.00000      239.72844      124.66126        4.08975        4.12126        5.78764      154.90129
726.50000      236.98337      121.03883        4.15123        4.18674        6.45719      154.80716
727.00000      233.31846      120.48158        4.21328        4.25363        6.13746      154.68981
727.50000      230.57098      120.47677        4.26018        4.31005        5.73616      154.59568
728.00000      226.90607      124.45259        4.31184        4.37854        5.49831      154.47833
728.50000      223.24356      128.18576        4.36449        4.43949        5.31513      154.36464
729.00000      222.33094      127.78665        4.40861        4.49042        5.05195      154.26685
