~Version ---------------------------------------------------
VERS. 2.0 : CWLS LOG ASCII STANDARD - VERSION 2.0
WRAP. NO  : One line per depth step
DLM . SPACE : Column Data Section Delimiter
~Well ------------------------------------------------------
STRT.F           48 : START DEPTH
STOP.F       1439.0 : STOP DEPTH
STEP.F          0.5 : STEP
NULL.       -999.25 : NULL VALUE
COMP.                 WALSH & WATTS, INC. : COMPANY
WELL.                         HOWARD F 14 : WELL
FLD .             MONTAGUE COUNTY REGULAR : FIELD
CNTY.                            MONTAGUE : COUNTY
STAT.                               TEXAS : STATE
CTRY.                                 USA : COUNTRY
SEC .                                     : SECTION
TWP .                                     : TOWNSHIP
RGE .                                     : RANGE
LOC . 1430'FEL & 2600'FSL OF THE J.CHAMBLIS SURVEY A-123 : LOCATION
EKB .F                      849 : ELEVATION KELLY BUSHING
EDF .F                      848 : ELEVATION DERRICK FLOOR
EGL .F                      841 : ELEVATION GROUND LEVEL
PDAT.                        GL : PERMANENT DATUM
EPD .                       841 : ELEVATION PERMANENT DATUM
APD .                         8 : ABOVE PERMANENT DATUM
LMF .                        KB : LOG MEASURED FROM
DMF .                        KB : DRILLING MEASURED FROM
API .            42337351020000 : API NUMBER
UWI .                           : UWI NUMBER
DIGC.                     NthDS : DIGITIZING COMPANY
~Params ----------------------------------------------------
SRVC.                   PIONEER : LOGGING COMPANY
LOG .                      CNFD : LOG
DATE.                2013-08-01 : RUN DATE
RUN .                         1 : RUN NUMBER
TDD .F                     1450 : TOTAL DEPTH DRILLER
TDL .F                     1449 : TOTAL DEPTH LOGGER
BOTL.F                     1429 : BOTTOM LOGGED INTERVAL
TOPL.F                       50 : TOP LOGGED INTERVAL
CSGS.IN                         : CASING SIZE
CSGD.F                          : CASING DRILLER
CSGL.F                          : CASING LOGGER
BS  .IN                   7.875 : BIT SIZE
MUD .                       GEL : MUD TYPE
MUDD.                       9.2 : MUD DENSITY
MUDV.                        75 : MUD VISCOSITY
PH  .                           : MUD PH
FL  .                           : FLUID LOSS
MUDS.                  FLOWLINE : SOURCE OF SAMPLE
RM  .OHMM                   2.8 : MUD RESISTIVITY
RMT .DEGF                    72 : RM TEMPERATURE
RMF .OHMM                   2.1 : MUD FILTRATE RESISTIVITY
RMFT.DEGF                    72 : RMF TEMPERATURE
RMC .OHMM                   3.5 : MUD CAKE RESISTIVITY
RMCT.DEGF                    72 : RMC TEMPERATURE
RMFS.                      CALC : RMF SOURCE
RMCS.                      CALC : RMC SOURCE
RMBH.OHMM                   2.3 : MUD RESISTIVITY AT BHT
BHT .DEGF                    87 : BOTTOM HOLE TEMPERATURE
TIMC.           0130 2018-08-01 : TIME CIRCULATION STOPPED
TIML.           0400 2018-08-01 : TIME LOGGER ON BOTTOM
TMAX.DEGF                    87 : MAXIMUM RECORDED TEMPERATURE
UNIT.                     C-052 : EQUIPMENT NUMBER
BASE.                GRAHAM, TX : BASE LOCATION
ENG .                    WENDEL : RECORDED BY
WIT .                  BURLESON : WITNESSED BY
~Curve Information -----------------------------------------
DEPT.F          :DEPTH
CALD.IN         :
DPHI.%          :
GRD.GAPI        :
MINV.OHMM       :
MNOR.OHMM       :
NPHI.%          :
RHOC.G/CC       :
~ASCII ------------------------------------------------------
# ...
958.50000        8.61538       27.57798       66.48350        9.33333       11.44322       21.49688        0.06081
959.00000        8.61172       27.54862       66.75823        9.85348       10.86373       18.79670        0.04615
959.50000        8.60861       29.08991       67.03295        9.33553       10.66446       17.85321        0.03516
960.00000        8.60494       29.92881       67.30768        8.32747        9.15751       18.91743        0.01685
960.50000        8.60201       29.93358       66.20878        7.79780        8.73260       21.85321        0.00586
961.00000        8.60073       29.93725       63.18680        8.91648        9.69963       24.62385        0.00586
961.50000        8.60073       29.94202       61.07966        8.44615        9.67033       24.12844        0.00586
962.00000        8.60073       29.94569       59.52471        8.56556        9.06007       21.94496        0.00952
962.50000        8.60073       29.94936       59.34065        8.77875        9.78022       20.88991        0.01319
963.00000        8.60293       29.95413       59.89010        7.22344        9.17582       19.63927        0.02051
963.50000        8.60659       29.95780       60.71427        8.16117        9.93186       18.59927        0.02418
964.00000        8.61099       29.96257       62.36262        7.97509        9.23077       17.56697        0.03150
964.50000        8.61465       28.91743       65.10988        7.73846        8.79120       17.41285        0.04615
965.00000        8.61905       27.93028       68.95603        7.78388        9.34505       17.88257        0.04615
965.50000        8.67546       28.78165       71.42856        8.31794       10.28058       18.83193        0.04249
966.00000        8.74304       29.92661       73.07691        9.09523       10.12820       21.22936        0.02418
966.50000        8.77106       29.92661       73.07691        9.74359       10.09963       22.04294        0.01319
967.00000        8.78205       29.92661       70.87910        8.82051        9.72893       22.11927        0.00952
967.50000        8.78388       29.92661       67.85713        8.17582        9.37729       21.43119        0.01319
968.00000        8.78388       29.92661       64.28570        8.33553       10.56410       21.00918        0.00952
968.50000        8.78388       29.92661       63.46152        9.02710       10.77875       21.02129       -0.00147
969.00000        8.78388       29.92661       66.75823        8.20512        9.52381       21.19266       -0.01245
969.50000        8.78846       29.92661       71.15383        7.56410        5.89743       21.02752        0.00220
970.00000        8.81593       29.92661       75.27471        2.56410        3.62637       20.20184        0.02051
970.50000        8.83883       29.92661       74.72526        4.34066        7.02271       20.31193        0.04249
971.00000        8.83883       29.92661       69.50548        9.23077       10.62271       20.64220        0.04982
971.50000        8.81520       29.92661       64.01097        9.26227        9.92161       19.90202        0.02784
972.00000        8.79487       29.92661       60.71427        7.25274        9.52381       18.57138        0.00586
972.50000        8.82234       29.92661       64.28570        8.85421       10.98901       18.49285        0.00586
973.00000        8.83883       29.00917       74.17581        7.22124        6.92307       19.43119        0.01319
973.50000        8.83883       26.23376       86.26372        3.36996        3.15018       21.02129        0.03516
974.00000        8.86630       22.90349      103.02195        3.58974        3.47985       22.46349        0.05348
974.50000        8.89835       20.12844      111.81316        3.22344        3.09524       23.32844        0.06081
975.00000        8.91209       18.95119      117.30767        2.79414        2.63077       23.26606        0.06081
975.50000        8.92582       17.53835      115.10986        2.75971        2.59048       22.22018        0.06813
976.00000        8.92363       17.27817      111.26371        3.04029        2.59048       22.83193        0.08278
976.50000        8.90989       18.68624      108.79118        3.25275        2.75091       23.39450        0.06447
977.00000        8.89835       20.28257      109.61536        2.97656        2.80513       22.50165        0.05714
977.50000        8.89762       22.34606      112.08789        2.53993        2.49084       20.45872        0.04615
978.00000        8.90238       24.31193      113.46151        2.65568        2.61319       18.48624        0.06447
978.50000        8.90824       24.85321      112.91206        2.39341        2.45421       17.31853        0.07912
979.00000        8.83516       23.39450      111.53844        2.68132        2.48058       17.50459        0.10842
979.50000        8.52015       20.12551      107.96701        3.60439        2.92454       18.49541        0.13773
980.00000        8.50183       17.40147      103.57141        4.85934        3.09377       18.66055        0.14139
980.50000        8.49121       15.44037       98.90108        4.54212        3.29670       18.25688        0.09744
981.00000        8.49176       15.83486       98.07690        4.16117        3.19707       17.85321        0.04982
981.50000        8.49249       17.26606      102.74723        3.40659        3.07692       18.13211        0.01319
982.00000        8.49304       18.45872      107.96701        3.41392        3.07692       18.82936        0.00952
982.50000        8.49377       19.32110      115.65931        2.71062        3.10110       19.72477        0.00952
983.00000        8.49432       19.29174      119.78019        2.78388        3.16264       20.52000        0.03883
983.50000        8.49505       18.53211      121.42854        2.89377        3.18681       21.47413        0.05714
984.00000        8.49560       17.70642      123.35162        2.71062        3.00366       22.26899        0.06447
984.50000        8.49615       16.78129      126.92305        2.80806        3.06667       22.67523        0.07179
985.00000        8.49670       15.82532      128.84612        2.81538        3.01831       22.55046        0.08645
985.50000        8.49744       14.67780      126.92305        2.79267        2.93040       22.47707        0.09744
986.00000        8.49798       13.72184      122.80217        3.20513        2.85714       22.93578        0.10110
986.50000        8.49872       13.21725      118.68129        4.39560        2.98901       23.62385        0.09744
987.00000        8.49927       13.35156      116.48349        4.01319        3.03004       24.31193        0.08645
987.50000        8.50000       13.67780      117.03294        2.95458        2.75091       24.11633        0.08645
988.00000        8.50055       14.25285      119.50547        2.93040        2.63736       23.41908        0.09744
988.50000        8.50128       15.07083      121.97799        3.73626        3.07692       23.16367        0.10110
989.00000        8.50183       17.53285      123.07690        3.67546        3.14139       24.42202        0.07941
989.50000        8.50256       19.29064      126.37360        3.11355        2.96190       26.14679        0.05234
990.00000        8.50311       19.82569      131.31865        2.76557        2.75238       25.32477        0.05934
990.50000        8.50385       19.19523      135.16480        2.71062        2.71062       22.91743        0.10894
991.00000        8.50440       18.04404      134.89008        2.89377        2.71062       20.53211        0.13773
991.50000        8.50494       19.23853      128.29667        3.27253        3.00366       20.50606        0.11941
992.00000        8.50568       24.38532      121.70327        3.72014        3.29670       21.28807        0.08645
992.50000        8.50623       28.18716      117.58239        3.20513        2.65714       21.66239        0.02418
993.00000        8.50696       29.88991      118.68129        2.19780        2.12454       21.59633        0.03516
