~Version ---------------------------------------------------
VERS. 2.0 : CWLS LOG ASCII STANDARD - VERSION 2.0
WRAP. NO  : One line per depth step
DLM . SPACE : Column Data Section Delimiter
~Well ------------------------------------------------------
STRT.F           11 : START DEPTH
STOP.F       1368.0 : STOP DEPTH
STEP.F          0.5 : STEP
NULL.       -999.25 : NULL VALUE
COMP.                 WALSH & WATTS, INC. : COMPANY
WELL.                      HOWARD AB E 4E : WELL
FLD .             MONTAGUE COUNTY REGULAR : FIELD
CNTY.                            MONTAGUE : COUNTY
STAT.                                     : STATE
CTRY.                                 USA : COUNTRY
SEC .                                     : SECTION
TWP .                                     : TOWNSHIP
RGE .                                     : RANGE
LOC . 3250'FEL & 1590'FSL OF THE J.CHAMBLIS SURVEY A-123 : LOCATION
EKB .F                          : ELEVATION KELLY BUSHING
EDF .F                          : ELEVATION DERRICK FLOOR
EGL .F                          : ELEVATION GROUND LEVEL
PDAT.                        GL : PERMANENT DATUM
EPD .                           : ELEVATION PERMANENT DATUM
APD .                         8 : ABOVE PERMANENT DATUM
LMF .                        KB : LOG MEASURED FROM
DMF .                        KB : DRILLING MEASURED FROM
API .            42337348780000 : API NUMBER
UWI .                           : UWI NUMBER
DIGC.                     NthDS : DIGITIZING COMPANY
~Params ----------------------------------------------------
SRVC. PIONEER WIRELINE SERVICES : LOGGING COMPANY
LOG .                      CNFD : LOG
DATE.                2012-08-01 : RUN DATE
RUN .                         1 : RUN NUMBER
TDD .F                     1400 : TOTAL DEPTH DRILLER
TDL .F                     1396 : TOTAL DEPTH LOGGER
BOTL.F                     1368 : BOTTOM LOGGED INTERVAL
TOPL.F                       50 : TOP LOGGED INTERVAL
CSGS.IN                         : CASING SIZE
CSGD.F                          : CASING DRILLER
CSGL.F                          : CASING LOGGER
BS  .IN                   7.875 : BIT SIZE
MUD .                  CHEM-GEL : MUD TYPE
MUDD.                           : MUD DENSITY
MUDV.                           : MUD VISCOSITY
PH  .                           : MUD PH
FL  .                           : FLUID LOSS
MUDS.                  FLOWLINE : SOURCE OF SAMPLE
RM  .OHMM                   2.4 : MUD RESISTIVITY
RMT .DEGF                    73 : RM TEMPERATURE
RMF .OHMM                   1.8 : MUD FILTRATE RESISTIVITY
RMFT.DEGF                    73 : RMF TEMPERATURE
RMC .OHMM                   3.0 : MUD CAKE RESISTIVITY
RMCT.DEGF                    73 : RMC TEMPERATURE
RMFS.                      CALC : RMF SOURCE
RMCS.                      CALC : RMC SOURCE
RMBH.OHMM                   2.0 : MUD RESISTIVITY AT BHT
BHT .DEGF                    86 : BOTTOM HOLE TEMPERATURE
TIMC.           0200 2012-08-01 : TIME CIRCULATION STOPPED
TIML.           0430 2012-08-01 : TIME LOGGER ON BOTTOM
TMAX.DEGF                    86 : MAXIMUM RECORDED TEMPERATURE
UNIT.                       110 : EQUIPMENT NUMBER
BASE.                GRAHAM, TX : BASE LOCATION
ENG .                    WENDEL : RECORDED BY
WIT .           OVERBY/BURLESON : WITNESSED BY
~Curve Information -----------------------------------------
DEPT.F          :DEPTH
CALD.IN         :
DPHI.V/V        :
GRD.GAPI        :
NPHI.%          :
PEC.B/E         :
RLML.OHMM       :
RNML.OHMM       :
ZCOR.G/C3       :
~ASCII ------------------------------------------------------
# ...
105.00000        7.82536        0.29006       44.50743       17.05341        2.01035       12.41877       19.00144        0.13606
105.50000        7.78872        0.29576       42.30038       17.51381        2.10154       11.07797       16.53429        0.13502
106.00000        7.77054        0.30074       40.64640       18.82136        2.21097       10.18050       13.57400        0.10061
106.50000        7.82598        0.30111       40.64929       20.23941        2.30216       10.03610       14.72924        0.06238
107.00000        7.97354        0.30114       40.92901       20.66298        2.26361        9.31408       13.58411        0.03054
107.50000        8.09657        0.30117       41.20814       20.55249        2.23136        8.36534       11.96750        0.00264
108.00000        8.24413        0.30119       42.04034       20.58674        2.19243        8.23104       13.38122       -0.00336
108.50000        8.36347        0.30123       42.59572       21.47109        2.16018        9.31408       15.27075       -0.00758
109.00000        8.49004        0.30125       43.54670       22.90976        2.20588        8.27942       14.07942        0.00144
109.50000        8.63756        0.30129       44.53578       24.63610        2.25787        5.92057       11.93285        0.02191
110.00000        8.63245        0.30131       47.14422       24.81879        2.33910        3.16245        8.42166        0.04296
110.50000        8.14609        0.30134       52.55317       24.03315        2.43871        3.45126        5.60577        0.05776
111.00000        8.01207        0.30137       59.18646       24.24788        2.55474        5.84837        9.08447        0.05231
111.50000        8.01226        0.30140       62.78051       25.98932        2.43421        8.84476       12.82310        0.03852
112.00000        8.01245        0.30143       63.88895       27.42173        2.28942        8.00361       13.55017        0.03393
112.50000        8.01268        0.30146       62.23439       27.00442        2.16889        7.83682       12.22599        0.04957
113.00000        8.01288        0.30074       57.26549       25.24530        2.02411        7.29242       13.14079        0.08087
113.50000        7.99469        0.28217       52.01978       22.75396        1.90358        6.20938       12.09386        0.09289
114.00000        7.99489        0.26863       47.60337       21.28656        1.78298        6.80794       11.40794        0.09227
114.50000        8.03195        0.26163       45.39633       19.41768        1.78259        5.77617        9.72346        0.07711
115.00000        8.01373        0.25580       45.67604       17.61879        1.78213        7.67148       11.69675        0.05892
115.50000        8.01396        0.25488       47.06015       15.70903        1.83149        8.51985       11.51624        0.04375
116.00000        8.01415        0.25908       47.61610       15.76685        1.88129        8.05054       13.06859        0.02556
116.50000        8.01438        0.27001       47.61900       16.33518        1.92735        7.53790       12.34656        0.01588
117.00000        8.01457        0.27912       47.34622       17.44015        1.96359        6.93140       11.96173        0.00866
117.50000        8.12530        0.29006       48.17784       17.78380        2.00709        5.94657       10.95667        0.00264
118.00000        8.18074        0.29190       50.39126       17.72855        2.04334        4.76534        8.51985       -0.00217
118.50000        8.25464        0.29300       52.32784       16.94549        2.08683        9.16967       12.38772       -0.00217
119.00000        8.25483        0.29576       53.43629       16.86667        2.12308       11.21516       16.34656        0.00072
119.50000        8.25506        0.29908       53.16294       17.44015        2.10980       10.65703       16.55234        0.00361
120.00000        8.27371        0.30074       52.06086       18.45304        2.05081       10.98916       18.94440        0.00505
120.50000        8.25549        0.30097       48.74942       19.87109        1.98075       11.33574       13.44404        0.00505
121.00000        8.27410        0.30124       45.71365       20.45046        1.92176       10.75812       12.55090        0.00845
121.50000        8.25591        0.30110       41.57348       20.97275        1.93522       11.57039       13.17689        0.01527
122.00000        8.25614        0.29481       40.47141       21.09724        2.05718       12.57761       13.48591        0.02094
122.50000        8.25634        0.28537       39.92239       20.62173        2.20324       11.23971       14.59494        0.02776
123.00000        8.25653        0.27361       43.51644       19.95396        2.32483       11.11913       15.72996        0.03343
123.50000        8.25676        0.25835       53.74088       20.02173        2.44159       10.56534       13.73934        0.04022
124.00000        8.29379        0.24562       70.59514       20.44015        2.42252       10.43321       13.40866        0.04718
124.50000        8.36768        0.23035       86.89633       22.74402        2.32572        6.27148       11.57039        0.06162
125.00000        8.38629        0.21860      103.75059       25.41437        2.24512        2.62310        5.11697        0.07365
125.50000        8.40494        0.21832      110.10706       28.16354        2.20107        3.62021        4.77473        0.06773
126.00000        8.31305        0.22224      111.49174       28.63720        2.18603        3.49675        4.54873        0.06476
126.50000        8.20279        0.22355      109.28470       27.90055        2.16799        4.73429        5.45126        0.07448
127.00000        8.22139        0.22836      103.76332       26.69319        2.15296        3.79567        5.27076        0.08614
127.50000        8.12955        0.23757       96.86015       25.24457        2.14407        3.14079        4.06715        0.08520
128.00000        8.00083        0.24533       83.60399       24.03720        2.17409        4.00000        5.67653        0.06643
128.50000        7.96422        0.25239       71.45221       22.00295        2.21026        5.73285        8.44765        0.04838
129.00000        7.96442        0.24401       62.06286       20.06409        2.24643        7.12418       10.80144        0.04115
129.50000        7.96465        0.22634       56.26524       17.73702        2.22480        7.99639       12.41877        0.04253
130.00000        8.00167        0.21160       53.50571       16.75249        2.19907        7.00361       11.51624        0.05087
130.50000        8.03874        0.19687       50.47052       16.33518        2.17744        6.82310       10.76389        0.05783
131.00000        8.11260        0.20157       48.53971       16.30461        2.15170        7.79783       12.87003        0.05805
131.50000        8.11283        0.20939       46.88573       16.46593        2.13447        9.81949       15.57761        0.05105
132.00000        8.13144        0.23082       47.44111       16.63315        2.17357       11.50397       15.48303        0.04523
132.50000        8.11325        0.25654       49.10203       16.94291        2.27172       10.03610       14.36245        0.03823
133.00000        8.18711        0.26417       52.97232       17.51050        2.38957        6.74151       12.16895        0.03242
133.50000        8.24259        0.26526       60.98682       18.71602        2.48773        4.81949        9.53646        0.02545
134.00000        8.28882        0.25640       70.10572       19.95101        2.60558        3.44188        5.51624        0.02448
134.50000        8.62975        0.24328       83.36882       21.84788        2.66490        2.74368        3.23682        0.02986
135.00000        8.96144        0.24484       89.44905       23.97790        2.70437        2.74368        3.10469        0.04567
135.50000        9.15320        0.25424       93.87240       29.17127        2.79410        3.05343        3.32130        0.06462
