~Version ---------------------------------------------------
VERS. 2.0 : CWLS LOG ASCII STANDARD - VERSION 2.0
WRAP. NO  : One line per depth step
DLM . SPACE : Column Data Section Delimiter
~Well ------------------------------------------------------
STRT.F         48.5 : START DEPTH
STOP.F       1449.0 : STOP DEPTH
STEP.F          0.5 : STEP
NULL.       -999.25 : NULL VALUE
COMP.                 WALSH & WATTS, INC. : COMPANY
WELL.                         HOWARD F 14 : WELL
FLD .             MONTAGUE COUNTY REGULAR : FIELD
CNTY.                            MONTAGUE : COUNTY
STAT.                               TEXAS : STATE
CTRY.                                 USA : COUNTRY
SEC .                                     : SECTION
TWP .                                     : TOWNSHIP
RGE .                                     : RANGE
LOC . 1430'FEL & 2600'FSL OF THE J.CHAMBLIS SURVEY A-123 : LOCATION
EKB .F                      849 : ELEVATION KELLY BUSHING
EDF .F                      848 : ELEVATION DERRICK FLOOR
EGL .F                      841 : ELEVATION GROUND LEVEL
PDAT.                        GL : PERMANENT DATUM
EPD .                       841 : ELEVATION PERMANENT DATUM
APD .                         8 : ABOVE PERMANENT DATUM
LMF .                        KB : LOG MEASURED FROM
DMF .                        KB : DRILLING MEASURED FROM
API .            42337351020000 : API NUMBER
UWI .                           : UWI NUMBER
DIGC.                     NthDS : DIGITIZING COMPANY
~Params ----------------------------------------------------
SRVC. PIONEER WIRELINE SERVICES : LOGGING COMPANY
LOG .                      DIFL : LOG
DATE.                2013-08-01 : RUN DATE
RUN .                         1 : RUN NUMBER
TDD .F                     1450 : TOTAL DEPTH DRILLER
TDL .F                     1449 : TOTAL DEPTH LOGGER
BOTL.F                     1449 : BOTTOM LOGGED INTERVAL
TOPL.F                       50 : TOP LOGGED INTERVAL
CSGS.IN                         : CASING SIZE
CSGD.F                          : CASING DRILLER
CSGL.F                          : CASING LOGGER
BS  .IN                   7.875 : BIT SIZE
MUD .                       GEL : MUD TYPE
MUDD.                       9.2 : MUD DENSITY
MUDV.                        75 : MUD VISCOSITY
PH  .                           : MUD PH
FL  .                           : FLUID LOSS
MUDS.                  FLOWLINE : SOURCE OF SAMPLE
RM  .OHMM                   2.8 : MUD RESISTIVITY
RMT .DEGF                    72 : RM TEMPERATURE
RMF .OHMM                   2.1 : MUD FILTRATE RESISTIVITY
RMFT.DEGF                    72 : RMF TEMPERATURE
RMC .OHMM                   3.5 : MUD CAKE RESISTIVITY
RMCT.DEGF                    72 : RMC TEMPERATURE
RMFS.                      CALC : RMF SOURCE
RMCS.                      CALC : RMC SOURCE
RMBH.OHMM                   2.3 : MUD RESISTIVITY AT BHT
BHT .DEGF                    87 : BOTTOM HOLE TEMPERATURE
TIMC.           0130 2018-08-01 : TIME CIRCULATION STOPPED
TIML.           0400 2018-08-01 : TIME LOGGER ON BOTTOM
TMAX.DEGF                    87 : MAXIMUM RECORDED TEMPERATURE
UNIT.                     C-052 : EQUIPMENT NUMBER
BASE.                GRAHAM, TX : BASE LOCATION
ENG .                    WENDEL : RECORDED BY
WIT .                  BURLESON : WITNESSED BY
~Curve Information -----------------------------------------
DEPT.F          :DEPTH
CILD.MMHO       :
GRR.GAPI        :
RILD.OHMM       :
RILM.OHMM       :
RSFL.OHMM       :
SP.MV           :
~ASCII ------------------------------------------------------
48.50000        -999.25       52.19779        -999.25        -999.25       19.77442        -999.25
49.00000        -999.25       53.57142        -999.25        -999.25       17.77060        -999.25
49.50000        -999.25       57.41757        -999.25        -999.25       15.52833        -999.25
50.00000        -999.25       58.79120        9.41651        9.37486       13.87787        -999.25
50.50000      109.89469       59.61537        9.18804        9.06281       15.57961        -999.25
51.00000      114.48139       55.21977        8.96587        8.81097       16.88432        -999.25
51.50000      116.32087       50.82416        8.80497        8.60129       16.88134        -999.25
52.00000      118.16434       46.70329        8.74653        8.56364       16.27416        -999.25
52.50000      118.17233       46.70329        8.69752        8.53288       15.31087        -999.25
53.00000      118.18032       47.52746        8.63980        8.49554       15.67991        -999.25
53.50000      118.19231       49.17581        8.59139        8.46431       16.53298        -999.25
54.00000      118.20030       50.54944        8.53437        8.57037       17.34702       55.31134
54.50000      117.29255       55.21977        8.69091        8.67775       18.03945       55.67764
55.00000      114.55331       64.01097        8.82381        8.88793       16.30362       56.04394
55.50000      110.90233       69.23075        8.98264        9.14671       13.65921       56.04394
56.00000      109.99458       78.57141        9.14510        9.29882       13.65680       56.20145
56.50000      110.91831       86.81317        9.10611        9.33353       14.24185       56.51647
57.00000      115.50901       86.26372        8.87893        9.39257       16.43035       56.77654
57.50000      118.26423       81.04394        8.63631        9.27698       17.87087       57.09156
58.00000      122.85093       71.97801        8.39066        9.02526       16.84516       57.40292
58.50000      126.52589       63.18680        8.09228        8.73220       14.84412       57.14284
59.00000      130.19685       59.06592        7.80385        8.49526       14.59412       57.14284
59.50000      134.78355       57.96702        7.57168        8.05704       14.96478       57.14284
60.00000      140.28999       59.61537        7.30180        7.61060       14.96258       57.14284
60.50000      147.62392       61.81317        7.04214        7.25722       14.46454       57.14284
61.00000      149.46339       63.73625        6.83263        7.03932       13.40669       57.50914
61.50000      154.05409       59.06592        6.63809        6.82797       13.40472       57.87544
62.00000      155.89356       52.23350        6.54647        6.71468       13.40236       58.60805
62.50000      158.64878       46.90933        6.47044        6.68529       13.17626       59.70695
63.00000      159.57651       44.78021        6.38113        6.66557       12.73805       59.70695
63.50000      160.50025       47.72252        6.32013        6.66459       12.52316       60.43955
64.00000      161.42398       49.72526        6.29266        6.66341       12.95016       61.53845
64.50000      162.35171       52.47252        6.25985        6.66224       13.73386       62.27105
65.00000      163.27544       54.12087        6.22721        6.66126       14.08267       63.32966
65.50000      164.19917       55.49449        6.20014        6.63602       13.84550       64.30768
66.00000      166.95839       57.03295        6.15847        6.58310       13.61192       65.12086
66.50000      168.79786       56.26372        6.07040        6.53190       13.27009       66.09522
67.00000      170.63734       54.63186        5.99839        6.46075       13.04661       67.07324
67.50000      175.22804       50.62911        5.91261        6.38626       13.15459       67.88643
68.00000      177.98325       46.54669        5.84198        6.27694       13.37599       68.86445
68.50000      179.82273       46.15384        5.75843        6.12859       13.26152       69.41390
69.00000      185.32917       45.68406        5.64510        6.00714       13.14802       69.87178
69.50000      189.00013       45.23076        5.52672        5.86517       12.81822       70.42123
70.00000      191.75535       44.85439        5.38793        5.72655       12.28767       70.97068
70.50000      197.26179       46.42856        5.25528        5.61307       11.87902       71.42856
71.00000      201.84849       46.70329        5.15157        5.49104       12.07860       72.16116
71.50000      206.43519       46.15384        5.02940        5.39159       11.67656       72.52746
72.00000      214.68886       44.78021        4.88867        5.31061       11.28824       72.89376
72.50000      221.10704       40.10988        4.73844        5.15247       11.00476       73.26006
73.00000      236.68665       38.73626        4.56455        4.98684       10.91058       73.99266
73.50000      248.59928       38.46153        4.39704        4.83074       10.90898       73.99266
74.00000      259.59618       39.56043        4.15283        4.61135       10.63503       74.72526
74.50000      282.50172       41.48351        3.87741        4.35730       10.63346       75.82416
75.00000      298.07733       42.03296        3.62026        4.08698       10.72147       76.55676
75.50000      320.06712       42.85713        3.41890        3.78458       10.10611       78.02196
76.00000      335.64273       43.68131        3.19215        3.50455        9.36728       80.21976
76.50000      343.89240       44.78021        3.02494        3.28713        8.97957       81.31866
77.00000      353.06181       44.23076        2.92828        3.05804        9.52298       83.15016
77.50000      352.15406       44.50548        2.83439        2.93492       10.01490       84.98167
78.00000      345.75186       45.87911        2.83389        2.89937        9.20465       86.44687
78.50000      321.95455       50.54944        2.84375        2.85743        8.82393       88.27837
79.00000      299.98473       60.16482        2.92187        2.99922        8.45871       90.10987
79.50000      278.01491       83.24174        3.12489        3.17858        6.51452       91.57507
80.00000      257.87658       88.46152        3.32331        3.47174        6.45896       93.04027
80.50000      231.32805       98.07690        3.67596        3.78376        7.70669       94.50547
81.00000      201.12055       96.97800        4.06602        4.19514        7.96923       96.33697
81.50000      181.89795       96.42855        4.42250        4.65164        7.32470       97.80218
82.00000      170.00130       95.60437        4.96104        5.22615        7.76797       99.26738
82.50000      157.18890       96.70327        5.45952        6.00947        9.50592       99.63368
83.00000      142.54901       97.52745        6.12382        6.57387       10.69315      100.36628
83.50000      131.56810      101.92305        6.70103        7.16750       10.78166      101.83148
84.00000      124.25015      106.04393        7.19283        7.81408       12.02689      102.19778
84.50000      116.01647      107.69228        7.83180        8.39817       12.97130      102.93038
85.00000      105.03955      110.71426        8.30600        9.09508       12.22716      104.39558
85.50000       97.72160      109.34063        8.91308        9.72158       12.16750      105.12818
86.00000       91.31940      106.31866        9.60731       10.59946       12.32618      105.86078
86.50000       84.00545      107.14283       10.30461       12.09208       15.60058      107.69228
87.00000       81.26621      107.96701       11.26544       13.49434       16.76481      108.79118
87.50000       77.61124      108.51646       12.63620       15.39462       19.63029      109.89009
88.00000       71.20903      106.59338       13.90585       17.14808       22.33251      111.35529
88.50000       63.89508      102.74723       15.59921       19.26704       25.56623      112.45419
