~Version ---------------------------------------------------
VERS. 2.0 : CWLS LOG ASCII STANDARD - VERSION 2.0
WRAP. NO  : One line per depth step
DLM . SPACE : Column Data Section Delimiter
~Well ------------------------------------------------------
STRT.F           40 : START DEPTH
STOP.F       1271.0 : STOP DEPTH
STEP.F          0.5 : STEP
NULL.       -999.25 : NULL VALUE
COMP.                 WALSH & WATTS, INC. : COMPANY
WELL.                         HOWARD G 17 : WELL
FLD .             MONTAGUE COUNTY REGULAR : FIELD
CNTY.                            MONTAGUE : COUNTY
STAT.                               TEXAS : STATE
CTRY.                                 USA : COUNTRY
SEC .                                     : SECTION
TWP .                                     : TOWNSHIP
RGE .                                     : RANGE
LOC . 520'FNL & 4250'FEL OF THE J.CHAMBLIS SURVEY, A-123 : LOCATION
EKB .F                      519 : ELEVATION KELLY BUSHING
EDF .F                      518 : ELEVATION DERRICK FLOOR
EGL .F                      512 : ELEVATION GROUND LEVEL
PDAT.                        GL : PERMANENT DATUM
EPD .                       512 : ELEVATION PERMANENT DATUM
APD .                         7 : ABOVE PERMANENT DATUM
LMF .                        KB : LOG MEASURED FROM
DMF .                        KB : DRILLING MEASURED FROM
API .            42337343900000 : API NUMBER
UWI .                           : UWI NUMBER
DIGC.                     NthDS : DIGITIZING COMPANY
~Params ----------------------------------------------------
SRVC. PIONEER WIRELINE SERVICES : LOGGING COMPANY
LOG .                      CNFD : LOG
DATE.                2010-10-13 : RUN DATE
RUN .                         1 : RUN NUMBER
TDD .F                     1298 : TOTAL DEPTH DRILLER
TDL .F                     1280 : TOTAL DEPTH LOGGER
BOTL.F                     1280 : BOTTOM LOGGED INTERVAL
TOPL.F                       50 : TOP LOGGED INTERVAL
CSGS.IN                         : CASING SIZE
CSGD.F                          : CASING DRILLER
CSGL.F                          : CASING LOGGER
BS  .IN                   7.875 : BIT SIZE
MUD .                  GEL-CHEM : MUD TYPE
MUDD.                           : MUD DENSITY
MUDV.                           : MUD VISCOSITY
PH  .                           : MUD PH
FL  .                           : FLUID LOSS
MUDS.                  FLOWLINE : SOURCE OF SAMPLE
RM  .OHMM                   3.6 : MUD RESISTIVITY
RMT .DEGF                    72 : RM TEMPERATURE
RMF .OHMM                   2.7 : MUD FILTRATE RESISTIVITY
RMFT.DEGF                    72 : RMF TEMPERATURE
RMC .OHMM                   4.5 : MUD CAKE RESISTIVITY
RMCT.DEGF                    72 : RMC TEMPERATURE
RMFS.                      CALC : RMF SOURCE
RMCS.                      CALC : RMC SOURCE
RMBH.OHMM                   3.0 : MUD RESISTIVITY AT BHT
BHT .DEGF                    85 : BOTTOM HOLE TEMPERATURE
TIMC.           0245 2010-10-13 : TIME CIRCULATION STOPPED
TIML.           0540 2010-10-13 : TIME LOGGER ON BOTTOM
TMAX.DEGF                    85 : MAXIMUM RECORDED TEMPERATURE
UNIT.                      M-19 : EQUIPMENT NUMBER
BASE.             GRAHAM, TEXAS : BASE LOCATION
ENG .                    WENDEL : RECORDED BY
WIT .           WOMBLE/BURLESON : WITNESSED BY
~Curve Information -----------------------------------------
DEPT.F          :DEPTH
CALI.IN         :
DPHI.PU         :
GRD.GAPI        :
MINV.OHMM       :
MNOR.OHMM       :
NPHI.PU         :
RHOC.G/CC       :
~ASCII ------------------------------------------------------
# ...
600.50000        7.84586       15.92171       89.57545        5.97015        4.70149       17.90479        0.05448
601.00000        7.84210       15.32080       78.25470        7.71194        6.26865       16.63659        0.03582
601.50000        7.84210       14.41275       71.03772       21.64178       21.46268       15.52828        0.03832
602.00000        7.78571       13.23565       72.91130       12.68656       22.23880       15.62924        0.02996
602.50000        7.78571       13.33661       79.45753       11.16417       13.58208       16.65727        0.00597
603.00000        7.78571       14.51514       90.70753        5.43283        4.62686       19.40233        0.01437
603.50000        7.80451       15.71873      100.96696        5.97015        4.62686       23.12482        0.03157
604.00000        7.89850       16.92244      106.69809        5.67164        4.73880       23.91939        0.05224
604.50000        7.89850       17.37415      105.56601        6.23134        4.62686       23.94830        0.05597
605.00000        7.92105       17.23125      100.75469        6.74627        4.71642       23.35228        0.05985
605.50000        7.95489       16.99275       99.99903        6.46716        5.73134       22.07468        0.06485
606.00000        7.82951       16.84973      102.92545        5.55522        5.82089       21.45133        0.06269
606.50000        7.78308       16.81924      106.98111        5.97015        5.92985       22.22635        0.05821
607.00000        7.75075       16.66306      108.28299        6.16865        6.06567       24.15675        0.06567
607.50000        7.72387       16.01941      105.62262        6.41791        6.04477       24.06223        0.07313
608.00000        7.69173       15.27339      101.06884        6.95074        6.86567       22.71708        0.07828
608.50000        7.69887       15.19879      100.44054        6.63134        6.65224       22.52970        0.06683
609.00000        7.70620       15.59536       99.33960        6.79104        6.79104       23.16939        0.05306
609.50000        7.71485       16.21024       98.99998        7.01492        6.82836       23.69641        0.04966
610.00000        7.72218       16.94778       99.84903        6.26865        5.73134       22.28723        0.04828
610.50000        7.72932       17.48897       99.67922        7.03582        5.46268       20.43795        0.04664
611.00000        7.69549       18.07953       92.54715        7.07462        6.19403       18.49156        0.04530
611.50000        7.68007       18.55982       74.99998        7.98507        8.77612       15.67261        0.04392
612.00000        7.72350       19.07932       58.16036       14.92537       20.32835       15.20328        0.04228
612.50000        7.75977       19.47088       49.81131       17.01492       27.91043       15.25399        0.04093
613.00000        7.80789       19.56031       49.81131       11.91044       17.76119       15.56811        0.04119
613.50000        7.86936       19.45339       55.87640        8.57164       10.89552       15.66656        0.04951
614.00000        7.92989       19.46338       59.71697        7.61194        9.02985       15.63294        0.05340
614.50000        7.89474       20.13137       62.83017        5.82089        6.61044       16.30771        0.04802
615.00000        7.92989       21.07181       63.53772        7.01492        5.64179       18.15190        0.03448
615.50000        7.89850       22.09996       64.52829        7.36268        5.62239       18.86388        0.02298
616.00000        7.86090       22.27611       66.93395        6.90298        5.62239       18.30621        0.03332
616.50000        7.97838       21.97607       69.05659        7.08955        5.55970       16.85079        0.04168
617.00000        7.93609       21.54057       71.07451        6.86567        6.65074       15.14699        0.04701
617.50000        7.74568       21.09004       72.98489        8.05970        7.97612       14.72165        0.04701
618.00000        7.71053       20.54939       74.24432        7.68656        7.91044       15.32787        0.05116
618.50000        7.70489       20.02367       74.43394        7.76119        7.76119       16.15151        0.06153
619.00000        7.70019       19.98679       71.60376        8.29850        8.28358       16.49045        0.06231
619.50000        7.69549       20.48850       68.77357       11.94029       12.68656       16.79190        0.05560
620.00000        7.66241       21.20988       69.05659       14.66417       17.16417       17.29362        0.04205
620.50000        7.58947       21.19168       70.58489       12.08955       11.64179       17.43230        0.04142
621.00000        7.57218       20.32084       76.81130        7.76119        7.61194       17.34078        0.05149
621.50000        7.59643       19.27569       83.08583        9.25373        7.55224       17.40277        0.05522
622.00000        7.61654       18.46163       86.32073        8.80597        8.40746       17.68983        0.05448
622.50000        7.61654       17.93853       85.47168        9.21641        8.10895       18.32951        0.04515
623.00000        7.61654       17.92421       80.57828        6.26865        7.61194       19.55164        0.04328
623.50000        7.60526       18.94509       71.88678        6.52388        7.38806       20.90974        0.03675
624.00000        7.57143       20.17023       55.47169        6.41791        8.88059       22.27398        0.02041
624.50000        7.57895       21.41894       45.56603       19.85074       39.10446       22.53923        0.01981
625.00000        7.61034       23.32678       41.15942       21.56715       35.52237       20.50198        0.02250
625.50000        7.62782       24.65668       38.87546        9.62686        8.95522       17.70183        0.02739
626.00000        7.60902       24.56341       38.10565        9.70149       11.49253       14.36597        0.04392
626.50000        7.58647       23.38731       37.00471       23.13432       39.16416       12.43236        0.05772
627.00000        7.56729       21.04017       39.90565       20.14924       39.30297       12.06465        0.07425
627.50000        7.53853       16.95255       46.19433       14.02984       39.38655       13.24155        0.08806
628.00000        7.50376       16.26706       63.55470        8.25821        8.65671       14.85316        0.07873
628.50000        7.66485       16.36464       82.71224        3.73134        3.76119       15.95938        0.06287
629.00000        7.79286       16.99768       94.81130        4.36567        3.13433       16.53415        0.06086
629.50000        7.87256       17.38887       96.22639        5.55970        3.13433       17.19150        0.07739
630.00000        7.93139       17.85799       91.69809        7.08955        6.33283       18.83543        0.08007
630.50000        7.90320       18.37249       82.92451        9.07462        9.85074       22.06909        0.06433
631.00000        7.87970       18.98974       76.69810        6.41791        8.13432       26.24271        0.03989
631.50000        7.84605       19.45574       79.24526        5.67164        6.07612       28.12311        0.03474
632.00000        7.80583       19.78464       89.52734        5.00000        5.07462       26.76280        0.03343
632.50000        7.83741       19.99764       96.50941        4.85074        4.77612       25.21453        0.03280
633.00000        7.99248       19.96703      101.03771        5.01045        4.62686       25.56862        0.03631
633.50000        8.00695       19.89255      103.86790        5.52239        4.49851       27.47559        0.04048
634.00000        8.02143       19.53412      106.98111        4.32836        4.10448       28.72780        0.04451
634.50000        7.98496       19.10438      112.07545        4.65671        3.62239       26.51035        0.05075
635.00000        7.96898       18.37189      114.05658        4.36567        3.70448       24.48088        0.05821
