~Version ---------------------------------------------------
VERS. 2.0 : CWLS LOG ASCII STANDARD - VERSION 2.0
WRAP. NO  : One line per depth step
DLM . SPACE : Column Data Section Delimiter
~Well ------------------------------------------------------
STRT.F         48.5 : START DEPTH
STOP.F       1455.5 : STOP DEPTH
STEP.F          0.5 : STEP
NULL.       -999.25 : NULL VALUE
COMP.                 WALSH & WATTS, INC. : COMPANY
WELL.                         HOWARD F 25 : WELL
FLD .                            MONTAGUE : FIELD
CNTY.                            MONTAGUE : COUNTY
STAT.                               TEXAS : STATE
CTRY.                                 USA : COUNTRY
SEC .                                     : SECTION
TWP .                                     : TOWNSHIP
RGE .                                     : RANGE
LOC . 1115'FEL & 2300'FSL OF THE J.CHAMBLIS SURVEY A-123 : LOCATION
EKB .F                      512 : ELEVATION KELLY BUSHING
EDF .F                      511 : ELEVATION DERRICK FLOOR
EGL .F                      505 : ELEVATION GROUND LEVEL
PDAT.                        GL : PERMANENT DATUM
EPD .                       505 : ELEVATION PERMANENT DATUM
APD .                         7 : ABOVE PERMANENT DATUM
LMF .                        KB : LOG MEASURED FROM
DMF .                        KB : DRILLING MEASURED FROM
API .            42337343120000 : API NUMBER
UWI .                           : UWI NUMBER
DIGC.                     NthDS : DIGITIZING COMPANY
~Params ----------------------------------------------------
SRVC. PIONEER WIRELINE SERVICES : LOGGING COMPANY
LOG .                      DIFL : LOG
DATE.                2010-10-07 : RUN DATE
RUN .                         1 : RUN NUMBER
TDD .F                     1450 : TOTAL DEPTH DRILLER
TDL .F                     1452 : TOTAL DEPTH LOGGER
BOTL.F                     1452 : BOTTOM LOGGED INTERVAL
TOPL.F                       50 : TOP LOGGED INTERVAL
CSGS.IN                         : CASING SIZE
CSGD.F                          : CASING DRILLER
CSGL.F                          : CASING LOGGER
BS  .IN                   7.875 : BIT SIZE
MUD .                  GEL-CHEM : MUD TYPE
MUDD.                           : MUD DENSITY
MUDV.                           : MUD VISCOSITY
PH  .                           : MUD PH
FL  .                           : FLUID LOSS
MUDS.                  FLOWLINE : SOURCE OF SAMPLE
RM  .OHMM                   4.0 : MUD RESISTIVITY
RMT .DEGF                    72 : RM TEMPERATURE
RMF .OHMM                   3.0 : MUD FILTRATE RESISTIVITY
RMFT.DEGF                    72 : RMF TEMPERATURE
RMC .OHMM                   5.0 : MUD CAKE RESISTIVITY
RMCT.DEGF                    72 : RMC TEMPERATURE
RMFS.                      CALC : RMF SOURCE
RMCS.                      CALC : RMC SOURCE
RMBH.OHMM                     3 : MUD RESISTIVITY AT BHT
BHT .DEGF                    88 : BOTTOM HOLE TEMPERATURE
TIMC.           0730 2010-10-07 : TIME CIRCULATION STOPPED
TIML.           1020 2010-10-07 : TIME LOGGER ON BOTTOM
TMAX.DEGF                    88 : MAXIMUM RECORDED TEMPERATURE
UNIT.                      M-19 : EQUIPMENT NUMBER
BASE.                GRAHAM, TX : BASE LOCATION
ENG .                    WENDEL : RECORDED BY
WIT .           WOMBLE/BURLESON : WITNESSED BY
~Curve Information -----------------------------------------
DEPT.F          :DEPTH
CILD.MMHO       :
GRR.GAPI        :
RILD.OHMM       :
RILM.OHMM       :
RSFL.OHMM       :
SP.MV           :
~ASCII ------------------------------------------------------
# ...
689.50000      320.70388       66.36196        3.04187        3.79341        7.79294      130.16450
690.00000      305.04797       67.18463        3.18745        3.91000        7.85768      131.62703
690.50000      281.57328       69.37841        3.37166        4.07113        8.40572      132.72392
691.00000      265.92654       75.68554        3.56651        4.22328        7.78903      133.82081
691.50000      250.27981       78.97622        3.74479        4.45868        6.30470      134.55207
692.00000      234.63308       76.78243        4.01003        4.93362        6.41120      136.01459
692.50000      221.60339       73.76598        4.24549        5.36783        7.15433      137.11149
693.00000      211.20911       73.49176        4.51634        5.74901        8.11965      137.84275
693.50000      207.36684       75.68554        4.62730        5.88877        8.46880      138.93964
694.00000      204.80532       82.23673        4.76455        5.88773        7.91384      140.03653
694.50000      204.19970       88.29980        4.90545        5.88686        7.39547      141.13342
695.00000      204.82455       90.21936        4.89851        5.70947        6.91085      141.86468
695.50000      208.08044       91.31625        4.85274        5.53743        6.85148      142.59595
696.00000      210.89993       91.31625        4.76750        5.39803        6.73568      143.32721
696.50000      213.71943       91.31625        4.65284        5.20889        6.13674      144.42410
697.00000      216.53892       91.31625        4.54094        5.00097        5.78326      145.52099
697.50000      220.75898       91.31625        4.44988        4.92475        5.78241      145.88662
698.00000      223.57848       91.86470        4.41613        4.80997        6.13366      146.98351
698.50000      226.39797       93.23581        4.38796        4.71630        6.08116      147.71477
699.00000      230.62721       94.88115        4.35468        4.63175        5.73088      148.81167
699.50000      231.85812       94.88115        4.32165        4.56103        5.53944      149.90856
700.00000      233.45325       95.15537        4.37778        4.66287        5.73996      151.00545
700.50000      235.73097       97.15594        4.34464        4.67899        5.98615      151.92657
701.00000      239.14296      102.66053        4.27134        4.66293        6.13864      152.66052
701.50000      241.42068      104.31190        4.18501        4.59187        6.18954      153.39446
702.00000      243.69841      108.16511        4.11706        4.43127        5.83366      153.76143
702.50000      245.97613      107.88988        4.08842        4.26560        5.54497      154.12841
703.00000      249.39730      103.64310        4.05439        4.23260        5.31505      154.49538
703.50000      251.67502       98.25686        4.02099        4.23185        5.26964      154.49538
704.00000      253.25486       93.21191        3.99302        4.22802        5.31333      154.49538
704.50000      254.84389       91.37613        3.95979        4.22086        5.44853      154.86235
705.00000      257.21824       92.47704        3.94387        4.21490        5.58733      154.86235
705.50000      258.24713       99.35778        3.92857        4.20741        5.49290      154.86235
706.00000      259.27601       99.90823        3.91300        4.20028        5.49209      154.86235
706.50000      260.30490      101.28438        3.90023        4.19436        5.67954      154.86235
707.00000      261.85282      103.76144        3.88510        4.13531        5.63084      154.86235
707.50000      264.70904      105.41282        3.83634        4.06554        5.39752      154.49538
708.00000      267.56527      107.61465        3.77850        3.98337        5.21754      154.49538
708.50000      270.42149      108.99080        3.72154        3.93658        5.17280      154.12841
709.00000      274.70583      110.36695        3.67484        3.89768        5.17204      154.12841
709.50000      277.56206      111.46786        3.62066        3.85124        5.12770      153.94492
710.00000      280.41828      113.45502        3.57270        3.81254        5.12694      154.12841
710.50000      283.27451      113.82383        3.53322        3.76680        5.12604      153.76143
711.00000      287.55884      112.88254        3.48642        3.71064        5.12513      153.45685
711.50000      290.41507      111.19264        3.44790        3.66037        5.12438      153.08987
712.00000      294.38239      112.19447        3.40223        3.60063        4.99546      153.14125
712.50000      298.34971      114.74585        3.35716        3.54187        4.91118      153.31006
713.00000      304.29610      115.41190        3.32006        3.49358        4.82817      153.27336
713.50000      308.25424      114.49539        3.27609        3.44905        4.78678      153.06786
714.00000      312.22156      112.84401        3.24700        3.41756        4.78607      153.20364
714.50000      316.05595      112.84401        3.24642        3.38740        4.70518      153.37611
715.00000      315.78090      113.94493        3.24421        3.39395        4.70449      153.58529
715.50000      315.50586      113.14676        3.23635        3.39947        4.74350      153.76143
716.00000      315.23081      110.00915        3.22652        3.40604        4.74266      153.51556
716.50000      314.82284      107.33943        3.21870        3.41158        4.78213      153.39446
717.00000      314.54779      101.55961        3.22874        3.43842        4.86262      153.76143
717.50000      313.31776       99.63301        3.24318        3.46956        4.94447      153.02749
718.00000      311.12355       98.80732        3.25503        3.46905        5.02784      153.02749
718.50000      308.92934       98.80732        3.26959        3.46844        4.94287      151.92657
719.00000      302.43329      100.18346        3.34628        3.46793        4.90063      151.55960
719.50000      298.09953      101.55961        3.41162        3.57632        4.81781      151.19263
720.00000      293.76577      100.45869        3.46904        3.71088        4.94039      150.09171
720.50000      289.44120       99.90823        3.50795        3.81731        5.37437      150.09171
721.00000      284.19399       99.08255        3.55559        3.90356        5.99611      149.72474
721.50000      282.36708       99.90823        3.60356        3.92080        5.94487      149.35776
722.00000      277.60174      102.11007        3.64429        3.89670        5.69837      148.99079
722.50000      269.89797      104.03667        3.72035        3.87308        5.37073      148.25685
723.00000      262.19419      103.48622        3.78500        3.93872        4.97740      147.88987
723.50000      261.29035      101.83484        3.86399        4.09036        4.97652      147.52290
724.00000      260.68473      101.83484        3.86331        4.24784        5.89009      147.15593
724.50000      259.28941      101.83484        3.86274        4.32238        6.40729      147.15593
725.00000      257.09520      101.00915        3.91453        4.37222        6.19364      146.42199
725.50000      254.90099       98.80732        3.95811        4.40414        6.03800      147.15593
726.00000      257.32126       96.05502        3.95975        4.44291        5.88610      147.15593
726.50000      263.98827       97.43117        3.86013        4.35127        5.98535      147.52290
727.00000      270.65527       99.08255        3.77680        4.22408        5.88419      147.88987
727.50000      280.66038      100.45869        3.66846        4.03563        5.45310      148.25685
728.00000      287.32739      101.28438        3.58050        3.87887        5.05374      148.99079
728.50000      293.99439      102.93576        3.47778        3.69833        4.80350      148.99079
729.00000      300.66140      103.85777        3.37830        3.58921        4.64333      148.99079
