~Version ---------------------------------------------------
VERS. 2.0 : CWLS LOG ASCII STANDARD - VERSION 2.0
WRAP. NO  : One line per depth step
DLM . SPACE : Column Data Section Delimiter
~Well ------------------------------------------------------
STRT.F         48.5 : START DEPTH
STOP.F       1449.0 : STOP DEPTH
STEP.F          0.5 : STEP
NULL.       -999.25 : NULL VALUE
COMP.                 WALSH & WATTS, INC. : COMPANY
WELL.                         HOWARD F 14 : WELL
FLD .             MONTAGUE COUNTY REGULAR : FIELD
CNTY.                            MONTAGUE : COUNTY
STAT.                               TEXAS : STATE
CTRY.                                 USA : COUNTRY
SEC .                                     : SECTION
TWP .                                     : TOWNSHIP
RGE .                                     : RANGE
LOC . 1430'FEL & 2600'FSL OF THE J.CHAMBLIS SURVEY A-123 : LOCATION
EKB .F                      849 : ELEVATION KELLY BUSHING
EDF .F                      848 : ELEVATION DERRICK FLOOR
EGL .F                      841 : ELEVATION GROUND LEVEL
PDAT.                        GL : PERMANENT DATUM
EPD .                       841 : ELEVATION PERMANENT DATUM
APD .                         8 : ABOVE PERMANENT DATUM
LMF .                        KB : LOG MEASURED FROM
DMF .                        KB : DRILLING MEASURED FROM
API .            42337351020000 : API NUMBER
UWI .                           : UWI NUMBER
DIGC.                     NthDS : DIGITIZING COMPANY
~Params ----------------------------------------------------
SRVC. PIONEER WIRELINE SERVICES : LOGGING COMPANY
LOG .                      DIFL : LOG
DATE.                2013-08-01 : RUN DATE
RUN .                         1 : RUN NUMBER
TDD .F                     1450 : TOTAL DEPTH DRILLER
TDL .F                     1449 : TOTAL DEPTH LOGGER
BOTL.F                     1449 : BOTTOM LOGGED INTERVAL
TOPL.F                       50 : TOP LOGGED INTERVAL
CSGS.IN                         : CASING SIZE
CSGD.F                          : CASING DRILLER
CSGL.F                          : CASING LOGGER
BS  .IN                   7.875 : BIT SIZE
MUD .                       GEL : MUD TYPE
MUDD.                       9.2 : MUD DENSITY
MUDV.                        75 : MUD VISCOSITY
PH  .                           : MUD PH
FL  .                           : FLUID LOSS
MUDS.                  FLOWLINE : SOURCE OF SAMPLE
RM  .OHMM                   2.8 : MUD RESISTIVITY
RMT .DEGF                    72 : RM TEMPERATURE
RMF .OHMM                   2.1 : MUD FILTRATE RESISTIVITY
RMFT.DEGF                    72 : RMF TEMPERATURE
RMC .OHMM                   3.5 : MUD CAKE RESISTIVITY
RMCT.DEGF                    72 : RMC TEMPERATURE
RMFS.                      CALC : RMF SOURCE
RMCS.                      CALC : RMC SOURCE
RMBH.OHMM                   2.3 : MUD RESISTIVITY AT BHT
BHT .DEGF                    87 : BOTTOM HOLE TEMPERATURE
TIMC.           0130 2018-08-01 : TIME CIRCULATION STOPPED
TIML.           0400 2018-08-01 : TIME LOGGER ON BOTTOM
TMAX.DEGF                    87 : MAXIMUM RECORDED TEMPERATURE
UNIT.                     C-052 : EQUIPMENT NUMBER
BASE.                GRAHAM, TX : BASE LOCATION
ENG .                    WENDEL : RECORDED BY
WIT .                  BURLESON : WITNESSED BY
~Curve Information -----------------------------------------
DEPT.F          :DEPTH
CILD.MMHO       :
GRR.GAPI        :
RILD.OHMM       :
RILM.OHMM       :
RSFL.OHMM       :
SP.MV           :
~ASCII ------------------------------------------------------
# ...
249.50000       81.46600       96.25226       12.43092       13.97095       16.83643      155.59630
250.00000       78.81964       95.15537       13.16881       14.53961       14.69633      155.59630
250.50000       77.91106       94.23075       13.32116       14.37516       14.94437      155.59630
251.00000       77.92306       92.85712       13.11352       14.17978       16.53473      155.59630
251.50000       79.76422       91.48350       12.90149       13.82156       16.81379      155.59630
252.00000       81.60538       90.93405       12.70076       13.39680       15.71297      155.96327
252.50000       83.44654       95.05492       12.46380       12.90275       14.43836      155.96327
253.00000       84.37112      100.27470       12.26988       12.50623       12.54112      156.69721
253.50000       86.21628      104.94503       12.04096       12.15124       11.21761      157.43116
254.00000       88.05744      106.86811       11.81630       11.80633       11.29735      158.53207
254.50000       89.89860      108.24173       11.63148       11.52591       11.98332      158.89905
255.00000       90.82318      112.91206       11.47049       11.19875       13.37096      159.99996
255.50000       90.83118      113.18679       11.43014       11.17444       13.82815      160.73391
256.00000       90.84318      112.36261       11.38190       11.14608       11.97731      161.46785
256.50000       90.85118      108.24173       11.34186       11.11686       10.73051      162.56877
257.00000       91.77576      106.86811       11.29400       11.06093       11.67400      162.93574
257.50000       93.61692      106.04393       11.04871       10.84357       13.47320      164.03666
258.00000       95.45808      107.14283       10.81638       10.66496       12.27657      164.77061
258.50000       99.13641      112.08789       10.54402       10.45538       10.36748      165.50455
259.00000      101.89415      116.75822       10.14348        9.91878       10.22084      166.23849
259.50000      105.56848      120.05492        9.68237        9.49218       10.57982      167.70638
260.00000      110.15938      119.50547        9.24301        9.00502       10.65773      167.33941
260.50000      117.50403      119.50547        8.89190        8.61845       10.16239      167.70638
261.00000      120.26177      119.50547        8.48769        8.20240       10.01497      167.33941
261.50000      124.85268      119.23074        8.10185        7.93533        7.97227      166.60547
262.00000      128.52700      115.10986        7.90408        7.71944        7.38789      166.23849
262.50000      134.03849      109.34063        7.70505        7.46810        8.26640      165.87152
263.00000      135.87965      105.49448        7.54303        7.31785        7.79354      165.50455
263.50000      137.72081      103.57141        7.35309        7.18314        6.84394      165.13758
264.00000      138.64540      102.74723        7.28261        7.13774        6.95102      164.77061
264.50000      137.73681       99.72525        7.29199        7.13669        7.61923      164.40363
265.00000      134.99907       98.07690        7.39172        7.36245        7.98128      163.66969
265.50000      133.17390       97.80218        7.54317        7.55656        8.13519      162.93574
266.00000      127.68241       98.07690        7.85372        7.79560        8.88391      162.56877
266.50000      122.19092       99.45053        8.12226        8.06419        9.71166      162.56877
267.00000      113.03711      103.02195        8.84138        8.71908       10.41559      162.20180
267.50000      106.62903      103.57141        9.57636        9.42716       10.71427      162.20180
268.00000      100.22096      102.19778       10.23443       10.06139       10.82634      161.83483
268.50000       95.64605       96.70327       10.95219       10.93556       11.72830      161.46785
269.00000       89.23798       87.36262       11.53024       11.82599       12.33585      161.10088
269.50000       85.57966       78.02196       12.28690       12.98983       14.60223      161.10088
270.00000       78.25900       71.15383       12.96273       14.02028       19.12837      160.36694
270.50000       73.68409       71.42856       13.69380       15.35594       17.28244      160.36694
271.00000       71.85893       74.86262       14.19513       15.44598       12.96799      160.42198
271.50000       72.78351       78.70877       14.62853       15.30825       14.10822      160.46969
272.00000       74.62467       75.82416       13.83798       14.31687       15.34825      160.50639
272.50000       81.05274       71.70328       13.01121       13.26184       16.35871      160.55409
273.00000       84.72706       71.42856       12.08567       12.09894       18.75758      160.60180
273.50000       90.23455       76.64833       11.22501       11.03708       18.23954      160.63850
274.00000       94.82546       85.98899       10.47182       10.65013        9.80531      160.68620
274.50000      101.25353       96.46976        9.63375       10.20382        7.23430      160.72657
275.00000      106.76101      107.50272        9.05740        9.84609        7.87038      160.66418
275.50000      114.10166      117.03294        8.52967        9.16037        9.88348      160.58345
276.00000      120.52573      117.07964        8.18397        8.27637        9.88174      160.51739
276.50000      125.11664      115.56866        8.03016        8.13112        9.23504      160.43666
277.00000      127.87838      114.23899        7.85045        7.95990        8.27369      160.36694
277.50000      129.71954      113.32415        7.70356        7.81953        7.79778      161.02749
278.00000      132.47729      109.89009        7.53053        7.65488        8.20148      161.40180
278.50000      134.31845      105.76921        7.37881        7.44388        8.84734      161.23299
279.00000      138.91335      102.19778        7.24074        7.25175        8.40912      161.10088
279.50000      143.50426      101.92305        6.97902        7.01683        7.99237      161.46785
280.00000      148.09516      103.02195        6.76854        6.80923        8.05894      161.83483
280.50000      152.68607      104.39558        6.52443        6.56809        7.92262      162.20180
281.00000      155.44381      103.57141        6.48211        6.33549        7.65819      162.56877
281.50000      159.12214      102.19778        6.44732        6.14805        7.09685      162.56877
282.00000      158.21355      101.64833        6.42987        6.14697        6.97679      162.56877
282.50000      153.63865      100.82415        6.52020        6.22754        7.08736      162.93574
283.00000      149.06374       96.97800        6.63005        6.47627        7.22199      163.30272
283.50000      139.90592       94.23075        6.92929        6.87104        7.37971      163.66969
284.00000      127.08578       92.85712        7.40734        7.36991        7.60503      163.66969
284.50000      120.67771       93.95602        8.21847        8.27347        9.68913      163.66969
285.00000      113.35306       95.87910        8.96225        9.10947       12.47989      163.30272
285.50000      106.02840       95.87910        9.91935       10.22630       13.80798      162.93574
286.00000       97.78717       91.75822       10.74969       10.97897       14.40117      162.93574
286.50000       91.38310       86.26372       11.60307       11.57763       14.89315      162.56877
287.00000       86.80819       85.43954       11.95632       11.86382       15.27290      162.20180
287.50000       85.89960       85.71427       12.15776       12.12087       15.01454      161.83483
288.00000       86.82418       88.73624       11.87466       11.90175       13.91356      161.46785
288.50000       88.66535       90.65932       11.64361       11.72153       13.91151      160.36694
289.00000       91.42709       95.60437       11.27974       11.34467       12.89141      159.99996
