~Version ---------------------------------------------------
VERS. 2.0 : CWLS LOG ASCII STANDARD - VERSION 2.0
WRAP. NO  : One line per depth step
DLM . SPACE : Column Data Section Delimiter
~Well ------------------------------------------------------
STRT.F           40 : START DEPTH
STOP.F       1284.0 : STOP DEPTH
STEP.F          0.5 : STEP
NULL.       -999.25 : NULL VALUE
COMP.                 WALSH & WATTS, INC. : COMPANY
WELL.                         HOWARD G 17 : WELL
FLD .             MONTAGUE COUNTY REGULAR : FIELD
CNTY.                            MONTAGUE : COUNTY
STAT.                               TEXAS : STATE
CTRY.                                 USA : COUNTRY
SEC .                                     : SECTION
TWP .                                     : TOWNSHIP
RGE .                                     : RANGE
LOC . 520'FNL & 4250'FEL OF THE J.CHAMBLIS SURVEY, A-123 : LOCATION
EKB .F                      519 : ELEVATION KELLY BUSHING
EDF .F                      518 : ELEVATION DERRICK FLOOR
EGL .F                      512 : ELEVATION GROUND LEVEL
PDAT.                        GL : PERMANENT DATUM
EPD .                       512 : ELEVATION PERMANENT DATUM
APD .                         7 : ABOVE PERMANENT DATUM
LMF .                        KB : LOG MEASURED FROM
DMF .                        KB : DRILLING MEASURED FROM
API .            42337343900000 : API NUMBER
UWI .                           : UWI NUMBER
DIGC.                     NthDS : DIGITIZING COMPANY
~Params ----------------------------------------------------
SRVC. PIONEER WIRELINE SERVICES : LOGGING COMPANY
LOG .                      DIFL : LOG
DATE.                2010-10-13 : RUN DATE
RUN .                         1 : RUN NUMBER
TDD .F                     1298 : TOTAL DEPTH DRILLER
TDL .F                     1280 : TOTAL DEPTH LOGGER
BOTL.F                     1280 : BOTTOM LOGGED INTERVAL
TOPL.F                       50 : TOP LOGGED INTERVAL
CSGS.IN                         : CASING SIZE
CSGD.F                          : CASING DRILLER
CSGL.F                          : CASING LOGGER
BS  .IN                   7.875 : BIT SIZE
MUD .                  GEL-CHEM : MUD TYPE
MUDD.                           : MUD DENSITY
MUDV.                           : MUD VISCOSITY
PH  .                           : MUD PH
FL  .                           : FLUID LOSS
MUDS.                  FLOWLINE : SOURCE OF SAMPLE
RM  .OHMM                   3.6 : MUD RESISTIVITY
RMT .DEGF                    72 : RM TEMPERATURE
RMF .OHMM                   2.7 : MUD FILTRATE RESISTIVITY
RMFT.DEGF                    72 : RMF TEMPERATURE
RMC .OHMM                   4.5 : MUD CAKE RESISTIVITY
RMCT.DEGF                    72 : RMC TEMPERATURE
RMFS.                      CALC : RMF SOURCE
RMCS.                      CALC : RMC SOURCE
RMBH.OHMM                   3.0 : MUD RESISTIVITY AT BHT
BHT .DEGF                    85 : BOTTOM HOLE TEMPERATURE
TIMC.           0245 2010-10-13 : TIME CIRCULATION STOPPED
TIML.           0540 2010-10-13 : TIME LOGGER ON BOTTOM
TMAX.DEGF                    85 : MAXIMUM RECORDED TEMPERATURE
UNIT.                      M-19 : EQUIPMENT NUMBER
BASE.             GRAHAM, TEXAS : BASE LOCATION
ENG .                    WENDEL : RECORDED BY
WIT .           WOMBLE/BURLESON : WITNESSED BY
~Curve Information -----------------------------------------
DEPT.F          :DEPTH
CILD.MMHO       :
GRR.GAPI        :
RILD.OHMM       :
RILM.OHMM       :
RSFL.OHMM       :
SP.MV           :
~ASCII ------------------------------------------------------
# ...
361.00000      119.42825       74.35836        8.53014        9.28172       13.91665      142.90747
361.50000      122.21068       69.91188        8.33659        8.95806       13.49940      142.55064
362.00000      127.74903       63.84581        8.12068        8.55823       12.73847      142.14359
362.50000      133.28076       59.26651        7.93691        8.20117       12.10856      141.78412
363.00000      138.81911       56.99272        7.63360        7.81131       12.10856      141.37707
363.50000      144.35747       56.05902        7.28623        7.43998       12.46763      140.97002
364.00000      148.70998       56.11453        6.99500        7.18885       12.40705      140.61319
364.50000      150.69742       54.64757        6.79603        6.92340       11.95838      140.20350
365.00000      152.68487       53.25990        6.68808        6.69909       11.28981      139.88368
365.50000      157.03076       51.87224        6.56704        6.57944       10.57137      139.57178
366.00000      162.54924       51.87224        6.39774        6.48006       10.36299      139.29689
366.50000      168.06771       51.87224        6.21084        6.34383       10.32081      138.98500
367.00000      175.10990       50.63127        6.00376        6.18255       10.27317      138.67311
367.50000      180.30377       49.38832        5.82801        5.96986       10.44979      138.40086
368.00000      185.50425       47.83414        5.63370        5.67501       10.43517      138.08897
368.50000      190.69812       44.73568        5.44586        5.39471        9.99554      137.81672
369.00000      193.59317       39.73612        5.28676        5.20913        9.54475      137.62112
369.50000      195.32887       34.03083        5.12701        5.14045        9.05401      137.62112
370.00000      197.07120       31.07312        5.09341        5.08102        8.87663      137.62112
370.50000      197.70056       29.79251        5.05480        5.06990        9.00564      137.62112
371.00000      198.33654       28.92621        5.01678        5.15298       10.10999      137.62112
371.50000      198.96590       29.05903        4.98360        5.22660       11.18718      137.62112
372.00000      199.60188       30.01453        4.94582        5.22946       11.20285      137.62112
372.50000      200.23124       31.26542        4.91700        5.18919       10.84186      137.62112
373.00000      200.86722       31.10683        4.90892        5.14327       10.24818      137.62112
373.50000      201.49658       27.68722        4.90086        5.08319        9.38800      137.62112
374.00000      202.74205       25.60572        4.89400        5.02718        8.59740      137.62112
374.50000      204.28563       26.97951        4.88596        4.96361        7.64290      137.62112
375.00000      205.82922       31.55286        4.87912        4.94311        7.82845      137.79029
375.50000      206.34595       37.20264        4.87111        4.93559        8.78363      138.24491
376.00000      206.34595       39.90660        4.86341        4.92808        9.15768      138.69689
376.50000      204.19289       40.79074        4.87111        4.92179        9.29643      139.09337
377.00000      202.03982       40.94933        4.92269        4.95788        9.35889      139.54800
377.50000      199.88675       40.96916        4.96815        5.02901        9.32818      139.94447
378.00000      197.73368       40.96916        5.02075        5.11112        9.57852      140.27487
378.50000      196.07747       41.89493        5.07391        5.19488        9.93487      140.55240
379.00000      194.42127       43.74449        5.12077        5.21643       10.05658      140.86694
379.50000      192.76506       43.90308        5.17467        5.19646        9.95909      141.18148
380.00000      191.10886       44.04184        5.22278        5.17909        9.66639      141.45637
380.50000      187.66395       43.41938        5.27776        5.15926        9.59427      141.77090
381.00000      184.21904       41.73436        5.33364        5.13951        9.42580      141.89778
381.50000      180.77413       40.40418        5.38290        5.22310        9.14319      141.97178
382.00000      177.32922       39.76387        5.43989        5.41017        9.03254      142.03786
382.50000      173.88431       40.02753        5.56010        5.59473        9.11541      142.11452
383.00000      171.74449       41.45088        5.73370        5.92460        9.32704      142.11452
383.50000      168.88919       45.07070        5.87683        6.27393        9.85775      142.11452
384.00000      166.74937       48.68458        5.90948        6.40905       10.48356      142.11452
384.50000      164.60956       48.56762        5.94737        6.54309       11.00144      142.11452
385.00000      164.60956       47.23347        5.98041        6.51527       10.82735      142.11452
385.50000      166.33201       46.73391        6.01840        6.48361       10.66186      142.11452
386.00000      168.91569       46.49603        6.05699        6.37170       10.71587      142.22553
386.50000      171.49937       46.33347        6.06659        6.20668       10.76360      142.37883
387.00000      173.22183       46.14713        5.91379        6.02353       10.81747      142.55593
387.50000      173.22183       45.06673        5.78313        5.86753       10.78327      142.86782
388.00000      171.01576       44.64845        5.76836        5.69439       10.51232      143.46253
388.50000      164.47706       46.71806        5.97823        5.58860       10.24880      144.05725
389.00000      158.11723       50.18722        6.20253        5.67086       10.20273      144.57795
389.50000      150.25356       54.44933        6.52480        6.01217       10.67940      145.17531
390.00000      141.64129       58.61233        6.82049        6.32763       11.04170      145.69601
390.50000      133.02901       65.57840        7.18623        7.07079       10.95932      146.29073
391.00000      124.41674       70.01100        7.65594        8.15487       11.52804      146.81143
391.50000      120.22323       74.47135        8.09206        9.14598       13.36366      147.40879
392.00000      118.23578       78.43611        8.38852        9.90468       15.09405      147.98500
392.50000      117.57330       79.12994        8.45260        9.90468       14.81636      148.37090
393.00000      117.57330       79.15175        8.52651        9.56628       14.48722      148.80967
393.50000      119.56074       79.07444        8.60106        9.01167       12.63574      149.19557
394.00000      122.81353       80.19052        8.36710        8.59792       10.38636      149.63698
394.50000      128.59701       82.21849        8.05274        8.14792        9.68347      150.02288
395.00000      134.37385       83.83809        7.78757        7.77383       10.00833      150.46165
395.50000      140.15733       85.05131        7.49910        7.44768       10.26067      150.60174
396.00000      144.07260       84.63897        7.24774        7.16133       10.87822      150.65196
396.50000      147.05377       83.14624        7.03472        6.92003       11.81725      150.69954
397.00000      150.03494       83.29294        6.79893        6.65397       11.15317      150.74183
397.50000      153.01611       85.67179        6.60433        6.42937        8.79594      150.78940
398.00000      157.03738       90.49294        6.42311        6.25638        7.87482      150.83169
398.50000      161.58201       94.96122        6.24687        6.20971        7.98975      150.94535
399.00000      166.12664       96.86430        6.09658        6.09621        8.31631      151.05372
399.50000      170.66465       98.11915        5.92893        5.93688        8.49128      151.17795
400.00000      175.20928       99.21739        5.78630        5.80076        8.31074      151.28896
400.50000      177.91883       98.85461        5.66189        5.68365        8.11772      151.31011
