~Version ---------------------------------------------------
VERS. 2.0 : CWLS LOG ASCII STANDARD - VERSION 2.0
WRAP. NO  : One line per depth step
DLM . SPACE : Column Data Section Delimiter
~Well ------------------------------------------------------
STRT.F           11 : START DEPTH
STOP.F       1399.0 : STOP DEPTH
STEP.F          0.5 : STEP
NULL.       -999.25 : NULL VALUE
COMP.                 WALSH & WATTS, INC. : COMPANY
WELL.                      HOWARD AB E 4E : WELL
FLD .             MONTAGUE COUNTY REGULAR : FIELD
CNTY.                            MONTAGUE : COUNTY
STAT.                                     : STATE
CTRY.                                 USA : COUNTRY
SEC .                                     : SECTION
TWP .                                     : TOWNSHIP
RGE .                                     : RANGE
LOC . 3250'FEL & 1590'FSL OF THE J.CHAMBLIS SURVEY A-123 : LOCATION
EKB .F                          : ELEVATION KELLY BUSHING
EDF .F                          : ELEVATION DERRICK FLOOR
EGL .F                          : ELEVATION GROUND LEVEL
PDAT.                        GL : PERMANENT DATUM
EPD .                           : ELEVATION PERMANENT DATUM
APD .                         8 : ABOVE PERMANENT DATUM
LMF .                        KB : LOG MEASURED FROM
DMF .                        KB : DRILLING MEASURED FROM
API .            42337348780000 : API NUMBER
UWI .                           : UWI NUMBER
DIGC.                     NthDS : DIGITIZING COMPANY
~Params ----------------------------------------------------
SRVC. PIONEER WIRELINE SERVICES : LOGGING COMPANY
LOG .                      DIFL : LOG
DATE.                2012-08-01 : RUN DATE
RUN .                         1 : RUN NUMBER
TDD .F                     1400 : TOTAL DEPTH DRILLER
TDL .F                     1396 : TOTAL DEPTH LOGGER
BOTL.F                     1394 : BOTTOM LOGGED INTERVAL
TOPL.F                       50 : TOP LOGGED INTERVAL
CSGS.IN                         : CASING SIZE
CSGD.F                          : CASING DRILLER
CSGL.F                          : CASING LOGGER
BS  .IN                   7.875 : BIT SIZE
MUD .                  CHEM-GEL : MUD TYPE
MUDD.                           : MUD DENSITY
MUDV.                           : MUD VISCOSITY
PH  .                           : MUD PH
FL  .                           : FLUID LOSS
MUDS.                  FLOWLINE : SOURCE OF SAMPLE
RM  .OHMM                   2.4 : MUD RESISTIVITY
RMT .DEGF                    73 : RM TEMPERATURE
RMF .OHMM                   1.8 : MUD FILTRATE RESISTIVITY
RMFT.DEGF                    73 : RMF TEMPERATURE
RMC .OHMM                   3.0 : MUD CAKE RESISTIVITY
RMCT.DEGF                    73 : RMC TEMPERATURE
RMFS.                      CALC : RMF SOURCE
RMCS.                      CALC : RMC SOURCE
RMBH.OHMM                   2.0 : MUD RESISTIVITY AT BHT
BHT .DEGF                    86 : BOTTOM HOLE TEMPERATURE
TIMC.           0200 2012-08-01 : TIME CIRCULATION STOPPED
TIML.           0430 2012-08-01 : TIME LOGGER ON BOTTOM
TMAX.DEGF                    86 : MAXIMUM RECORDED TEMPERATURE
UNIT.                       110 : EQUIPMENT NUMBER
BASE.                GRAHAM, TX : BASE LOCATION
ENG .                    WENDEL : RECORDED BY
WIT .           OVERBY/BURLESON : WITNESSED BY
~Curve Information -----------------------------------------
DEPT.F          :DEPTH
CILD.MMHO       :
GRR.GAPI        :
ILD.OHMM        :
ILM.OHMM        :
SFL.OHMM        :
SP.MV           :
~ASCII ------------------------------------------------------
# ...
1372.50000      409.20515        -999.25        2.47825        2.68684        6.09184      143.86665
1373.00000      423.00285        -999.25        2.42157        2.57625        5.81391      142.84531
1373.50000      436.80055        -999.25        2.31265        2.41549        5.05111      143.70665
1374.00000      454.52227        -999.25        2.19458        2.24401        4.45078      145.19998
1374.50000      474.20934        -999.25        2.06713        2.11902        4.38033      147.47465
1375.00000      500.46099        -999.25        1.96172        2.08356        4.42355      149.46665
1375.50000      520.14139        -999.25        1.89848        2.05310        4.45078      152.21065
1376.00000      520.04844        -999.25        1.91897        2.01887        4.47213      154.48798
1376.50000      503.39995        -999.25        1.94267        1.98936        4.48918      157.99998
1377.00000      473.42710        -999.25        1.97961        1.99547        4.46856      163.59998
1377.50000      453.44520        -999.25        2.13796        2.03579        4.13862      169.99998
1378.00000      425.07127        -999.25        2.30897        2.15733        3.68565      178.41064
1378.50000      399.89519        -999.25        2.46975        2.34021        3.31831      185.50664
1379.00000      374.40599        -999.25        2.66730        2.56835        3.08748      190.10131
1379.50000      348.76356        -999.25        2.83888        2.81874        3.06859      193.59997
1380.00000      328.23102        -999.25        3.00486        3.05769        3.06859      194.41864
1380.50000      310.25010        -999.25        3.15799        3.33362        3.06859      193.70397
1381.00000      318.34497        -999.25        3.20327        3.46927        3.08918      190.79997
1381.50000      339.48440        -999.25        3.04458        3.37271        3.17139      186.44531
1382.00000      359.65780        -999.25        2.84533        3.15780        3.51211      181.63198
1382.50000      377.89918        -999.25        2.65912        2.91711        3.91698      177.05064
1383.00000      396.14722        -999.25        2.50608        2.70587        3.99514      174.14931
1383.50000      419.10542        -999.25        2.45389        2.48312        3.69630      172.71464
1384.00000      427.99975        -999.25        2.40913        2.32361        3.25279      171.85064
1384.50000      427.56036        -999.25        2.35895        2.28795        3.12081      171.09864
1385.00000      426.56801        -999.25        2.32846        2.25713        3.22873      170.43998
1385.50000      425.57565        -999.25        2.32989        2.23508        3.56269      169.68531
1386.00000      424.72321        -999.25        2.33103        2.22250        3.80376        -999.25
1386.50000      423.87743        -999.25        2.33246        -999.25        3.90426        -999.25
1387.00000      423.59793        -999.25        2.33390        -999.25        3.85333        -999.25
1387.50000      423.60491        -999.25        2.33504        -999.25        3.74516        -999.25
1388.00000      423.61188        -999.25        2.33648        -999.25        3.66131        -999.25
1388.50000      423.61886        -999.25        -999.25        -999.25        3.62154        -999.25
1389.00000      423.95894        -999.25        -999.25        -999.25        3.87443        -999.25
1389.50000      424.63214        -999.25        -999.25        -999.25        4.92622        -999.25
1390.00000      425.63844        -999.25        -999.25        -999.25        6.24513        -999.25
1390.50000      516.98629        -999.25        -999.25        -999.25        7.56290        -999.25
1391.00000      517.19313        -999.25        -999.25        -999.25        7.83259        -999.25
1391.50000      517.39997        -999.25        -999.25        -999.25        7.37953        -999.25
1392.00000      517.60682        -999.25        -999.25        -999.25        6.68943        -999.25
1392.50000      517.61379        -999.25        -999.25        -999.25        5.98990        -999.25
1393.00000      516.02185        -999.25        -999.25        -999.25        5.34152        -999.25
1393.50000      514.96055        -999.25        -999.25        -999.25        4.84706        -999.25
1394.00000      112.55596        -999.25        -999.25        -999.25        4.68851        -999.25
1394.50000      112.52962        -999.25        -999.25        -999.25        4.60073        -999.25
1395.00000      112.49663        -999.25        -999.25        -999.25        4.60073        -999.25
1395.50000      112.47029        -999.25        -999.25        -999.25        -999.25        -999.25
1396.00000      112.44396        -999.25        -999.25        -999.25        -999.25        -999.25
1396.50000      112.41096        -999.25        -999.25        -999.25        -999.25        -999.25
1397.00000      112.38463        -999.25        -999.25        -999.25        -999.25        -999.25
1397.50000      112.35829        -999.25        -999.25        -999.25        -999.25        -999.25
1398.00000      112.32530        -999.25        -999.25        -999.25        -999.25        -999.25
1398.50000      112.29896        -999.25        -999.25        -999.25        -999.25        -999.25
1399.00000      112.27263        -999.25        -999.25        -999.25        -999.25        -999.25
