~Version ---------------------------------------------------
VERS. 2.0 : CWLS LOG ASCII STANDARD - VERSION 2.0
WRAP. NO  : One line per depth step
DLM . SPACE : Column Data Section Delimiter
~Well ------------------------------------------------------
STRT.F           11 : START DEPTH
STOP.F       1368.0 : STOP DEPTH
STEP.F          0.5 : STEP
NULL.       -999.25 : NULL VALUE
COMP.                 WALSH & WATTS, INC. : COMPANY
WELL.                      HOWARD AB E 4E : WELL
FLD .             MONTAGUE COUNTY REGULAR : FIELD
CNTY.                            MONTAGUE : COUNTY
STAT.                                     : STATE
CTRY.                                 USA : COUNTRY
SEC .                                     : SECTION
TWP .                                     : TOWNSHIP
RGE .                                     : RANGE
LOC . 3250'FEL & 1590'FSL OF THE J.CHAMBLIS SURVEY A-123 : LOCATION
EKB .F                          : ELEVATION KELLY BUSHING
EDF .F                          : ELEVATION DERRICK FLOOR
EGL .F                          : ELEVATION GROUND LEVEL
PDAT.                        GL : PERMANENT DATUM
EPD .                           : ELEVATION PERMANENT DATUM
APD .                         8 : ABOVE PERMANENT DATUM
LMF .                        KB : LOG MEASURED FROM
DMF .                        KB : DRILLING MEASURED FROM
API .            42337348780000 : API NUMBER
UWI .                           : UWI NUMBER
DIGC.                     NthDS : DIGITIZING COMPANY
~Params ----------------------------------------------------
SRVC. PIONEER WIRELINE SERVICES : LOGGING COMPANY
LOG .                      CNFD : LOG
DATE.                2012-08-01 : RUN DATE
RUN .                         1 : RUN NUMBER
TDD .F                     1400 : TOTAL DEPTH DRILLER
TDL .F                     1396 : TOTAL DEPTH LOGGER
BOTL.F                     1368 : BOTTOM LOGGED INTERVAL
TOPL.F                       50 : TOP LOGGED INTERVAL
CSGS.IN                         : CASING SIZE
CSGD.F                          : CASING DRILLER
CSGL.F                          : CASING LOGGER
BS  .IN                   7.875 : BIT SIZE
MUD .                  CHEM-GEL : MUD TYPE
MUDD.                           : MUD DENSITY
MUDV.                           : MUD VISCOSITY
PH  .                           : MUD PH
FL  .                           : FLUID LOSS
MUDS.                  FLOWLINE : SOURCE OF SAMPLE
RM  .OHMM                   2.4 : MUD RESISTIVITY
RMT .DEGF                    73 : RM TEMPERATURE
RMF .OHMM                   1.8 : MUD FILTRATE RESISTIVITY
RMFT.DEGF                    73 : RMF TEMPERATURE
RMC .OHMM                   3.0 : MUD CAKE RESISTIVITY
RMCT.DEGF                    73 : RMC TEMPERATURE
RMFS.                      CALC : RMF SOURCE
RMCS.                      CALC : RMC SOURCE
RMBH.OHMM                   2.0 : MUD RESISTIVITY AT BHT
BHT .DEGF                    86 : BOTTOM HOLE TEMPERATURE
TIMC.           0200 2012-08-01 : TIME CIRCULATION STOPPED
TIML.           0430 2012-08-01 : TIME LOGGER ON BOTTOM
TMAX.DEGF                    86 : MAXIMUM RECORDED TEMPERATURE
UNIT.                       110 : EQUIPMENT NUMBER
BASE.                GRAHAM, TX : BASE LOCATION
ENG .                    WENDEL : RECORDED BY
WIT .           OVERBY/BURLESON : WITNESSED BY
~Curve Information -----------------------------------------
DEPT.F          :DEPTH
CALD.IN         :
DPHI.V/V        :
GRD.GAPI        :
NPHI.%          :
PEC.B/E         :
RLML.OHMM       :
RNML.OHMM       :
ZCOR.G/C3       :
~ASCII ------------------------------------------------------
# ...
725.00000        8.06261        0.15452      112.15467       24.99057        2.53068        4.15162        3.52852        0.05505
725.50000        8.06261        0.15239      109.66848       23.39947        2.52407        4.54873        4.07942        0.06838
726.00000        8.06261        0.15069      111.32594       23.28748        2.61518        4.00361        3.21299        0.07726
726.50000        8.06261        0.15001      115.19334       23.33321        2.79795        3.31480        1.94946        0.07726
727.00000        8.08103        0.15404      120.71820       23.29158        2.91031        3.22238        1.94946        0.07383
727.50000        8.08103        0.16082      123.48064       23.20766        3.00142        3.32130        3.13574        0.06523
728.00000        8.06261        0.16647      124.03312       23.51195        3.07760        3.53790        3.80866        0.05491
728.50000        8.06261        0.17119      125.69058       24.69093        3.16871        3.69242        2.99639        0.04632
729.00000        8.09945        0.17426      129.83422       26.30756        3.19031        3.75451        3.11769        0.04412
729.50000        8.08103        0.17545      134.25411       27.65451        3.17300        3.13574        2.29097        0.05000
730.00000        8.09945        0.17464      135.91157       27.59268        3.15833        3.08087        2.25271        0.05397
730.50000        8.06261        0.17313      135.08284       27.17580        3.14102        3.05632        2.65343        0.05791
731.00000        8.08103        0.17510      133.14914       27.21777        3.12671        3.29242        2.47581        0.06437
731.50000        8.08103        0.17575      131.76793       27.90696        3.06691        3.46570        2.43682        0.07469
732.00000        8.09945        0.17527      131.49168       28.39240        2.99905        3.16462        2.52707        0.08328
732.50000        8.09945        0.17466      130.93920       28.98693        2.98805        3.15884        2.49097        0.09357
733.00000        8.08103        0.17466      129.83422       29.61343        3.01213        3.43682        2.48375        0.09531
733.50000        7.97053        0.17221      127.34804       30.09304        3.03226        3.10469        2.31047        0.09289
734.00000        7.84162        0.16540      125.69058       30.07947        3.05597        2.59928        2.04549        0.08809
734.50000        7.67587        0.15696      127.07179       30.06804        3.07610        2.23827        1.80505        0.08408
735.00000        7.65746        0.14788      132.04417       30.05410        3.13608        2.09386        1.80505        0.07928
735.50000        7.65746        0.14610      136.46406       30.04266        3.20090        2.02166        1.78123        0.07523
736.00000        7.65746        0.14920      141.16019       30.02909        3.27919        1.97545        1.68664        0.07523
736.50000        7.67587        0.15902      143.09389       30.01766        3.34401        2.10397        1.81805        0.07726
737.00000        7.71271        0.17094      142.81765       30.00409        3.42231        2.25920        1.96390        0.06834
737.50000        7.74954        0.18523      140.05522       29.99266        3.34309        2.52707        2.08881        0.06090
738.00000        7.78637        0.19459      134.25411       29.45717        3.21194        2.96029        2.49097        0.05199
738.50000        7.76796        0.18539      129.55798       28.81487        3.07009        3.10469        2.89314        0.04765
739.00000        7.74954        0.17273      127.34804       28.34156        3.01769        3.39350        3.03249        0.04404
739.50000        7.91105        0.16152      127.07179       27.77366        3.08976        3.62816        3.19278        0.04368
740.00000        8.04567        0.15000      128.45301       26.93239        3.17289        3.79567        2.91191        0.04993
740.50000        8.13628        0.14120      130.66295       25.25953        3.12005        3.17689        2.83682        0.05747
741.00000        8.13628        0.13679      132.04417       23.86541        3.05117        3.35740        2.91697        0.06375
741.50000        8.13628        0.13988      132.59666       23.86325        2.96829        3.42960        2.96029        0.07004
742.00000        8.13628        0.14886      133.42538       24.32806        2.99713        3.75451        3.09458        0.07004
742.50000        8.13628        0.15976      135.91157       25.01615        3.02129        3.82671        2.82238        0.07004
743.00000        8.13628        0.17151      141.16019       25.60471        3.08750        3.02238        2.19206        0.08628
743.50000        8.13628        0.18060      145.58008       27.35909        3.20579        2.72274        1.87726        0.08704
744.00000        8.11786        0.19027      148.59389       30.10831        3.34746        2.78917        1.98556        0.07606
744.50000        8.13628        0.20252      149.22096       30.10867        3.45110        3.10469        2.09386        0.06401
745.00000        8.13628        0.20993      149.72372       30.10909        3.44808        3.10469        2.16606        0.05253
745.50000        8.13628        0.21004      149.72372       30.10945        3.39788        3.44188        1.66065        0.05531
746.00000        8.13628        0.20406      149.72372       30.10987        3.33735        3.15884        1.87726        0.05866
746.50000        8.15470        0.19837      149.72372       30.11029        3.28714        2.85198        2.14801        0.05347
747.00000        8.19153        0.19503      149.72372       30.11058        3.22661        2.79206        2.37328        0.04773
747.50000        8.22836        0.19282      149.30936       29.32286        3.16644        2.74368        2.49097        0.04083
748.00000        8.24678        0.18841      145.85632       27.50848        3.17815        3.44476        2.41877        0.03509
748.50000        8.26519        0.18620      141.16019       25.44630        3.24252        4.24765        3.97112        0.03621
749.00000        8.28361        0.18842      139.77897       24.05549        3.29599        3.46570        3.27798        0.04065
749.50000        8.26519        0.19394      140.33146       23.95758        3.29553        2.52707        2.58339        0.04993
750.00000        8.28361        0.19694      140.05522       24.37386        3.17398        3.61011        3.26498        0.05765
750.50000        8.24678        0.19408      139.50273       25.35034        3.10869        3.59567        3.07870        0.08448
751.00000        8.29650        0.18818      138.67400       26.33964        3.08376        3.05198        2.60578        0.11787
751.50000        8.39595        0.18721      138.67400       27.84283        3.10638        2.72419        2.31047        0.12238
752.00000        8.66298        0.19290      138.95024       28.50985        3.12541        2.47292        2.07292        0.10830
752.50000        9.03867        0.20543      137.01654       28.32243        3.14803        2.61516        2.02166        0.08845
753.00000        8.56390        0.22489      129.83422       27.10179        3.08098        2.76462        1.86282        0.05870
753.50000        8.57624        0.24478      112.43091       25.13168        3.00066        2.50614        1.99783        0.03289
754.00000        7.84162        0.27023       95.58009       23.06648        2.73251        4.78700        4.49097        0.01014
754.50000        7.87532        0.30077       75.69059       20.36555        2.41081        8.07220        9.40072        0.00484
755.00000        7.90331        0.30038       64.36463       17.12472        2.30347        9.98195       13.68230       -0.00152
755.50000        7.93683        0.30031       61.32595       15.82379        2.31473       11.52129       14.15162       -0.00578
