~Version ---------------------------------------------------
VERS. 2.0 : CWLS LOG ASCII STANDARD - VERSION 2.0
WRAP. NO  : One line per depth step
DLM . SPACE : Column Data Section Delimiter
~Well ------------------------------------------------------
STRT.F           11 : START DEPTH
STOP.F       1399.0 : STOP DEPTH
STEP.F          0.5 : STEP
NULL.       -999.25 : NULL VALUE
COMP.                 WALSH & WATTS, INC. : COMPANY
WELL.                      HOWARD AB E 4E : WELL
FLD .             MONTAGUE COUNTY REGULAR : FIELD
CNTY.                            MONTAGUE : COUNTY
STAT.                                     : STATE
CTRY.                                 USA : COUNTRY
SEC .                                     : SECTION
TWP .                                     : TOWNSHIP
RGE .                                     : RANGE
LOC . 3250'FEL & 1590'FSL OF THE J.CHAMBLIS SURVEY A-123 : LOCATION
EKB .F                          : ELEVATION KELLY BUSHING
EDF .F                          : ELEVATION DERRICK FLOOR
EGL .F                          : ELEVATION GROUND LEVEL
PDAT.                        GL : PERMANENT DATUM
EPD .                           : ELEVATION PERMANENT DATUM
APD .                         8 : ABOVE PERMANENT DATUM
LMF .                        KB : LOG MEASURED FROM
DMF .                        KB : DRILLING MEASURED FROM
API .            42337348780000 : API NUMBER
UWI .                           : UWI NUMBER
DIGC.                     NthDS : DIGITIZING COMPANY
~Params ----------------------------------------------------
SRVC. PIONEER WIRELINE SERVICES : LOGGING COMPANY
LOG .                      DIFL : LOG
DATE.                2012-08-01 : RUN DATE
RUN .                         1 : RUN NUMBER
TDD .F                     1400 : TOTAL DEPTH DRILLER
TDL .F                     1396 : TOTAL DEPTH LOGGER
BOTL.F                     1394 : BOTTOM LOGGED INTERVAL
TOPL.F                       50 : TOP LOGGED INTERVAL
CSGS.IN                         : CASING SIZE
CSGD.F                          : CASING DRILLER
CSGL.F                          : CASING LOGGER
BS  .IN                   7.875 : BIT SIZE
MUD .                  CHEM-GEL : MUD TYPE
MUDD.                           : MUD DENSITY
MUDV.                           : MUD VISCOSITY
PH  .                           : MUD PH
FL  .                           : FLUID LOSS
MUDS.                  FLOWLINE : SOURCE OF SAMPLE
RM  .OHMM                   2.4 : MUD RESISTIVITY
RMT .DEGF                    73 : RM TEMPERATURE
RMF .OHMM                   1.8 : MUD FILTRATE RESISTIVITY
RMFT.DEGF                    73 : RMF TEMPERATURE
RMC .OHMM                   3.0 : MUD CAKE RESISTIVITY
RMCT.DEGF                    73 : RMC TEMPERATURE
RMFS.                      CALC : RMF SOURCE
RMCS.                      CALC : RMC SOURCE
RMBH.OHMM                   2.0 : MUD RESISTIVITY AT BHT
BHT .DEGF                    86 : BOTTOM HOLE TEMPERATURE
TIMC.           0200 2012-08-01 : TIME CIRCULATION STOPPED
TIML.           0430 2012-08-01 : TIME LOGGER ON BOTTOM
TMAX.DEGF                    86 : MAXIMUM RECORDED TEMPERATURE
UNIT.                       110 : EQUIPMENT NUMBER
BASE.                GRAHAM, TX : BASE LOCATION
ENG .                    WENDEL : RECORDED BY
WIT .           OVERBY/BURLESON : WITNESSED BY
~Curve Information -----------------------------------------
DEPT.F          :DEPTH
CILD.MMHO       :
GRR.GAPI        :
ILD.OHMM        :
ILM.OHMM        :
SFL.OHMM        :
SP.MV           :
~ASCII ------------------------------------------------------
# ...
412.50000      156.77668      130.89611        6.56961        6.57002        5.33918      141.21127
413.00000      161.08639      130.70960        6.48447        6.94067        5.45947      138.82399
413.50000      166.40540      128.45766        6.33351        7.31593        5.80868      136.03473
414.00000      171.72441      121.72584        6.14645        7.27359        6.24836      133.58079
414.50000      178.97567      104.49432        5.94627        7.13396        6.72132      131.43150
415.00000      187.18310       87.86279        5.74722        6.56174        7.56563      129.28222
415.50000      195.39054       70.00128        5.50099        6.03579        8.10988      127.23627
416.00000      203.59797       59.39958        5.21186        5.61012        8.39053      124.82033
416.50000      211.81205       53.45574        4.93681        5.33954        8.54752      122.70504
417.00000      220.01948       51.55778        4.71170        5.08201        8.63790      120.87842
417.50000      224.80728       51.14729        4.54197        4.94212        8.60727      120.40842
418.00000      228.71859       50.79329        4.48338        4.85032        8.37718      120.25108
418.50000      230.88357       49.58282        4.43254        4.77124        8.15974      119.85908
419.00000      233.04854       47.17088        4.37536        4.69901        7.97467      119.49575
419.50000      235.21352       46.56039        4.32574        4.66057        7.79203      118.94642
420.00000      237.23905       46.94837        4.25764        4.61685        7.66875      118.73242
420.50000      238.97242       47.43785        4.19087        4.57879        7.62016      118.71641
421.00000      240.70579       47.56583        4.15608        4.53418        7.60947      118.86239
421.50000      242.43916       46.43986        4.13659        4.48972        7.45895      119.27304
422.00000      244.17253       44.96939        4.12268        4.45107        7.45640      119.84834
422.50000      244.00020       43.09144        4.12988        4.40716        7.45416      120.83764
423.00000      240.02312       41.62297        4.19735        4.36922        7.45161      121.84227
423.50000      236.04603       41.66896        4.28805        4.50933        7.44937      123.95953
424.00000      226.99594       45.34435        4.38548        4.63562        7.28100      126.27612
424.50000      217.95248       52.98163        4.58707        4.85466        7.18650      129.62802
425.00000      208.90239       64.55529        4.84338        5.16381        7.32875      132.56059
425.50000      199.22148       76.02446        5.19764        5.54151        7.43068      135.76582
426.00000      188.27233       86.90164        5.48101        5.81858        7.21254      137.45310
426.50000      177.32318       95.12690        5.81480        6.15213        6.73947      138.44239
427.00000      166.37402       99.39228        6.10741        6.49391        6.49391      139.05503
427.50000      163.59215       96.63835        6.31488        7.10882        6.50883      139.03902
428.00000      161.07588       91.66248        6.37136        7.26988        6.87633      138.80102
428.50000      161.08283       85.67814        6.27222        7.19110        7.80833      138.33436
429.00000      167.06584       79.39031        6.08062        6.95976        8.28979      137.92836
429.50000      173.04885       74.55444        5.86734        6.57025        8.37231      137.78702
430.00000      179.44355       68.30261        5.55940        6.22351        8.11492      137.66368
430.50000      186.03745       64.08422        5.40338        5.93779        7.76773      137.77566
431.00000      192.63135       59.14435        5.23061        5.62754        7.61815      137.61499
431.50000      199.22525       54.73847        5.08414        5.46223        7.69398      136.92700
432.00000      205.61994       52.27803        4.92218        5.29635        7.90474      136.32368
432.50000      211.60295       50.84407        4.77036        5.13550        8.08682      135.44369
433.00000      217.58597       50.65406        4.64104        4.99905        8.21758      134.79303
433.50000      223.56898       52.35551        4.52696        4.89506        8.26568      134.59236
434.00000      226.56396       53.83146        4.44469        4.80580        8.32085      134.36302
434.50000      229.55894       53.72095        4.36106        4.70612        8.46563      134.54634
435.00000      232.55393       52.90897        4.34266        4.62031        8.38519      134.93032
435.50000      234.88490       51.03852        4.32204        4.52420        8.17943      135.30297
436.00000      236.88388       48.68057        4.29940        4.44261        7.98671      135.71628
436.50000      236.89083       47.53010        4.28205        4.43637        7.87049      136.13959
437.00000      234.45424       48.13407        4.32441        4.48466        7.75610      135.99025
437.50000      230.78924       49.82952        4.39803        4.52727        7.85786      135.60558
438.00000      227.12423       52.77143        4.42847        4.61490        7.96813      136.12289
438.50000      223.46587       55.43885        4.49172        4.71367        7.89242      137.30352
439.00000      219.80087       58.94074        4.58569        4.81553        7.60485      139.27945
439.50000      216.13587       64.68607        4.66949        4.89420        6.86728      141.61204
440.00000      213.43367       73.49731        4.72407        4.91570        6.00686      144.11063
440.50000      212.64382       79.98662        4.76691        4.91423        5.75011      144.78193
441.00000      211.05716       76.07472        4.81643        4.91254        6.09356      144.18460
441.50000      204.70725       66.99697        4.91800        5.00938        6.96277      143.15196
442.00000      195.17907       56.05127        5.09100        5.20663        7.68973      143.28261
442.50000      185.65089       52.30537        5.52598        5.62140        8.06777      144.28457
443.00000      176.12935       52.97885        5.92107        6.13635        8.82089      145.67652
443.50000      166.60117       57.61821        6.15487        6.62518       10.38170      147.21713
444.00000      163.19513       66.27195        6.28903        7.11326       12.15885      150.32903
444.50000      159.78245       81.96100        6.36478        7.03992       10.76214      153.06161
445.00000      157.77082       96.65008        6.45818        6.70038        7.92376      156.11218
445.50000      158.99291      110.25319        6.38231        6.37722        5.88827      157.96479
446.00000      162.65190      118.66244        6.21120        6.19522        5.18403      159.81539
446.50000      168.63491      121.63585        6.01076        5.99382        4.99953      161.04668
447.00000      174.61792      124.97975        5.81383        5.81097        5.09464      161.65199
447.50000      180.26893      126.72919        5.67510        5.83578        5.13809      161.37132
448.00000      180.22940      122.85929        5.66644        6.02503        5.23819      159.88868
448.50000      177.67329      109.65566        5.76974        6.24885        5.56118      157.54141
449.00000      174.51293       93.09412        5.91834        6.46140        6.17078      154.19216
449.50000      170.13745       80.98245        6.07103        6.68089        7.33986      150.77624
450.00000      165.76196       74.10090        6.25280        6.68943        8.49829      148.53598
450.50000      161.38647       71.39047        6.31781        6.67613        8.89701      146.14670
451.00000      160.82237       71.24447        6.34937        6.66066        8.91207      144.82606
451.50000      160.26492       73.96788        6.34647        6.64701        8.57580      144.19141
452.00000      160.87612       76.43581        6.26799        6.72381        8.19287      143.76141
