~Version ---------------------------------------------------
VERS. 2.0 : CWLS LOG ASCII STANDARD - VERSION 2.0
WRAP. NO  : One line per depth step
DLM . SPACE : Column Data Section Delimiter
~Well ------------------------------------------------------
STRT.F           48 : START DEPTH
STOP.F       1439.0 : STOP DEPTH
STEP.F          0.5 : STEP
NULL.       -999.25 : NULL VALUE
COMP.                 WALSH & WATTS, INC. : COMPANY
WELL.                         HOWARD F 14 : WELL
FLD .             MONTAGUE COUNTY REGULAR : FIELD
CNTY.                            MONTAGUE : COUNTY
STAT.                               TEXAS : STATE
CTRY.                                 USA : COUNTRY
SEC .                                     : SECTION
TWP .                                     : TOWNSHIP
RGE .                                     : RANGE
LOC . 1430'FEL & 2600'FSL OF THE J.CHAMBLIS SURVEY A-123 : LOCATION
EKB .F                      849 : ELEVATION KELLY BUSHING
EDF .F                      848 : ELEVATION DERRICK FLOOR
EGL .F                      841 : ELEVATION GROUND LEVEL
PDAT.                        GL : PERMANENT DATUM
EPD .                       841 : ELEVATION PERMANENT DATUM
APD .                         8 : ABOVE PERMANENT DATUM
LMF .                        KB : LOG MEASURED FROM
DMF .                        KB : DRILLING MEASURED FROM
API .            42337351020000 : API NUMBER
UWI .                           : UWI NUMBER
DIGC.                     NthDS : DIGITIZING COMPANY
~Params ----------------------------------------------------
SRVC.                   PIONEER : LOGGING COMPANY
LOG .                      CNFD : LOG
DATE.                2013-08-01 : RUN DATE
RUN .                         1 : RUN NUMBER
TDD .F                     1450 : TOTAL DEPTH DRILLER
TDL .F                     1449 : TOTAL DEPTH LOGGER
BOTL.F                     1429 : BOTTOM LOGGED INTERVAL
TOPL.F                       50 : TOP LOGGED INTERVAL
CSGS.IN                         : CASING SIZE
CSGD.F                          : CASING DRILLER
CSGL.F                          : CASING LOGGER
BS  .IN                   7.875 : BIT SIZE
MUD .                       GEL : MUD TYPE
MUDD.                       9.2 : MUD DENSITY
MUDV.                        75 : MUD VISCOSITY
PH  .                           : MUD PH
FL  .                           : FLUID LOSS
MUDS.                  FLOWLINE : SOURCE OF SAMPLE
RM  .OHMM                   2.8 : MUD RESISTIVITY
RMT .DEGF                    72 : RM TEMPERATURE
RMF .OHMM                   2.1 : MUD FILTRATE RESISTIVITY
RMFT.DEGF                    72 : RMF TEMPERATURE
RMC .OHMM                   3.5 : MUD CAKE RESISTIVITY
RMCT.DEGF                    72 : RMC TEMPERATURE
RMFS.                      CALC : RMF SOURCE
RMCS.                      CALC : RMC SOURCE
RMBH.OHMM                   2.3 : MUD RESISTIVITY AT BHT
BHT .DEGF                    87 : BOTTOM HOLE TEMPERATURE
TIMC.           0130 2018-08-01 : TIME CIRCULATION STOPPED
TIML.           0400 2018-08-01 : TIME LOGGER ON BOTTOM
TMAX.DEGF                    87 : MAXIMUM RECORDED TEMPERATURE
UNIT.                     C-052 : EQUIPMENT NUMBER
BASE.                GRAHAM, TX : BASE LOCATION
ENG .                    WENDEL : RECORDED BY
WIT .                  BURLESON : WITNESSED BY
~Curve Information -----------------------------------------
DEPT.F          :DEPTH
CALD.IN         :
DPHI.%          :
GRD.GAPI        :
MINV.OHMM       :
MNOR.OHMM       :
NPHI.%          :
RHOC.G/CC       :
~ASCII ------------------------------------------------------
# ...
608.50000        8.61426       17.73810      108.04385        6.84828        7.20537       24.06593        0.02591
609.00000        8.61426       18.31026      102.28517        6.88406        7.44478       22.78388        0.01969
609.50000        8.61426       18.85238       98.17182        6.57340        7.22794       20.36630        0.02079
610.00000        8.61426       18.88645       98.44605        7.01136        7.31681       20.29817        0.02173
610.50000        8.61426       18.70220      101.46250        6.69269        7.17269       21.28205        0.02286
611.00000        8.61426       18.38828      106.39851        6.57793        6.97792       23.05238        0.02253
611.50000        8.61426       18.51648      108.04385        6.65199        7.16107       25.42125        0.01988
612.00000        8.61426       19.02931      105.30162        9.02666       13.34445       25.72637        0.01086
612.50000        8.61426       19.63370      103.10784        7.07310        8.54582       24.65824        0.00912
613.00000        8.61426       19.78022      105.85007        5.48489        6.46234       22.99634        0.01828
613.50000        8.61426       19.18352      111.06030        4.47605        5.53495       20.84249        0.03472
614.00000        8.61426       18.43810      115.17365        5.04901        5.62673       20.21978        0.05053
614.50000        8.61426       17.57326      117.36743        5.27898        5.55970       20.49084        0.05443
615.00000        8.61426       17.22528      118.73855        5.63376        5.71667       21.25348        0.04333
615.50000        8.61426       17.25275      119.56122        5.57281        5.79099       21.96191        0.03000
616.00000        8.61426       17.41539      119.28699        5.47451        6.12978       22.01465        0.02417
616.50000        8.61426       17.66044      118.73855        6.18520        6.53647       21.54579        0.01969
617.00000        8.61426       18.00366      119.56122        6.49853        6.70434       21.20879        0.01432
617.50000        8.60877       18.28974      121.48078        6.26449        6.59685       21.24542        0.00984
618.00000        8.58135       18.52271      122.30345        5.52183        5.55892       21.52784        0.00701
618.50000        8.56088       18.62418      122.02922        5.43616        5.67834       21.68498        0.00464
619.00000        8.56453       18.64469      121.20655        5.50294        5.58949       22.12454        0.00523
619.50000        8.56892       18.26191      119.56122        4.76273        4.87691       22.60073        0.01133
620.00000        8.57258       17.80220      118.46432        5.70733        4.85861       23.55311        0.01698
620.50000        8.57696       18.04652      119.83544        5.22384        4.94748       23.78205        0.01442
621.00000        8.57367       19.07216      121.48078        5.45790        4.87609       22.05128        0.00421
621.50000        8.56746       19.98352      120.38389        4.90678        5.08132       20.82637       -0.00550
622.00000        8.56252       21.12235      118.19010        5.88265        5.30083       20.94835       -0.00648
622.50000        8.55941       21.75824      115.99632        5.59334        5.24789       21.42857        0.00170
623.00000        8.55941       20.74835      117.09321        5.54304        5.33504       22.06337        0.01247
623.50000        8.55941       19.36154      120.65811        4.83264        4.85082       21.97070        0.02163
624.00000        8.55941       18.58718      125.04568        5.16124        5.03979       21.48352        0.01564
624.50000        8.56508       18.38828      126.41679        6.14465        6.32647       21.22711        0.01065
625.00000        8.57203       18.50220      124.77145        5.74599        5.65217       22.49084        0.00469
625.50000        8.57770       18.84396      124.49723        5.67486        5.61668       24.24908        0.00545
626.00000        8.57770       18.93773      124.49723        5.42674        5.20856       24.61539        0.00811
626.50000        8.57770       18.70586      120.38389        5.57743        5.38689       21.81685        0.01029
627.00000        8.57770       18.00366      111.60875        5.07913        5.20640       18.95971        0.02335
627.50000        8.57770       16.53224       97.62338        9.91124       10.59487       15.02271        0.03858
628.00000        8.57770       14.61539       79.52466       19.79713       19.79713       12.58865        0.04266
628.50000        8.57770       14.67986       71.29797       19.82610       19.82610       11.89268        0.03356
629.00000        8.57770       16.10220       70.20108       19.86116       19.86116       12.30147        0.01364
629.50000        8.57770       17.80879       78.70199       13.83199       14.83562       13.36997       -0.00295
630.00000        8.57770       19.23077       93.78426        6.05156        8.54609       15.20147       -0.00287
630.50000        8.57770       19.95275      104.75318        6.47934        7.62406       18.05348        0.00084
631.00000        8.57770       20.07326      113.52831        6.41812        6.90612       20.00916        0.00455
631.50000        8.57770       19.94982      115.44787        5.74118        5.93245       21.93224        0.00462
632.00000        8.57770       19.64139      115.44787        5.42688        5.60652       23.58974        0.00470
632.50000        8.57770       19.27143      116.54476        5.51357        5.60448       23.50916        0.00597
633.00000        8.57770       18.96264      118.73855        5.18763        5.15127       23.04762        0.00968
633.50000        8.57770       18.79634      117.09321        5.12669        5.08014       22.54945        0.01280
634.00000        8.57770       18.67070      113.25409        5.04511        5.11784       22.08791        0.01754
634.50000        8.57770       18.38352      110.23764        4.71944        4.90126       21.98315        0.02590
635.00000        8.57770       17.70953      108.04385        4.59059        4.63568       22.38095        0.03583
635.50000        8.57770       17.14762      108.86652        5.48600        5.52964       22.44213        0.04401
636.00000        8.57770       16.92308      111.33453        5.96515        5.70552       21.39194        0.04019
636.50000        8.57770       17.32381      113.52831        5.77984        5.84384       20.80073        0.02572
637.00000        8.57770       17.90550      115.99632        4.69027        4.98118       20.72198        0.01790
637.50000        8.57770       18.39048      117.64166        4.54615        5.56460       21.19670        0.01535
638.00000        8.57770       18.86447      118.73855        5.71138        5.69684       21.92308        0.01220
638.50000        8.57770       19.16960      121.48078        5.42207        5.54353       21.58132        0.00895
639.00000        8.57770       19.21026      124.49723        4.82705        5.05977       20.39084        0.00653
639.50000        8.57770       19.12088      125.04568        4.61020        4.91565       19.40659        0.01052
640.00000        8.57770       18.61246      121.48078        4.80816        5.00234       18.68645        0.01536
640.50000        8.57770       18.07473      116.81899        4.86040        5.06404       18.79121        0.01939
641.00000        8.57770       17.42894      116.81899        5.06564        6.12527       19.67033        0.02420
641.50000        8.57770       17.01465      121.48078        5.56588        4.91133       20.38938        0.02427
642.00000        8.57770       16.98828      122.57767        5.38348        5.16311       21.22711        0.02433
642.50000        8.57770       17.15898      119.01277        5.50626        5.63717       21.66667        0.01350
643.00000        8.57770       17.60696      114.35098        5.58059        5.24095       21.57509        0.00448
