~Version ---------------------------------------------------
VERS. 2.0 : CWLS LOG ASCII STANDARD - VERSION 2.0
WRAP. NO  : One line per depth step
DLM . SPACE : Column Data Section Delimiter
~Well ------------------------------------------------------
STRT.F         48.5 : START DEPTH
STOP.F       1455.5 : STOP DEPTH
STEP.F          0.5 : STEP
NULL.       -999.25 : NULL VALUE
COMP.                 WALSH & WATTS, INC. : COMPANY
WELL.                         HOWARD F 25 : WELL
FLD .                            MONTAGUE : FIELD
CNTY.                            MONTAGUE : COUNTY
STAT.                               TEXAS : STATE
CTRY.                                 USA : COUNTRY
SEC .                                     : SECTION
TWP .                                     : TOWNSHIP
RGE .                                     : RANGE
LOC . 1115'FEL & 2300'FSL OF THE J.CHAMBLIS SURVEY A-123 : LOCATION
EKB .F                      512 : ELEVATION KELLY BUSHING
EDF .F                      511 : ELEVATION DERRICK FLOOR
EGL .F                      505 : ELEVATION GROUND LEVEL
PDAT.                        GL : PERMANENT DATUM
EPD .                       505 : ELEVATION PERMANENT DATUM
APD .                         7 : ABOVE PERMANENT DATUM
LMF .                        KB : LOG MEASURED FROM
DMF .                        KB : DRILLING MEASURED FROM
API .            42337343120000 : API NUMBER
UWI .                           : UWI NUMBER
DIGC.                     NthDS : DIGITIZING COMPANY
~Params ----------------------------------------------------
SRVC. PIONEER WIRELINE SERVICES : LOGGING COMPANY
LOG .                      DIFL : LOG
DATE.                2010-10-07 : RUN DATE
RUN .                         1 : RUN NUMBER
TDD .F                     1450 : TOTAL DEPTH DRILLER
TDL .F                     1452 : TOTAL DEPTH LOGGER
BOTL.F                     1452 : BOTTOM LOGGED INTERVAL
TOPL.F                       50 : TOP LOGGED INTERVAL
CSGS.IN                         : CASING SIZE
CSGD.F                          : CASING DRILLER
CSGL.F                          : CASING LOGGER
BS  .IN                   7.875 : BIT SIZE
MUD .                  GEL-CHEM : MUD TYPE
MUDD.                           : MUD DENSITY
MUDV.                           : MUD VISCOSITY
PH  .                           : MUD PH
FL  .                           : FLUID LOSS
MUDS.                  FLOWLINE : SOURCE OF SAMPLE
RM  .OHMM                   4.0 : MUD RESISTIVITY
RMT .DEGF                    72 : RM TEMPERATURE
RMF .OHMM                   3.0 : MUD FILTRATE RESISTIVITY
RMFT.DEGF                    72 : RMF TEMPERATURE
RMC .OHMM                   5.0 : MUD CAKE RESISTIVITY
RMCT.DEGF                    72 : RMC TEMPERATURE
RMFS.                      CALC : RMF SOURCE
RMCS.                      CALC : RMC SOURCE
RMBH.OHMM                     3 : MUD RESISTIVITY AT BHT
BHT .DEGF                    88 : BOTTOM HOLE TEMPERATURE
TIMC.           0730 2010-10-07 : TIME CIRCULATION STOPPED
TIML.           1020 2010-10-07 : TIME LOGGER ON BOTTOM
TMAX.DEGF                    88 : MAXIMUM RECORDED TEMPERATURE
UNIT.                      M-19 : EQUIPMENT NUMBER
BASE.                GRAHAM, TX : BASE LOCATION
ENG .                    WENDEL : RECORDED BY
WIT .           WOMBLE/BURLESON : WITNESSED BY
~Curve Information -----------------------------------------
DEPT.F          :DEPTH
CILD.MMHO       :
GRR.GAPI        :
RILD.OHMM       :
RILM.OHMM       :
RSFL.OHMM       :
SP.MV           :
~ASCII ------------------------------------------------------
# ...
849.50000      461.12995      109.89009        2.10936        2.63318        3.72339      124.54210
850.00000      449.02900      105.82415        2.20387        2.70852        3.87193      123.80950
850.50000      449.04343      103.20602        2.22881        2.75415        3.74270      122.34429
851.00000      469.25478      100.82415        2.20595        2.78475        3.38152      120.47983
851.50000      489.46614       83.93679        2.14322        2.78434        3.86999      118.98166
852.00000      519.78318       63.67032        2.03700        2.76979        8.43644      117.18312
852.50000      529.89366       46.78296        1.94769        2.67291       10.12819      115.68496
853.00000      534.03545       39.09065        1.92339        2.43955        8.33929      113.55309
853.50000      540.32160       36.81318        1.89452        2.31572        6.41813      112.08789
854.00000      544.61950       36.53845        1.87088        2.29107        5.32933      110.25639
854.50000      548.91739       36.26373        1.86330        2.41988        5.10815      108.05858
855.00000      561.39699       36.26373        1.85575        2.53280        5.23840      106.95968
855.50000      592.40272       36.26373        1.79266        2.58658        5.65092      105.49448
856.00000      622.58639       37.36263        1.70382        2.55035        6.19991      103.66298
856.50000      667.85272       38.18680        1.56565        2.49083        6.91784      103.29668
857.00000      698.03639       35.71428        1.46933        2.16968        7.03460      103.29668
857.50000      704.47383       32.69230        1.43234        1.88978        7.84919      103.66298
858.00000      669.77799       31.04395        1.42609        1.68441        7.15185      104.39558
858.50000      646.64743       32.69230        1.46241        1.61532        5.50425      104.76188
859.00000      619.10922       34.61538        1.49339        1.60896        4.06100      104.76188
859.50000      591.57101       37.08790        1.57828        1.72107        5.19270      104.76188
860.00000      563.11453       38.46153        1.67816        1.90118        6.85181      104.76188
860.50000      533.73980       39.83516        1.76763        2.09346        7.32924      104.02928
861.00000      504.36506       40.65933        1.88411        2.35012        6.84959      103.66298
861.50000      474.99033       42.30768        1.98690        2.58759        5.54535      103.29668
862.00000      460.07820       42.03296        2.11782        2.79042        5.18229      103.29668
862.50000      459.62869       39.83516        2.14443        2.92260        6.34527      102.93038
863.00000      486.04312       38.18680        2.11160        2.92678        7.90129      102.19778
863.50000      508.51340       36.81318        2.03064        2.83364        7.63780      101.46518
864.00000      542.21881       36.53845        1.96011        2.76517        8.10133      101.09888
864.50000      564.69828       35.71428        1.85434        2.69781        9.03971      100.73258
865.00000      587.16855       35.16483        1.75902        2.56138       10.08649       99.99998
865.50000      620.87397       34.89010        1.69092        2.40644       10.25673       99.63368
866.00000      636.70523       34.89010        1.61255        2.26107        9.03518       99.63368
866.50000      645.89745       35.71428        1.56142        2.16109        7.31479       98.90108
867.00000      669.48363       35.43955        1.51109        2.11433        6.33592       98.16848
867.50000      678.74932       34.89010        1.47304        2.03516        6.44267       97.80218
868.00000      678.29981       34.34065        1.48631        1.97145        6.71925       97.80218
868.50000      667.06073       34.06593        1.50219        1.90372        6.77521       97.80218
869.00000      634.01776       34.06593        1.53155        1.87347        6.71707       98.16848
869.50000      592.40260       33.79120        1.58936        1.88838        5.96743       98.16848
870.00000      550.77827       34.89010        1.69595        2.02868        5.12526       98.90108
870.50000      509.16311       37.08790        1.79029        2.24520        5.16780       99.26738
871.00000      488.35575       37.91208        1.91036        2.53583        6.11742       99.63368
871.50000      467.55758       38.73626        2.01305        2.80648        7.68215       99.99998
872.00000      446.75022       37.08790        2.13684        3.16977        8.57199       99.63368
872.50000      449.51462       34.34065        2.20146        3.50808        8.64313       99.71060
873.00000      479.83165       32.96703        2.20114        3.74208        7.87525       99.78752
873.50000      510.86012       32.14285        2.08394        3.63045        7.48518       99.84979
874.00000      552.69653       35.43955        1.94625        3.13182        6.87800       99.92672
874.50000      615.46490       37.63735        1.78355        2.66407        5.24883       99.99265
875.00000      678.22410       39.56043        1.61729        2.32791        3.84011      100.06957
875.50000      693.84415       41.48351        1.49067        1.98023        3.97130      100.14650
876.00000      709.46420       41.75823        1.42411        1.75074        5.07216      100.20877
876.50000      725.08906       42.03296        1.38291        1.67106        5.75587      100.28569
877.00000      715.91607       42.58241        1.37591        1.66373        6.81355      100.34796
877.50000      697.56047       42.03296        1.41095        1.71853        6.42144      100.42489
878.00000      669.89370       41.48351        1.45661        1.82057        5.56196      100.50181
878.50000      632.90658       39.28571        1.54305        1.98444        5.02537      100.56774
879.00000      595.92864       34.34065        1.61915        2.13230        4.77632      100.64467
879.50000      558.94153       34.34065        1.71524        2.30080        5.37459      100.70694
880.00000      562.32116       35.71428        1.79326        2.34952        5.94671      100.36628
880.50000      585.32884       36.53845        1.75555        2.35070        5.79697      100.73258
881.00000      610.52635       37.36263        1.69754        2.24289        5.28211      100.73258
881.50000      648.32722       37.91208        1.64843        2.15678        4.61391      100.73258
882.00000      673.51555       38.73626        1.55908        1.99038        4.77153      100.73258
882.50000      698.71306       40.93406        1.44879        1.91164        4.77083       99.99998
883.00000      736.51392       41.48351        1.37900        1.88460        4.42100       99.63368
883.50000      777.06476       39.56043        1.32401        1.87792        4.65001       99.26738
884.00000      860.95314       38.18680        1.25098        1.92012        4.38241       98.53478
884.50000      944.83234       35.98900        1.16173        1.97152        4.49402       97.80218
885.00000     1000.75486       34.89010        1.07101        1.91216        6.19287       97.43588
885.50000     1000.76468       33.24175        1.00219        1.79443        8.60602       96.70327
886.00000     1000.77890       31.04395        0.91864        1.55229        8.90028       96.33697
886.50000     1000.78852       30.21977        0.82999        1.34293        8.38808       95.97067
887.00000     1000.79814       30.49450        0.78225        1.21923        8.17711       95.97067
887.50000     1000.81256       30.49450        0.74348        1.11025        8.10693       95.60437
888.00000     1000.82218       29.94505        0.71437        1.04789        8.10550       95.23807
888.50000     1000.83179       30.76922        0.69723        1.03016        8.24230       95.23807
889.00000     1000.84141       31.86812        0.67721        1.03408        8.24084       95.23807
