~Version ---------------------------------------------------
VERS. 2.0 : CWLS LOG ASCII STANDARD - VERSION 2.0
WRAP. NO  : One line per depth step
DLM . SPACE : Column Data Section Delimiter
~Well ------------------------------------------------------
STRT.F           11 : START DEPTH
STOP.F       1368.0 : STOP DEPTH
STEP.F          0.5 : STEP
NULL.       -999.25 : NULL VALUE
COMP.                 WALSH & WATTS, INC. : COMPANY
WELL.                      HOWARD AB E 4E : WELL
FLD .             MONTAGUE COUNTY REGULAR : FIELD
CNTY.                            MONTAGUE : COUNTY
STAT.                                     : STATE
CTRY.                                 USA : COUNTRY
SEC .                                     : SECTION
TWP .                                     : TOWNSHIP
RGE .                                     : RANGE
LOC . 3250'FEL & 1590'FSL OF THE J.CHAMBLIS SURVEY A-123 : LOCATION
EKB .F                          : ELEVATION KELLY BUSHING
EDF .F                          : ELEVATION DERRICK FLOOR
EGL .F                          : ELEVATION GROUND LEVEL
PDAT.                        GL : PERMANENT DATUM
EPD .                           : ELEVATION PERMANENT DATUM
APD .                         8 : ABOVE PERMANENT DATUM
LMF .                        KB : LOG MEASURED FROM
DMF .                        KB : DRILLING MEASURED FROM
API .            42337348780000 : API NUMBER
UWI .                           : UWI NUMBER
DIGC.                     NthDS : DIGITIZING COMPANY
~Params ----------------------------------------------------
SRVC. PIONEER WIRELINE SERVICES : LOGGING COMPANY
LOG .                      CNFD : LOG
DATE.                2012-08-01 : RUN DATE
RUN .                         1 : RUN NUMBER
TDD .F                     1400 : TOTAL DEPTH DRILLER
TDL .F                     1396 : TOTAL DEPTH LOGGER
BOTL.F                     1368 : BOTTOM LOGGED INTERVAL
TOPL.F                       50 : TOP LOGGED INTERVAL
CSGS.IN                         : CASING SIZE
CSGD.F                          : CASING DRILLER
CSGL.F                          : CASING LOGGER
BS  .IN                   7.875 : BIT SIZE
MUD .                  CHEM-GEL : MUD TYPE
MUDD.                           : MUD DENSITY
MUDV.                           : MUD VISCOSITY
PH  .                           : MUD PH
FL  .                           : FLUID LOSS
MUDS.                  FLOWLINE : SOURCE OF SAMPLE
RM  .OHMM                   2.4 : MUD RESISTIVITY
RMT .DEGF                    73 : RM TEMPERATURE
RMF .OHMM                   1.8 : MUD FILTRATE RESISTIVITY
RMFT.DEGF                    73 : RMF TEMPERATURE
RMC .OHMM                   3.0 : MUD CAKE RESISTIVITY
RMCT.DEGF                    73 : RMC TEMPERATURE
RMFS.                      CALC : RMF SOURCE
RMCS.                      CALC : RMC SOURCE
RMBH.OHMM                   2.0 : MUD RESISTIVITY AT BHT
BHT .DEGF                    86 : BOTTOM HOLE TEMPERATURE
TIMC.           0200 2012-08-01 : TIME CIRCULATION STOPPED
TIML.           0430 2012-08-01 : TIME LOGGER ON BOTTOM
TMAX.DEGF                    86 : MAXIMUM RECORDED TEMPERATURE
UNIT.                       110 : EQUIPMENT NUMBER
BASE.                GRAHAM, TX : BASE LOCATION
ENG .                    WENDEL : RECORDED BY
WIT .           OVERBY/BURLESON : WITNESSED BY
~Curve Information -----------------------------------------
DEPT.F          :DEPTH
CALD.IN         :
DPHI.V/V        :
GRD.GAPI        :
NPHI.%          :
PEC.B/E         :
RLML.OHMM       :
RNML.OHMM       :
ZCOR.G/C3       :
~ASCII ------------------------------------------------------
# ...
1252.00000        7.87845        0.12554      133.14914       23.43214        3.25655        2.91047        2.20217        0.04942
1252.50000        7.87845        0.12175      137.29279       24.65798        3.12861        2.93790        2.47292        0.05199
1253.00000        7.87845        0.12912      140.60770       24.97988        3.02237        2.86426        1.92563        0.04332
1253.50000        7.82320        0.13649      142.26516       24.80682        3.05707        2.62310        2.14224        0.03610
1254.00000        7.82320        0.14417      141.43643       24.66242        3.11310        2.68448        2.16606        0.02744
1254.50000        7.80479        0.14571      138.67400       24.93062        3.14634        2.88159        2.14224        0.02022
1255.00000        7.71271        0.14240      137.84527       25.34975        3.14596        2.72924        2.23827        0.01733
1255.50000        7.54696        0.13945      137.84527       25.86325        3.01106        2.87798        2.27870        0.01975
1256.00000        7.43646        0.13762      136.46406       26.33727        2.89896        2.70758        2.19206        0.02264
1256.50000        7.41805        0.13990      133.14914       26.87434        2.76407        2.40650        1.89675        0.01227
1257.00000        7.43646        0.14331      128.72925       26.55904        2.77797        2.46426        1.74079        0.00144
1257.50000        7.84162        0.14481      125.96682       25.92816        2.83245        2.65704        1.94152        0.00347
1258.00000        7.97053        0.14495      126.79555       25.40218        2.87786        2.88809        1.93502        0.00585
1258.50000        7.98895        0.14299      130.38671       25.32231        2.93234        2.73357        1.82671        0.00787
1259.00000        7.98895        0.14063      133.42538       25.25563        2.98683        2.67148        2.05776        0.00505
1259.50000        7.98895        0.14254      135.63533       24.66674        3.03223        2.43105        2.31047        0.00054
1260.00000        7.98895        0.14793      135.91157       23.95328        3.16107        2.49458        2.05776       -0.00487
1260.50000        7.98895        0.15245      133.70163       23.09735        3.26838        2.72419        2.23827       -0.00939
1261.00000        7.98895        0.15595      130.93920       22.38426        3.39722        2.71985        2.22383       -0.01300
1261.50000        7.98895        0.15485      127.90052       23.12907        3.36644        2.67148        2.11552       -0.01300
1262.00000        7.98895        0.14970      126.79555       23.74968        3.32935        2.49819        1.98556       -0.00964
1262.50000        7.98895        0.14540      127.07179       24.49448        3.25497        2.57545        1.87726       -0.00119
1263.00000        8.00737        0.13998      127.90052       24.93241        3.15305        2.96029        1.86859        0.00722
1263.50000        7.97053        0.13546      125.69058       24.97924        3.06841        2.92058        1.81444        0.01058
1264.00000        7.97053        0.13559      119.88948       23.41790        2.96649        2.88809        2.16606        0.00939
1264.50000        7.97053        0.13580      112.98340       20.18003        2.88149        3.94007        3.46570        0.00505
1265.00000        7.97053        0.13474      106.07732       17.91372        2.88103        3.24910        2.59928        0.00144
1265.50000        7.97053        0.12807      106.90605       15.64741        2.88065        3.18700        2.88809        0.01162
1266.00000        7.97053        0.12296      114.08837       16.01616        2.89630        2.87798        2.40650        0.02014
1266.50000        7.98895        0.12333      122.37566       17.52332        2.91643        2.77978        1.82888        0.03032
1267.00000        7.98895        0.12923      130.66295       19.33184        2.94051        2.59928        1.68159        0.02581
1267.50000        7.98895        0.14028      135.35909       21.14037        2.96028        2.61444        1.76173        0.02040
1268.00000        8.00737        0.14839      136.18781       22.64753        2.98436        2.62671        1.84982        0.01588
1268.50000        8.00737        0.14790      134.80660       22.90578        2.87592        2.64188        1.68736        0.01047
1269.00000        7.98895        0.14189      132.87290       22.70356        2.70733        2.65415        1.73285        0.00866
1269.50000        7.97053        0.13779      132.32041       22.55665        2.56702        2.66931        1.84115        0.00866
1270.00000        7.97053        0.13957      133.70163       23.04688        2.43725        2.67148        1.93141        0.00960
1270.50000        7.97053        0.14325      134.25411       24.01968        2.44419        2.58484        1.85920        0.01238
1271.00000        7.93370        0.14438      132.32041       24.83034        2.53165        2.44043        1.76895        0.01473
1271.50000        7.91529        0.14395      128.72925       25.63371        2.60452        2.49819        1.94946        0.01751
1272.00000        7.87845        0.14342      124.58561       25.54198        2.69197        2.64260        2.22022        0.01986
1272.50000        7.89687        0.14299      121.82318       24.34978        2.68060        2.61588        2.28159        0.02264
1273.00000        7.87845        0.14622      118.23202       22.87242        2.66659        2.56029        2.11336        0.01856
1273.50000        7.87845        0.15260      114.08837       20.55240        2.65521        2.61372        1.91119        0.01170
1274.00000        7.87845        0.16025      106.90605       18.92587        2.64157        2.85704        2.26209        0.00599
1274.50000        7.87845        0.16347      100.27622       18.52733        2.62983        2.92419        2.05054        0.00318
1275.00000        7.86004        0.16097       92.26517       18.90345        2.61618        3.57906        2.96029        0.00747
1275.50000        7.86004        0.15698       85.35910       19.19109        2.66561        4.22382        3.61805        0.01264
1276.00000        7.87845        0.15165       86.46407       19.03203        2.72523        2.81588        2.55884        0.01776
1276.50000        7.89687        0.14778       93.64639       18.58193        2.86733        2.81588        2.38267        0.01852
1277.00000        7.97053        0.14616      103.86738       18.46780        2.99545        3.05632        2.38267        0.01653
1277.50000        7.98895        0.14570      114.64086       18.74882        2.98444        2.93935        2.26931        0.01491
1278.00000        8.00737        0.14479      123.20439       19.84243        2.88618        2.97040        1.58845        0.01292
1278.50000        7.98895        0.14438      129.83422       20.93640        2.80447        3.16245        2.08087        0.01166
1279.00000        7.98895        0.14631      132.59666       21.84762        2.72160        2.91913        2.67148        0.01047
1279.50000        7.98895        0.15311      134.80660       22.52134        2.71572        2.45487        1.66065        0.00946
1280.00000        7.98895        0.15438      134.80660       22.92096        2.70903        2.74368        1.73285        0.01040
1280.50000        7.98895        0.14812      133.14914       22.76374        2.70315        2.87509        2.38267        0.01473
1281.00000        7.98895        0.13752      130.38671       21.82266        2.69610        2.83538        2.14801        0.01993
1281.50000        7.98895        0.12956      129.00550       20.54942        2.69059        2.73357        2.28303        0.02426
1282.00000        7.98895        0.12603      130.93920       19.36819        2.68353        2.56029        1.89819        0.02946
1282.50000        8.00737        0.12885      133.97787       18.35860        2.76996        2.72707        1.90108        0.02415
