~Version ---------------------------------------------------
VERS. 2.0 : CWLS LOG ASCII STANDARD - VERSION 2.0
WRAP. NO  : One line per depth step
DLM . SPACE : Column Data Section Delimiter
~Well ------------------------------------------------------
STRT.F         48.5 : START DEPTH
STOP.F       1455.5 : STOP DEPTH
STEP.F          0.5 : STEP
NULL.       -999.25 : NULL VALUE
COMP.                 WALSH & WATTS, INC. : COMPANY
WELL.                         HOWARD F 25 : WELL
FLD .                            MONTAGUE : FIELD
CNTY.                            MONTAGUE : COUNTY
STAT.                               TEXAS : STATE
CTRY.                                 USA : COUNTRY
SEC .                                     : SECTION
TWP .                                     : TOWNSHIP
RGE .                                     : RANGE
LOC . 1115'FEL & 2300'FSL OF THE J.CHAMBLIS SURVEY A-123 : LOCATION
EKB .F                      512 : ELEVATION KELLY BUSHING
EDF .F                      511 : ELEVATION DERRICK FLOOR
EGL .F                      505 : ELEVATION GROUND LEVEL
PDAT.                        GL : PERMANENT DATUM
EPD .                       505 : ELEVATION PERMANENT DATUM
APD .                         7 : ABOVE PERMANENT DATUM
LMF .                        KB : LOG MEASURED FROM
DMF .                        KB : DRILLING MEASURED FROM
API .            42337343120000 : API NUMBER
UWI .                           : UWI NUMBER
DIGC.                     NthDS : DIGITIZING COMPANY
~Params ----------------------------------------------------
SRVC. PIONEER WIRELINE SERVICES : LOGGING COMPANY
LOG .                      DIFL : LOG
DATE.                2010-10-07 : RUN DATE
RUN .                         1 : RUN NUMBER
TDD .F                     1450 : TOTAL DEPTH DRILLER
TDL .F                     1452 : TOTAL DEPTH LOGGER
BOTL.F                     1452 : BOTTOM LOGGED INTERVAL
TOPL.F                       50 : TOP LOGGED INTERVAL
CSGS.IN                         : CASING SIZE
CSGD.F                          : CASING DRILLER
CSGL.F                          : CASING LOGGER
BS  .IN                   7.875 : BIT SIZE
MUD .                  GEL-CHEM : MUD TYPE
MUDD.                           : MUD DENSITY
MUDV.                           : MUD VISCOSITY
PH  .                           : MUD PH
FL  .                           : FLUID LOSS
MUDS.                  FLOWLINE : SOURCE OF SAMPLE
RM  .OHMM                   4.0 : MUD RESISTIVITY
RMT .DEGF                    72 : RM TEMPERATURE
RMF .OHMM                   3.0 : MUD FILTRATE RESISTIVITY
RMFT.DEGF                    72 : RMF TEMPERATURE
RMC .OHMM                   5.0 : MUD CAKE RESISTIVITY
RMCT.DEGF                    72 : RMC TEMPERATURE
RMFS.                      CALC : RMF SOURCE
RMCS.                      CALC : RMC SOURCE
RMBH.OHMM                     3 : MUD RESISTIVITY AT BHT
BHT .DEGF                    88 : BOTTOM HOLE TEMPERATURE
TIMC.           0730 2010-10-07 : TIME CIRCULATION STOPPED
TIML.           1020 2010-10-07 : TIME LOGGER ON BOTTOM
TMAX.DEGF                    88 : MAXIMUM RECORDED TEMPERATURE
UNIT.                      M-19 : EQUIPMENT NUMBER
BASE.                GRAHAM, TX : BASE LOCATION
ENG .                    WENDEL : RECORDED BY
WIT .           WOMBLE/BURLESON : WITNESSED BY
~Curve Information -----------------------------------------
DEPT.F          :DEPTH
CILD.MMHO       :
GRR.GAPI        :
RILD.OHMM       :
RILM.OHMM       :
RSFL.OHMM       :
SP.MV           :
~ASCII ------------------------------------------------------
# ...
969.50000      337.72249       79.15995        2.95390        3.44778        7.28342      146.98351
970.00000      334.67430       82.72484        2.98494        3.32354        6.15194      147.71477
970.50000      330.09742       90.67731        3.01130        3.20821        3.86786      148.81167
971.00000      336.43385       96.25226        3.04293        3.18876        3.46558      149.17730
971.50000      342.77029       98.44605        2.98949        3.20843        3.61421      150.63982
972.00000      349.10672       98.44605        2.91142        3.15270        3.70629      151.37108
972.50000      358.60678       99.54294        2.82028        3.06640        3.73702      152.46797
973.00000      359.61730      104.75318        2.78770        3.03661        3.52225      152.83360
973.50000      360.62782      106.94696        2.76170        3.01362        3.43364      152.83360
974.00000      361.63834      107.49541        2.75702        2.99081        3.49144      152.83360
974.50000      363.15872      106.94696        2.75662        2.97176        3.52049      152.77876
975.00000      364.16924      104.42137        2.75195        2.94926        3.61007      152.71295
975.50000      365.89600      105.71296        2.73873        2.93048        3.54916      152.64348
976.00000      367.61358      106.79065        2.72795        2.93937        3.34509      152.58863
976.50000      370.19914      105.63617        2.71485        2.96374        3.37283      152.52282
977.00000      371.92590      103.65628        2.70143        2.94363        3.60773      152.46797
977.50000      373.65266      102.47987        2.68075        2.88778        3.63764      152.61423
978.00000      375.37025      103.24495        2.66046        2.83300        3.57627      152.76048
978.50000      377.61604      104.20473        2.64352        2.80169        3.51583      152.83360
979.00000      378.64493      104.57767        2.62329        2.76855        3.17684      152.83360
979.50000      379.67382      106.43690        2.61407        2.75789        3.01963      152.63982
980.00000      380.70270      108.67182        2.60898        2.77490        3.14914      152.25225
980.50000      382.01187      109.63434        2.60390        2.79201        3.17525      151.86468
981.00000      382.57245      108.19467        2.59979        2.80932        3.09546      151.82812
981.50000      383.13302      105.94879        2.59473        2.83261        3.22822      152.01093
982.00000      383.69359      103.70564        2.59851        2.83004        3.51179      152.25956
982.50000      384.53445      101.83544        2.61674        2.78785        3.66241      152.51916
983.00000      379.49363      101.92045        2.63533        2.74606        3.42284      152.83360
983.50000      374.45281      102.37566        2.65076        2.73364        2.91559      152.63982
984.00000      380.58723      102.77603        2.60355        2.75840        2.86631      152.40947
984.50000      396.21209      102.42228        2.52524        2.72025        3.36400      152.17912
985.00000      406.62560      102.12886        2.46178        2.63762        3.59818      152.24128
985.50000      406.26791      103.32722        2.46134        2.58104        3.06485      152.47894
986.00000      405.91023      104.97255        2.45269        2.56699        2.68728      152.54476
986.50000      408.72535      103.53837        2.42757        2.63230        2.69976      152.61788
987.00000      411.71931      102.83361        2.40270        2.69928        3.07808      152.69466
987.50000      414.71327      104.61606        2.38216        2.68526        3.38910      152.75682
988.00000      417.70724      108.18096        2.40881        2.57826        2.98582      152.83360
988.50000      414.15881      109.71387        2.43995        2.55042        2.93544      152.92867
989.00000      410.72495      108.96524        2.46662        2.56442        2.95978      153.04567
989.50000      407.29108      107.44056        2.48246        2.61639        2.93440      153.15901
990.00000      403.85722      105.52100        2.49595        2.66051        3.00916      152.77876
990.50000      400.77711      104.56396        2.51198        2.71444        3.24590      151.93415
991.00000      399.40933      105.28517        2.51989        2.73495        3.35678      151.42227
991.50000      398.04156      105.88572        2.52370        2.71310        3.41328      151.55390
992.00000      396.67378      105.90491        2.54892        2.68213        3.24427      151.71112
992.50000      389.79644      102.28517        2.56731        2.69739        3.16275      151.59046
993.00000      383.84217       99.54294        2.58424        2.75021        2.98090      151.37108
993.50000      385.68831       98.17182        2.60128        2.80319        3.03116      150.68370
994.00000      387.53444       98.99449        2.56884        2.84725        3.35342      150.11331
994.50000      389.38058      100.28608        2.51692        2.78970        3.40987      149.35280
995.00000      400.41414      102.83361        2.47446        2.73040        3.35233      148.40582
995.50000      400.42375      106.26140        2.49919        2.63936        3.24055      147.26871
996.00000      400.43337      107.08407        2.50719        2.59650        3.00323      146.13159
996.50000      400.44299      104.66268        2.48577        2.59985        2.66827      145.18095
997.00000      402.90917      100.59047        2.46030        2.66083        2.73616      144.13891
997.50000      404.54410       96.23581        2.43928        2.71278        3.23845      143.42958
998.00000      406.18822       91.00912        2.43515        2.72285        3.80064      142.57401
998.50000      407.83235       85.06671        2.44171        2.73295        3.49272      141.79887
999.00000      405.64294       77.13618        2.44692        2.73439        3.49210      141.47712
999.50000      404.18334       67.61516        2.45351        2.73391        4.61199      141.08955
1000.00000      402.91394       63.15081        2.47869        2.75081        5.00059      140.76779
1000.50000      402.72154       62.27604        2.48537        2.72148        4.40606      141.02739
1001.00000      402.42375       64.82631        2.48955        2.69246        4.22365      141.28333
1001.50000      402.23135       66.95154        2.48918        2.66856        5.76790      141.49905
1002.00000      400.58810       69.50181        2.48874        2.64010        5.03950      142.16816
1002.50000      398.94484       70.53563        2.49889        2.63971        4.18612      142.72392
1003.00000      397.30159       71.98353        2.53026        2.63925        3.44797      143.38936
1003.50000      394.83671       76.78243        2.51280        2.65374        3.62625      144.05847
1004.00000      396.47165       83.63801        2.49827        2.67199        3.53510      143.79887
1004.50000      401.37559       91.86470        2.50353        2.66589        3.22158      143.48443
1005.00000      397.09693       97.25866        2.52862        2.63754        3.11434      143.22117
1005.50000      397.26746       99.35921        2.52818        2.70465        2.71532      142.96158
1006.00000      399.57273       99.49632        2.50038        2.75018        2.45892      142.96158
1006.50000      403.99000       97.89760        2.47755        2.77891        2.67471      142.96158
1007.00000      408.40727       91.90034        2.45134        2.77491        2.90935      142.96158
1007.50000      412.00291       82.39578        2.43039        2.73962        3.59106      142.84823
1008.00000      413.38992       70.98810        2.36346        2.71613        4.43238      142.51185
1008.50000      431.14952       61.80986        2.27830        2.70194        5.36821      141.86468
1009.00000      448.91830       60.32905        2.20965        2.53231        8.53955      141.86468
