~Version ---------------------------------------------------
VERS. 2.0 : CWLS LOG ASCII STANDARD - VERSION 2.0
WRAP. NO  : One line per depth step
DLM . SPACE : Column Data Section Delimiter
~Well ------------------------------------------------------
STRT.F           40 : START DEPTH
STOP.F       1271.0 : STOP DEPTH
STEP.F          0.5 : STEP
NULL.       -999.25 : NULL VALUE
COMP.                 WALSH & WATTS, INC. : COMPANY
WELL.                         HOWARD G 17 : WELL
FLD .             MONTAGUE COUNTY REGULAR : FIELD
CNTY.                            MONTAGUE : COUNTY
STAT.                               TEXAS : STATE
CTRY.                                 USA : COUNTRY
SEC .                                     : SECTION
TWP .                                     : TOWNSHIP
RGE .                                     : RANGE
LOC . 520'FNL & 4250'FEL OF THE J.CHAMBLIS SURVEY, A-123 : LOCATION
EKB .F                      519 : ELEVATION KELLY BUSHING
EDF .F                      518 : ELEVATION DERRICK FLOOR
EGL .F                      512 : ELEVATION GROUND LEVEL
PDAT.                        GL : PERMANENT DATUM
EPD .                       512 : ELEVATION PERMANENT DATUM
APD .                         7 : ABOVE PERMANENT DATUM
LMF .                        KB : LOG MEASURED FROM
DMF .                        KB : DRILLING MEASURED FROM
API .            42337343900000 : API NUMBER
UWI .                           : UWI NUMBER
DIGC.                     NthDS : DIGITIZING COMPANY
~Params ----------------------------------------------------
SRVC. PIONEER WIRELINE SERVICES : LOGGING COMPANY
LOG .                      CNFD : LOG
DATE.                2010-10-13 : RUN DATE
RUN .                         1 : RUN NUMBER
TDD .F                     1298 : TOTAL DEPTH DRILLER
TDL .F                     1280 : TOTAL DEPTH LOGGER
BOTL.F                     1280 : BOTTOM LOGGED INTERVAL
TOPL.F                       50 : TOP LOGGED INTERVAL
CSGS.IN                         : CASING SIZE
CSGD.F                          : CASING DRILLER
CSGL.F                          : CASING LOGGER
BS  .IN                   7.875 : BIT SIZE
MUD .                  GEL-CHEM : MUD TYPE
MUDD.                           : MUD DENSITY
MUDV.                           : MUD VISCOSITY
PH  .                           : MUD PH
FL  .                           : FLUID LOSS
MUDS.                  FLOWLINE : SOURCE OF SAMPLE
RM  .OHMM                   3.6 : MUD RESISTIVITY
RMT .DEGF                    72 : RM TEMPERATURE
RMF .OHMM                   2.7 : MUD FILTRATE RESISTIVITY
RMFT.DEGF                    72 : RMF TEMPERATURE
RMC .OHMM                   4.5 : MUD CAKE RESISTIVITY
RMCT.DEGF                    72 : RMC TEMPERATURE
RMFS.                      CALC : RMF SOURCE
RMCS.                      CALC : RMC SOURCE
RMBH.OHMM                   3.0 : MUD RESISTIVITY AT BHT
BHT .DEGF                    85 : BOTTOM HOLE TEMPERATURE
TIMC.           0245 2010-10-13 : TIME CIRCULATION STOPPED
TIML.           0540 2010-10-13 : TIME LOGGER ON BOTTOM
TMAX.DEGF                    85 : MAXIMUM RECORDED TEMPERATURE
UNIT.                      M-19 : EQUIPMENT NUMBER
BASE.             GRAHAM, TEXAS : BASE LOCATION
ENG .                    WENDEL : RECORDED BY
WIT .           WOMBLE/BURLESON : WITNESSED BY
~Curve Information -----------------------------------------
DEPT.F          :DEPTH
CALI.IN         :
DPHI.PU         :
GRD.GAPI        :
MINV.OHMM       :
MNOR.OHMM       :
NPHI.PU         :
RHOC.G/CC       :
~ASCII ------------------------------------------------------
# ...
110.50000        7.94393       27.51537       35.85843       10.44776       12.58656       18.83296        0.00888
111.00000        7.94428       28.40528       33.89362       10.14925       10.50746       19.39205        0.00679
111.50000        7.91906       29.27339       33.89878       10.74626       10.80597       20.98872        0.00840
112.00000        7.86815       29.66235       33.90496       11.79104       10.67164       23.33968        0.01328
112.50000        7.86004       29.73085       36.25438       11.41791       10.25373       24.03900        0.01731
113.00000        7.80982       29.55687       40.77461       11.34328       10.16417       22.41370        0.02220
113.50000        7.74952       29.10449       43.20846       12.05970       10.89552       21.16568        0.02418
114.00000        7.75043       28.65232       41.99505       12.91044       13.20895       21.08322        0.02310
114.50000        7.76701       28.16986       38.91683       12.23880       11.89104       22.03441        0.02179
115.00000        7.77731       28.00453       37.31506       10.62238        8.95522       22.86041        0.01966
115.50000        7.77390       27.98447       38.02378        9.17910        6.34328       21.89413        0.01552
116.00000        7.76980       27.90824       39.25697        8.05970        6.88656       20.23597        0.02586
116.50000        7.76639       27.44345       41.55292        6.80597        8.05970       19.42645        0.03291
117.00000        7.76297       26.69053       46.62474        5.52239        6.11940       18.40887        0.03541
117.50000        7.78707       25.44869       50.00699        6.51791        7.98507       16.66403        0.03746
118.00000        7.83046       24.13187       51.85547        7.46268       11.59850       16.06128        0.04179
118.50000        7.88256       22.86183       52.78192       10.89552       12.87910       16.29669        0.04888
119.00000        7.92595       21.94893       53.25986       12.04029       13.28358       16.83623        0.03955
119.50000        7.96934       22.02307       51.36644       11.44328       11.08208       18.63946        0.02836
120.00000        7.94720       22.86787       48.90914       10.89552       14.02984       19.70982        0.01903
120.50000        7.92875       24.02562       48.55126       11.04477       13.08507       19.50200        0.00970
121.00000        7.91913       25.11064       50.63436       13.73134       14.62686       17.86543        0.01418
121.50000        7.95037       25.78740       54.22204       11.97761       10.74626       16.56720        0.01791
122.00000        7.96876       25.81434       57.46742       15.11193       17.01492       16.34811        0.02239
122.50000        7.95413       25.39976       57.43599       14.92537       17.16417       16.30947        0.02836
123.00000        7.94188       24.47107       56.93459       12.11940       12.93581       16.90632        0.02340
123.50000        7.91761       23.86439       56.26536       12.76119       13.58208       17.66992        0.01742
124.00000        7.86670       22.93908       59.48719       13.33283       14.55223       19.07035        0.01515
124.50000        7.85502       22.13466       63.38163       14.29104       16.52984       20.47040        0.02541
125.00000        7.88920       21.05673       68.59416       14.26417       17.46268       22.33942        0.03395
125.50000        7.93021       20.36095       72.15933       14.47761       18.20895       22.47934        0.04250
126.00000        7.96439       19.92624       75.03604       13.71044       17.91044       22.57228        0.05276
126.50000        7.99857       19.56354       76.27947       13.70149       17.94775       23.08642        0.05235
127.00000        8.01872       19.37432       75.34748       15.29850       20.44775       22.28426        0.04784
127.50000        8.02696       19.46725       71.16890       13.88059       17.91044       20.63265        0.04295
128.00000        8.06590       19.78027       71.28662       11.94029       16.96566       20.45303        0.03810
128.50000        8.03241       20.10666       73.64552       13.73134       18.05969       20.29576        0.03224
129.00000        7.98238       20.40222       76.14972       11.84029       14.56268       19.27968        0.03004
129.50000        8.00084       20.50510       78.76086       11.86567       14.73880       18.39122        0.04022
130.00000        8.01622       20.59089       83.32612       12.71641       19.10447       19.70594        0.04657
130.50000        8.03161       20.87968       85.98510       10.59701       11.11940       23.97700        0.04437
131.00000        8.05006       21.61149       86.17985       12.13880       12.93581       28.24769        0.04175
131.50000        8.04891       22.22134       86.18500       12.23880       12.83582       29.23271        0.03955
132.00000        8.04274       22.47404       85.06446        8.40149       10.24925       24.23153        0.06007
132.50000        8.03763       22.12241       82.81926        8.32835       11.04477       20.36455        0.08619
133.00000        8.08083       20.95200       80.94732        7.82089       11.04477       20.45840        0.11418
133.50000        8.08050       19.06639       77.91873        7.70149       10.37313       21.17162        0.12910
134.00000        8.04249       16.89975       73.93151        7.10447       10.59701       22.30176        0.12802
134.50000        8.00431       15.83836       68.88230        9.93582       14.02984       23.09806        0.10407
135.00000        7.95867       15.81287       63.39969       14.81343       21.71641       22.52651        0.03705
135.50000        7.90976       16.65767       60.24548       16.71641       26.86566       21.64820        0.01716
136.00000        7.85372       17.92519       62.87633       15.52238       21.49253       21.27121        0.01784
136.50000        7.86917       18.57488       66.63287       15.67163       19.99999       21.08220        0.02332
137.00000        7.91650       19.22458       70.39325       12.73582       17.46268       20.85538        0.02881
137.50000        7.90865       19.93308       72.27269        9.92537       13.05970       19.30527        0.04552
138.00000        7.89132       20.31172       76.18223        9.58955       11.97014       18.02604        0.06791
138.50000        7.87419       20.36330       80.12732       12.27611       14.70149       17.50600        0.09675
139.00000        7.79422       19.78311       80.69533       10.48507       12.33880       18.82071        0.10485
139.50000        7.74318       18.86478       77.36101        8.67761       11.60447       20.80384        0.10175
140.00000        7.67943       17.75940       76.71045        9.70149       14.25372       22.05804        0.09403
140.50000        7.60296       16.74972       77.84131        8.10298       14.77611       20.06433        0.08097
141.00000        7.54673       15.50788       80.66173        7.31343       12.23880       18.52174        0.07563
141.50000        7.49218       13.75852       80.66689        7.01492       11.04477       19.11579        0.08310
142.00000        7.50406       11.65224       78.80443        8.13432       11.04477       22.17597        0.08575
142.50000        7.57828       11.34385       75.69422        9.85074       14.25372       25.23615        0.07175
143.00000        7.66723       12.97209       72.58120       14.17910       18.45820       27.52116        0.03955
143.50000        7.70366       15.01763       70.38103       14.92537       22.83581       26.12067        0.02302
144.00000        7.74028       16.76430       71.02042       13.38358       21.51342       23.19786        0.02496
144.50000        7.72641       18.77052       71.83505       10.67164       17.79104       20.12973        0.03515
145.00000        7.66698       19.02022       74.97348        7.98507       12.86567       19.93788        0.04213
