~Version ---------------------------------------------------
VERS. 2.0 : CWLS LOG ASCII STANDARD - VERSION 2.0
WRAP. NO  : One line per depth step
DLM . SPACE : Column Data Section Delimiter
~Well ------------------------------------------------------
STRT.F         48.5 : START DEPTH
STOP.F       1455.5 : STOP DEPTH
STEP.F          0.5 : STEP
NULL.       -999.25 : NULL VALUE
COMP.                 WALSH & WATTS, INC. : COMPANY
WELL.                         HOWARD F 25 : WELL
FLD .                            MONTAGUE : FIELD
CNTY.                            MONTAGUE : COUNTY
STAT.                               TEXAS : STATE
CTRY.                                 USA : COUNTRY
SEC .                                     : SECTION
TWP .                                     : TOWNSHIP
RGE .                                     : RANGE
LOC . 1115'FEL & 2300'FSL OF THE J.CHAMBLIS SURVEY A-123 : LOCATION
EKB .F                      512 : ELEVATION KELLY BUSHING
EDF .F                      511 : ELEVATION DERRICK FLOOR
EGL .F                      505 : ELEVATION GROUND LEVEL
PDAT.                        GL : PERMANENT DATUM
EPD .                       505 : ELEVATION PERMANENT DATUM
APD .                         7 : ABOVE PERMANENT DATUM
LMF .                        KB : LOG MEASURED FROM
DMF .                        KB : DRILLING MEASURED FROM
API .            42337343120000 : API NUMBER
UWI .                           : UWI NUMBER
DIGC.                     NthDS : DIGITIZING COMPANY
~Params ----------------------------------------------------
SRVC. PIONEER WIRELINE SERVICES : LOGGING COMPANY
LOG .                      DIFL : LOG
DATE.                2010-10-07 : RUN DATE
RUN .                         1 : RUN NUMBER
TDD .F                     1450 : TOTAL DEPTH DRILLER
TDL .F                     1452 : TOTAL DEPTH LOGGER
BOTL.F                     1452 : BOTTOM LOGGED INTERVAL
TOPL.F                       50 : TOP LOGGED INTERVAL
CSGS.IN                         : CASING SIZE
CSGD.F                          : CASING DRILLER
CSGL.F                          : CASING LOGGER
BS  .IN                   7.875 : BIT SIZE
MUD .                  GEL-CHEM : MUD TYPE
MUDD.                           : MUD DENSITY
MUDV.                           : MUD VISCOSITY
PH  .                           : MUD PH
FL  .                           : FLUID LOSS
MUDS.                  FLOWLINE : SOURCE OF SAMPLE
RM  .OHMM                   4.0 : MUD RESISTIVITY
RMT .DEGF                    72 : RM TEMPERATURE
RMF .OHMM                   3.0 : MUD FILTRATE RESISTIVITY
RMFT.DEGF                    72 : RMF TEMPERATURE
RMC .OHMM                   5.0 : MUD CAKE RESISTIVITY
RMCT.DEGF                    72 : RMC TEMPERATURE
RMFS.                      CALC : RMF SOURCE
RMCS.                      CALC : RMC SOURCE
RMBH.OHMM                     3 : MUD RESISTIVITY AT BHT
BHT .DEGF                    88 : BOTTOM HOLE TEMPERATURE
TIMC.           0730 2010-10-07 : TIME CIRCULATION STOPPED
TIML.           1020 2010-10-07 : TIME LOGGER ON BOTTOM
TMAX.DEGF                    88 : MAXIMUM RECORDED TEMPERATURE
UNIT.                      M-19 : EQUIPMENT NUMBER
BASE.                GRAHAM, TX : BASE LOCATION
ENG .                    WENDEL : RECORDED BY
WIT .           WOMBLE/BURLESON : WITNESSED BY
~Curve Information -----------------------------------------
DEPT.F          :DEPTH
CILD.MMHO       :
GRR.GAPI        :
RILD.OHMM       :
RILM.OHMM       :
RSFL.OHMM       :
SP.MV           :
~ASCII ------------------------------------------------------
# ...
1129.50000      401.45497      103.29668        2.49395        2.57236        2.66062      150.91572
1130.00000      394.57762      105.21976        2.57675        2.57198        2.61573      152.01462
1130.50000      391.83727      109.89009        2.55703        2.60426        2.59330      152.74722
1131.00000      390.01036      112.08789        2.53982        2.65937        2.71375      154.21242
1131.50000      381.75563      108.79118        2.56874        2.72704        3.09926      154.94502
1132.00000      373.50089      107.41756        2.61948        2.79642        3.25489      155.31132
1132.50000      365.24616      104.12086        2.68916        2.81565        3.01220      155.67762
1133.00000      352.86406      101.92305        2.77508        2.83900        2.94783      155.31132
1133.50000      344.60933      101.09888        2.89093        2.95453        3.10711      155.31132
1134.00000      336.35460      100.54943        3.00080        3.07070        3.32855      154.57872
1134.50000      328.09987       98.35163        3.06731        3.20429        3.50633      153.84612
1135.00000      319.84513       96.97800        3.12403        3.31515        3.49459      153.11352
1135.50000      314.80912       95.87910        3.16993        3.45296        3.48045      153.11352
1136.00000      313.90048       95.87910        3.16937        3.59681        3.84787      152.74722
1136.50000      313.17548       94.78020        3.17961        3.61544        4.25709      152.01462
1137.00000      312.45049       93.40657        3.20057        3.55343        4.09643      151.28202
1137.50000      313.01587       92.58240        3.22167        3.41184        3.81847      150.54942
1138.00000      323.42939       92.03295        3.15398        3.29817        3.59448      149.08422
1138.50000      333.85208       92.30767        3.06170        3.17826        3.33113      147.98531
1139.00000      344.26559       96.97800        2.95960        3.06477        3.13969      146.88641
1139.50000      359.89045       98.62635        2.85112        2.97343        3.03500      145.78751
1140.00000      370.30397       99.17580        2.72600        2.87113        3.08088      145.05491
1140.50000      380.01042       98.07690        2.62608        2.80442        3.02558      144.32231
1141.00000      393.49573       92.03295        2.55182        2.73386        2.85957      143.95601
1141.50000      402.47676       89.83514        2.48909        2.67251        2.85906      143.95601
1142.00000      411.46696       88.46152        2.44421        2.58893        2.71185      143.58971
1142.50000      420.16814       86.81317        2.39138        2.49207        2.52912      143.58971
1143.00000      424.37421       87.36262        2.35096        2.51421        2.59348      143.95601
1143.50000      428.58027       89.01097        2.32243        2.55273        2.61726      143.95601
1144.00000      430.69271       93.68130        2.30116        2.54604        2.59045      143.95601
1144.50000      425.06901       94.78020        2.34266        2.52890        2.56391      144.32231
1145.00000      413.79320       95.05492        2.37794        2.51449        2.62479      144.68861
1145.50000      402.52657       90.65932        2.43845        2.49757        2.72585      145.05491
1146.00000      391.25076       90.38460        2.49741        2.55127        2.81303      145.78751
1146.50000      391.26038       91.20877        2.55793        2.63013        2.95229      146.15381
1147.00000      391.27480       95.32965        2.55748        2.66989        3.09454      146.52011
1147.50000      388.83266       95.05492        2.55710        2.68757        3.14406      146.52011
1148.00000      390.03601       93.95602        2.55127        2.68031        3.02643      146.52011
1148.50000      394.86650       95.60437        2.53473        2.67306        2.99047      146.15381
1149.00000      402.10764       96.70327        2.51074        2.66704        3.02035      146.15381
1149.50000      406.93812       98.90108        2.48230        2.65960        2.85945      146.52011
1150.00000      410.69161      101.09888        2.50548        2.70395        2.64815      147.61901
1150.50000      415.52209      103.10784        2.45397        2.69640        2.48167      147.71477
1151.00000      422.77241      104.47895        2.39379        2.67101        2.59784      148.31075
1151.50000      430.43114      105.30162        2.34721        2.63567        2.78975      148.53744
1152.00000      440.93648      106.83727        2.29256        2.59393        2.95332      148.81167
1152.50000      456.69908      106.53563        2.22354        2.54274        2.77257      148.14256
1153.00000      462.41110      105.35647        2.17862        2.48382        2.58937      147.58680
1153.50000      463.33898      105.88846        2.17823        2.39283        2.43090      146.92136
1154.00000      462.88946      106.67274        2.17791        2.31968        2.41011      146.36194
1154.50000      461.06256      107.61332        2.18729        2.31497        2.36934      145.84640
1155.00000      453.73089      102.74312        2.20656        2.35139        2.38900      145.41496
1155.50000      433.53877       99.81716        2.22269        2.38241        2.49164      145.15536
1156.00000      413.34664       97.34916        2.30270        2.50300        2.81322      144.84092
1156.50000      393.15452       90.49358        2.45009        2.61737        3.05309      144.78973
1157.00000      372.96239       82.60967        2.57984        2.73550        3.06986      144.42410
1157.50000      352.77027       76.50821        2.74496        3.08360        4.38364      144.42410
1158.00000      335.56249       71.29797        2.89057        3.37633        8.25555      144.05847
1158.50000      309.75542       71.02375        3.07610        3.39144       10.72355      143.69284
1159.00000      292.54764       80.75867        3.30214        3.45276        5.35660      142.96158
1159.50000      287.61701       88.87018        3.40842        3.77722        3.30165      142.23032
1160.00000      294.97272       91.95519        3.42368        4.10402        4.24748      141.86468
1160.50000      302.32842       89.67091        3.33053        4.25187        5.97595      141.49905
1161.00000      313.36198       88.84824        3.18773        3.94575        7.12481      141.86468
1161.50000      318.26592       89.12247        3.13910        3.54996        5.69961      142.23032
1162.00000      320.72730       87.47713        3.10700        3.35793        3.68936      142.59595
1162.50000      324.40996       85.00912        3.07514        3.22401        2.91217      142.96158
1163.00000      334.39669       83.63801        2.97376        3.11650        3.54320      142.96158
1163.50000      346.99567       84.73490        2.88067        2.98792        4.35289      143.32721
1164.00000      359.60382       89.67091        2.80576        2.86392        3.48853      143.69284
1164.50000      373.12587       96.91863        2.75838        2.79944        3.17333      144.20838
1165.00000      374.97201      105.61424        2.67240        2.73425        3.14610      144.98351
1165.50000      372.75025      111.19742        2.67554        2.71743        3.04110      145.75865
1166.00000      370.52849      110.66817        2.69419        2.74261        2.93969      146.40216
1166.50000      368.30673      105.43873        2.71540        2.85359        2.84157      147.17730
1167.00000      364.97869       98.72027        2.73248        2.96365        3.01411      147.95243
1167.50000      362.75693       97.89760        2.75353        3.10133        3.28818      148.08041
1168.00000      360.53517       98.99449        2.77451        3.20322        3.45404      149.17730
1168.50000      359.43369      100.63983        2.79219        3.21983        3.53405      149.54293
1169.00000      359.44811      104.47895        2.78416        3.20570        3.56609      149.90856
