~Version ---------------------------------------------------
VERS. 2.0 : CWLS LOG ASCII STANDARD - VERSION 2.0
WRAP. NO  : One line per depth step
DLM . SPACE : Column Data Section Delimiter
~Well ------------------------------------------------------
STRT.F           48 : START DEPTH
STOP.F       1432.0 : STOP DEPTH
STEP.F          0.5 : STEP
NULL.       -999.25 : NULL VALUE
COMP.                 WALSH & WATTS, INC. : COMPANY
WELL.                         HOWARD F 25 : WELL
FLD .                            MONTAGUE : FIELD
CNTY.                            MONTAGUE : COUNTY
STAT.                               TEXAS : STATE
CTRY.                                 USA : COUNTRY
SEC .                                     : SECTION
TWP .                                     : TOWNSHIP
RGE .                                     : RANGE
LOC . 1115'FEL & 2300'FSL OF THE J.CHAMBLIS SURVEY A-123 : LOCATION
EKB .F                      512 : ELEVATION KELLY BUSHING
EDF .F                      511 : ELEVATION DERRICK FLOOR
EGL .F                      505 : ELEVATION GROUND LEVEL
PDAT.                        GL : PERMANENT DATUM
EPD .                       505 : ELEVATION PERMANENT DATUM
APD .                         7 : ABOVE PERMANENT DATUM
LMF .                        KB : LOG MEASURED FROM
DMF .                        KB : DRILLING MEASURED FROM
API .            42337343120000 : API NUMBER
UWI .                           : UWI NUMBER
DIGC.                     NthDS : DIGITIZING COMPANY
~Params ----------------------------------------------------
SRVC. PIONEER WIRELINE SERVICES : LOGGING COMPANY
LOG .                   CNFD/ML : LOG
DATE.                2010-10-07 : RUN DATE
RUN .                         1 : RUN NUMBER
TDD .F                     1450 : TOTAL DEPTH DRILLER
TDL .F                     1452 : TOTAL DEPTH LOGGER
BOTL.F                     1452 : BOTTOM LOGGED INTERVAL
TOPL.F                       50 : TOP LOGGED INTERVAL
CSGS.IN                         : CASING SIZE
CSGD.F                          : CASING DRILLER
CSGL.F                          : CASING LOGGER
BS  .IN                   7.875 : BIT SIZE
MUD .                  GEL-CHEM : MUD TYPE
MUDD.                           : MUD DENSITY
MUDV.                           : MUD VISCOSITY
PH  .                           : MUD PH
FL  .                           : FLUID LOSS
MUDS.                  FLOWLINE : SOURCE OF SAMPLE
RM  .OHMM                   4.0 : MUD RESISTIVITY
RMT .DEGF                    72 : RM TEMPERATURE
RMF .OHMM                   3.0 : MUD FILTRATE RESISTIVITY
RMFT.DEGF                    72 : RMF TEMPERATURE
RMC .OHMM                   5.0 : MUD CAKE RESISTIVITY
RMCT.DEGF                    72 : RMC TEMPERATURE
RMFS.                      CALC : RMF SOURCE
RMCS.                      CALC : RMC SOURCE
RMBH.OHMM                     3 : MUD RESISTIVITY AT BHT
BHT .DEGF                    88 : BOTTOM HOLE TEMPERATURE
TIMC.           0730 2010-10-07 : TIME CIRCULATION STOPPED
TIML.           1020 2010-10-07 : TIME LOGGER ON BOTTOM
TMAX.DEGF                    88 : MAXIMUM RECORDED TEMPERATURE
UNIT.                      M-19 : EQUIPMENT NUMBER
BASE.                GRAHAM, TX : BASE LOCATION
ENG .                    WENDEL : RECORDED BY
WIT .           WOMBLE/BURLESON : WITNESSED BY
~Curve Information -----------------------------------------
DEPT.F          :DEPTH
CALD.IN         :
DPHI.%          :
GRD.GAPI        :
MINV.OHMM       :
MNOR.OHMM       :
NPHI.%          :
RHOC.G/CC       :
~ASCII ------------------------------------------------------
# ...
398.50000        8.48994       16.11131       85.83179        8.85828       10.48736       24.69551        0.06203
399.00000        8.38026       16.24968       87.88846        8.15706       10.48431       24.52238        0.05870
399.50000        8.37861       16.72053       90.35647        5.50675        8.08128       21.94291        0.05475
400.00000        8.40055       17.45614       89.18280        5.73091        7.45745       20.18129        0.05424
400.50000        8.42033       17.53217       84.49449        5.70909        7.53745       19.91864        0.05033
401.00000        8.45421       18.18230       77.54669        7.70909       10.47272       19.06996        0.04645
401.50000        8.42363       18.79736       70.76921       11.05454       13.52727       18.78750        0.04319
402.00000        8.38700       19.81109       62.63735       11.34545       13.98399       19.00744        0.04203
402.50000        8.35531       19.99961       59.25548       13.04290       15.12727       18.18616        0.04565
403.00000        8.31135       19.67295       55.19779       23.59272       35.45453       15.39243        0.05000
403.50000        8.32381       19.13563       53.57142       31.38908       39.70907       15.10594        0.05435
404.00000        8.38095       19.04677       57.29944       11.49090       28.29090       16.53428        0.05417
404.50000        8.32601       19.59037       63.79669        6.15709       10.21818       19.12060        0.05283
405.00000        8.32967       21.11587       70.05493        4.39273        5.90836       23.06654        0.05167
405.50000        8.54780       22.97951       80.76921        4.53091        5.30327       25.42711        0.06438
406.00000        8.71868       24.16383       86.15383        4.19636        4.80000       24.84730        0.09565
406.50000        8.95238       23.48624       86.59339        4.05236        5.03854       23.64405        0.14783
407.00000        8.95366       21.83940       83.75273        5.25382        6.45527       23.69035        0.20000
407.50000        8.90385       19.40499       78.84614        9.70909       12.54545       24.56782        0.20000
408.00000        8.75916       18.02969       72.95877        8.67927       13.28436       24.31032        0.15246
408.50000        8.59744       18.32269       72.58240        7.75709       10.24000       22.28869        0.11786
409.00000        8.46282       18.56698       76.15383        6.72000        7.70909       20.26706        0.10739
409.50000        8.42454       18.12318       80.43954        9.74545       10.32727       17.95880        0.11225
410.00000        8.48773       17.36291       82.07416        8.58181       10.88000       16.69661        0.09946
410.50000        8.69835       16.68167       82.19778        7.01091       10.10909       16.43802        0.07909
411.00000        8.84927       17.33253       80.87910        6.69091        9.30909       17.23025        0.06210
411.50000        8.87546       18.95995       81.70603        7.56363        8.58181       19.10972        0.05870
412.00000        8.82418       20.67760       86.16756        8.21818       10.03636       20.98920        0.05870
412.50000        8.78150       23.16091       89.88460        6.83636        8.40727       21.88566        0.05870
413.00000        8.74725       26.29261       92.89284        5.74545        6.40000       22.22383        0.05870
413.50000        8.74725       29.42432       92.36262        5.16363        6.27491       22.71336        0.06380
414.00000        8.74725       29.93783       92.20053        3.63636        5.09091       24.03357        0.09449
414.50000        8.94872       29.92471       93.20328        3.92727        3.78182       25.40918        0.12007
415.00000        9.15018       29.91403       94.03844        4.17018        5.96363       27.06034        0.14764
415.50000        9.39194       28.01599       95.04393        3.40363        4.21818       27.86695        0.15750
416.00000        9.63370       26.11965       95.87910        4.62545        5.04873       26.92403        0.16543
416.50000        9.74652       24.81047       95.42580        4.62982        5.31782       27.78324        0.15373
417.00000        9.72198       24.56052       94.51921        4.50909        5.23636       29.84171        0.14399
417.50000        9.66300       24.43599       93.76372        4.10182        5.00363       29.84235        0.16674
418.00000        9.58059       23.15809       92.85712        4.07273        4.81018       29.35215        0.19145
418.50000        9.48626       21.84380       92.85712        4.50909        5.07054       26.89692        0.19475
419.00000        9.40256       21.09120       93.79943        6.02182        6.18182       24.92874        0.19275
419.50000        9.30220       21.83168       95.21152        5.56363        6.54545       25.00755        0.15489
420.00000        9.21868       24.77344       96.01646        3.68873        4.36363       25.66329        0.10942
420.50000        9.19872       28.15573       94.82690        4.02036        4.67491       26.43118        0.11243
421.00000        9.25916       29.85621       91.80492        3.78182        4.52654       27.07108        0.13634
421.50000        9.30952       29.87146       89.28569        3.49091        4.18327       27.98508        0.14815
422.00000        9.36996       29.88976       89.63460        3.29745        3.77309       28.97214        0.15319
422.50000        9.29359       29.90501       91.18954        4.94545        4.94545       28.89461        0.16688
423.00000        9.32839       29.92331       93.05767        4.69091        4.85527       27.72643        0.19275
423.50000        9.38828       28.36536       94.34064        4.08291        5.07345       26.30497        0.19275
424.00000        9.48352       27.57222       93.09339        4.34327        5.52727       25.15543        0.19275
424.50000        9.59780       27.74832       90.03020        4.65454        4.65454       26.78614        0.19275
425.00000        9.69304       28.57453       87.32416        3.67273        4.12073       28.14530        0.19275
425.50000        9.80733       29.96341       87.08789        3.25963        3.79054       28.96506        0.16946
426.00000        9.80952       29.95870       89.59064        3.15782        3.58545       28.47377        0.16409
426.50000        9.73626       29.95495       91.67580        3.07200        3.41382       28.58400        0.16902
427.00000        9.68132       29.95023       94.17855        3.94327        3.97963       28.50184        0.17101
427.50000        9.64670       29.94612       96.26646        4.72727        4.77382       28.25444        0.17101
428.00000        9.65897       29.94141       98.26921        3.46618        3.81091       27.95786        0.17101
428.50000        9.60275       29.93670       97.77470        3.34545        3.54618       27.53220        0.18188
429.00000        9.52729       29.93258       97.77196        3.49091        3.60291       26.60767        0.18913
429.50000        9.43681       27.87491       98.50547        3.60436        3.92727       25.14713        0.18913
430.00000        9.42326       25.81748       96.51371        3.44291        4.21818       22.02463        0.16014
430.50000        9.45678       23.65899       93.34339        4.59200        4.65454       20.67002        0.17351
431.00000        9.49029       23.15223       92.06591        6.22545        6.83636       21.05800        0.18467
431.50000        9.51813       22.82679       92.58240        5.55636        6.88000       24.44614        0.18293
432.00000        9.43278       22.79090       88.87361        3.44291        4.34909       27.63483        0.18188
432.50000        9.28333       22.00665       85.78295        5.42982        5.58982       28.81501        0.18793
433.00000        9.20348       21.04437       82.90383        4.84800        6.03636       28.47641        0.18308
