~Version ---------------------------------------------------
VERS. 2.0 : CWLS LOG ASCII STANDARD - VERSION 2.0
WRAP. NO  : One line per depth step
DLM . SPACE : Column Data Section Delimiter
~Well ------------------------------------------------------
STRT.F           11 : START DEPTH
STOP.F       1368.0 : STOP DEPTH
STEP.F          0.5 : STEP
NULL.       -999.25 : NULL VALUE
COMP.                 WALSH & WATTS, INC. : COMPANY
WELL.                      HOWARD AB E 4E : WELL
FLD .             MONTAGUE COUNTY REGULAR : FIELD
CNTY.                            MONTAGUE : COUNTY
STAT.                                     : STATE
CTRY.                                 USA : COUNTRY
SEC .                                     : SECTION
TWP .                                     : TOWNSHIP
RGE .                                     : RANGE
LOC . 3250'FEL & 1590'FSL OF THE J.CHAMBLIS SURVEY A-123 : LOCATION
EKB .F                          : ELEVATION KELLY BUSHING
EDF .F                          : ELEVATION DERRICK FLOOR
EGL .F                          : ELEVATION GROUND LEVEL
PDAT.                        GL : PERMANENT DATUM
EPD .                           : ELEVATION PERMANENT DATUM
APD .                         8 : ABOVE PERMANENT DATUM
LMF .                        KB : LOG MEASURED FROM
DMF .                        KB : DRILLING MEASURED FROM
API .            42337348780000 : API NUMBER
UWI .                           : UWI NUMBER
DIGC.                     NthDS : DIGITIZING COMPANY
~Params ----------------------------------------------------
SRVC. PIONEER WIRELINE SERVICES : LOGGING COMPANY
LOG .                      CNFD : LOG
DATE.                2012-08-01 : RUN DATE
RUN .                         1 : RUN NUMBER
TDD .F                     1400 : TOTAL DEPTH DRILLER
TDL .F                     1396 : TOTAL DEPTH LOGGER
BOTL.F                     1368 : BOTTOM LOGGED INTERVAL
TOPL.F                       50 : TOP LOGGED INTERVAL
CSGS.IN                         : CASING SIZE
CSGD.F                          : CASING DRILLER
CSGL.F                          : CASING LOGGER
BS  .IN                   7.875 : BIT SIZE
MUD .                  CHEM-GEL : MUD TYPE
MUDD.                           : MUD DENSITY
MUDV.                           : MUD VISCOSITY
PH  .                           : MUD PH
FL  .                           : FLUID LOSS
MUDS.                  FLOWLINE : SOURCE OF SAMPLE
RM  .OHMM                   2.4 : MUD RESISTIVITY
RMT .DEGF                    73 : RM TEMPERATURE
RMF .OHMM                   1.8 : MUD FILTRATE RESISTIVITY
RMFT.DEGF                    73 : RMF TEMPERATURE
RMC .OHMM                   3.0 : MUD CAKE RESISTIVITY
RMCT.DEGF                    73 : RMC TEMPERATURE
RMFS.                      CALC : RMF SOURCE
RMCS.                      CALC : RMC SOURCE
RMBH.OHMM                   2.0 : MUD RESISTIVITY AT BHT
BHT .DEGF                    86 : BOTTOM HOLE TEMPERATURE
TIMC.           0200 2012-08-01 : TIME CIRCULATION STOPPED
TIML.           0430 2012-08-01 : TIME LOGGER ON BOTTOM
TMAX.DEGF                    86 : MAXIMUM RECORDED TEMPERATURE
UNIT.                       110 : EQUIPMENT NUMBER
BASE.                GRAHAM, TX : BASE LOCATION
ENG .                    WENDEL : RECORDED BY
WIT .           OVERBY/BURLESON : WITNESSED BY
~Curve Information -----------------------------------------
DEPT.F          :DEPTH
CALD.IN         :
DPHI.V/V        :
GRD.GAPI        :
NPHI.%          :
PEC.B/E         :
RLML.OHMM       :
RNML.OHMM       :
ZCOR.G/C3       :
~ASCII ------------------------------------------------------
# ...
539.00000        7.87845        0.25386       37.84530       16.00916        2.13294        9.43465       12.61443        0.02578
539.50000        7.89687        0.25270       42.81767       16.80767        2.31416        5.80000        9.93285        0.02765
540.00000        7.89687        0.24594       53.03866       18.13406        2.46506        5.31408        6.71480        0.02993
540.50000        7.89687        0.23552       64.08838       19.69721        2.64592        5.64693        7.28231        0.04115
541.00000        7.87845        0.22345       79.28175       21.93925        2.74920        4.87364        5.66065        0.05740
541.50000        7.89687        0.21340       88.95026       23.80737        2.81028        4.22888        4.50541        0.05939
542.00000        7.93370        0.21211       93.92263       24.29398        2.78059        5.58845        5.95668        0.05249
542.50000        7.93370        0.21442       94.75136       23.74074        2.74496        6.20938        7.58122        0.04675
543.00000        7.93370        0.21599       95.30385       22.01005        2.71528        5.12635        7.91841        0.03986
543.50000        7.93370        0.20700       96.40882       20.56768        2.67965        5.87220        8.10469        0.04155
544.00000        7.93370        0.19801       98.89501       20.25238        2.71004        5.15018        6.42599        0.04953
544.50000        7.93370        0.18722      101.38119       20.84875        2.76452        4.54873        6.02888        0.05617
545.00000        7.93370        0.18322      104.14362       22.06678        2.80993        5.44404        6.15884        0.06588
545.50000        7.93370        0.18478      108.01103       23.52797        2.86441        4.90975        5.47292        0.08115
546.00000        7.84162        0.19073      113.25964       24.98954        2.90981        4.44765        4.84765        0.09946
546.50000        7.80479        0.19788      117.12705       25.05140        2.91448        4.01444        4.40938        0.10412
547.00000        7.78637        0.20478      119.88948       23.92211        2.89725        3.29025        3.89892        0.10227
547.50000        7.78637        0.21074      120.71820       22.78994        2.87701        3.00866        3.82671        0.08292
548.00000        7.84162        0.21025      120.71820       22.14757        2.85977        3.58628        4.40433        0.05971
548.50000        7.89687        0.20397      120.71820       22.19219        2.83953        3.46570        4.64476        0.05105
549.00000        7.97053        0.19764      121.82318       22.51004        2.82230        3.89892        4.06715        0.04917
549.50000        8.04420        0.19131      122.92815       22.97860        2.80206        4.30325        3.85559        0.04758
550.00000        8.04420        0.18376      123.48064       23.85821        2.82710        4.69314        3.71119        0.04603
550.50000        8.04420        0.17750      121.82318       26.73045        2.87133        4.25993        3.97112        0.04390
551.00000        8.04420        0.16939      120.16572       28.98796        2.93505        4.66642        4.39206        0.04180
551.50000        8.04420        0.16253      119.88948       28.97910        3.01151        4.66642        3.88086        0.03924
552.00000        8.04420        0.16079      120.44196       26.42882        3.07523        4.25993        5.13646        0.03625
552.50000        8.04420        0.16263      123.75688       24.09297        3.13484        5.05415        3.89892        0.02852
553.00000        8.04420        0.17443      125.69058       22.96736        3.18427        4.73863        4.21444        0.02206
553.50000        8.02578        0.18622      127.90052       23.37294        3.12227        4.44043        3.86281        0.01227
554.00000        8.00737        0.18837      131.49168       24.06655        3.07061        4.25993        3.79783        0.00325
554.50000        8.04420        0.18696      131.76793       24.66948        3.00861        4.39206        3.46570        0.01000
555.00000        8.04420        0.17844      130.66295       25.16419        2.95694        3.97112        3.45704        0.01856
555.50000        7.98895        0.17157      129.83422       25.19769        2.96564        4.15668        3.63899        0.02881
556.00000        8.00737        0.17150      130.38671       24.61580        3.03192        3.82671        3.42238        0.03393
556.50000        8.00737        0.17661      131.21544       23.73807        3.06223        4.44549        3.39350        0.03491
557.00000        8.00737        0.17924      129.55798       22.84789        3.04647        4.33213        3.75451        0.03971
557.50000        7.98895        0.17501      126.51931       23.14511        3.00791        4.04332        3.46570        0.04549
558.00000        7.98895        0.17087      126.51931       23.78826        2.94196        4.22888        3.56173        0.05610
558.50000        7.97053        0.17097      129.83422       24.22397        2.86311        4.33213        4.18772        0.07931
559.00000        7.95212        0.17429      134.25411       23.92974        2.87152        4.08664        3.92996        0.09866
559.50000        7.80479        0.17669      137.84527       23.63543        2.90402        3.61011        3.53790        0.12195
560.00000        7.73112        0.17588      138.12152       23.63585        2.93111        4.08447        3.44765        0.14141
560.50000        7.47330        0.17504      135.08284       24.35451        2.96216        4.20866        3.85415        0.14704
561.00000        7.39963        0.17916      126.51931       25.18359        2.98228        3.85054        3.53790        0.13704
561.50000        7.38122        0.18455      114.91710       25.85620        2.96094        4.09169        4.51263        0.12184
562.00000        7.38122        0.19353       96.40882       24.75306        2.90562        5.44621        9.12635        0.10863
562.50000        7.39963        0.20753       82.59667       22.68535        2.83922        7.04693       10.87870        0.09282
563.00000        7.41805        0.21981       73.75689       20.96269        2.78389        7.18411       10.88158        0.07960
563.50000        7.41805        0.23473       72.65192       20.43420        2.71750        8.37545       11.52851        0.06643
564.00000        7.41805        0.24716       76.79556       21.32184        2.66217        7.68953       10.45342        0.06643
564.50000        7.41805        0.25371       80.66297       22.70864        2.59578        7.47292        9.38628        0.06643
565.00000        7.41805        0.25273       86.18783       23.08726        2.54045        6.90541        9.82599        0.06545
565.50000        7.41805        0.24571       90.33147       22.37129        2.47405        5.52707        7.26642        0.06347
566.00000        7.41805        0.23919       91.43644       21.61806        2.45389        4.76534        5.43899        0.07473
566.50000        7.41805        0.23604       88.67401       21.57539        2.49336        4.90975        5.94946        0.09856
567.00000        7.39963        0.24798       85.08285       21.68292        2.51312        6.78700        9.54512        0.09675
567.50000        7.41805        0.25793       82.59667       20.90324        2.51266        6.23682        9.09747        0.08809
568.00000        7.47330        0.26613       82.32042       19.87450        2.51228        6.49819        8.92924        0.08152
568.50000        7.63904        0.26511       82.59667       18.63993        2.46310        7.62960        9.75740        0.07365
569.00000        7.65746        0.25821       83.42540       18.06276        2.44550        7.88447       10.10830        0.08267
569.50000        7.67587        0.25038       83.42540       17.88528        2.46702        6.93140        8.54873        0.08462
