~Version ---------------------------------------------------
VERS. 2.0 : CWLS LOG ASCII STANDARD - VERSION 2.0
WRAP. NO  : One line per depth step
DLM . SPACE : Column Data Section Delimiter
~Well ------------------------------------------------------
STRT.F         48.5 : START DEPTH
STOP.F       1449.0 : STOP DEPTH
STEP.F          0.5 : STEP
NULL.       -999.25 : NULL VALUE
COMP.                 WALSH & WATTS, INC. : COMPANY
WELL.                         HOWARD F 14 : WELL
FLD .             MONTAGUE COUNTY REGULAR : FIELD
CNTY.                            MONTAGUE : COUNTY
STAT.                               TEXAS : STATE
CTRY.                                 USA : COUNTRY
SEC .                                     : SECTION
TWP .                                     : TOWNSHIP
RGE .                                     : RANGE
LOC . 1430'FEL & 2600'FSL OF THE J.CHAMBLIS SURVEY A-123 : LOCATION
EKB .F                      849 : ELEVATION KELLY BUSHING
EDF .F                      848 : ELEVATION DERRICK FLOOR
EGL .F                      841 : ELEVATION GROUND LEVEL
PDAT.                        GL : PERMANENT DATUM
EPD .                       841 : ELEVATION PERMANENT DATUM
APD .                         8 : ABOVE PERMANENT DATUM
LMF .                        KB : LOG MEASURED FROM
DMF .                        KB : DRILLING MEASURED FROM
API .            42337351020000 : API NUMBER
UWI .                           : UWI NUMBER
DIGC.                     NthDS : DIGITIZING COMPANY
~Params ----------------------------------------------------
SRVC. PIONEER WIRELINE SERVICES : LOGGING COMPANY
LOG .                      DIFL : LOG
DATE.                2013-08-01 : RUN DATE
RUN .                         1 : RUN NUMBER
TDD .F                     1450 : TOTAL DEPTH DRILLER
TDL .F                     1449 : TOTAL DEPTH LOGGER
BOTL.F                     1449 : BOTTOM LOGGED INTERVAL
TOPL.F                       50 : TOP LOGGED INTERVAL
CSGS.IN                         : CASING SIZE
CSGD.F                          : CASING DRILLER
CSGL.F                          : CASING LOGGER
BS  .IN                   7.875 : BIT SIZE
MUD .                       GEL : MUD TYPE
MUDD.                       9.2 : MUD DENSITY
MUDV.                        75 : MUD VISCOSITY
PH  .                           : MUD PH
FL  .                           : FLUID LOSS
MUDS.                  FLOWLINE : SOURCE OF SAMPLE
RM  .OHMM                   2.8 : MUD RESISTIVITY
RMT .DEGF                    72 : RM TEMPERATURE
RMF .OHMM                   2.1 : MUD FILTRATE RESISTIVITY
RMFT.DEGF                    72 : RMF TEMPERATURE
RMC .OHMM                   3.5 : MUD CAKE RESISTIVITY
RMCT.DEGF                    72 : RMC TEMPERATURE
RMFS.                      CALC : RMF SOURCE
RMCS.                      CALC : RMC SOURCE
RMBH.OHMM                   2.3 : MUD RESISTIVITY AT BHT
BHT .DEGF                    87 : BOTTOM HOLE TEMPERATURE
TIMC.           0130 2018-08-01 : TIME CIRCULATION STOPPED
TIML.           0400 2018-08-01 : TIME LOGGER ON BOTTOM
TMAX.DEGF                    87 : MAXIMUM RECORDED TEMPERATURE
UNIT.                     C-052 : EQUIPMENT NUMBER
BASE.                GRAHAM, TX : BASE LOCATION
ENG .                    WENDEL : RECORDED BY
WIT .                  BURLESON : WITNESSED BY
~Curve Information -----------------------------------------
DEPT.F          :DEPTH
CILD.MMHO       :
GRR.GAPI        :
RILD.OHMM       :
RILM.OHMM       :
RSFL.OHMM       :
SP.MV           :
~ASCII ------------------------------------------------------
# ...
969.50000      694.06630       72.22688        1.45543        1.65554        4.50731      115.26034
970.00000      692.23792       75.88199        1.47597        1.65946        2.50820      117.81209
970.50000      683.07925       74.12398        1.49667        1.66325        1.95410      119.26822
971.00000      676.66794       68.78833        1.51421        1.67919        3.83934      121.45433
971.50000      667.50687       62.42888        1.53558        1.70908        6.75931      123.64044
972.00000      655.59604       62.90851        1.57430        1.73950        7.60732      125.46220
972.50000      634.51933       67.14318        1.61468        1.76524        7.80244      127.64832
973.00000      585.94742       74.06701        1.72023        1.83995        7.11051      129.47008
973.50000      562.12096       83.65997        1.84462        1.96436        4.70163      130.92493
974.00000      495.21490      102.02801        1.95526        2.07446        3.10883      132.01416
974.50000      481.47090      114.36223        2.09664        2.21472        2.85715      133.83592
975.00000      461.31078      117.64714        2.22240        2.32960        2.73906      135.29078
975.50000      440.23408      115.99703        2.34064        2.42881        2.78570      137.11254
976.00000      420.07396      110.23263        2.44320        2.53245        3.08270      138.56739
976.50000      406.32995      108.85674        2.50968        2.61413        3.27036      140.38915
977.00000      395.33811      110.77055        2.55069        2.67666        3.24287      141.47838
977.50000      389.84339      112.13591        2.59237        2.74068        3.00560      141.83635
978.00000      383.43208      112.95379        2.62762        2.76228        2.88138      142.56123
978.50000      379.77053      112.39960        2.67056        2.76228        2.88138      142.18794
979.00000      375.19239      111.57215        2.70072        2.76228        2.76228      142.54591
979.50000      370.61665      108.90372        2.72614        2.76228        3.00560      142.90516
980.00000      367.87169      103.37242        2.75716        2.76228        3.41136      143.19000
980.50000      364.21014       98.76620        2.78829        2.76228        3.52852      143.42859
981.00000      360.54860       98.18185        2.81454        2.77795        3.68065      143.71344
981.50000      355.05627      102.93384        2.84656        2.80932        3.61903      143.99828
982.00000      349.56155      108.27637        2.87336        2.83577        3.52852      144.23322
982.50000      347.73317      114.68741        2.90580        2.86779        3.27036      144.63141
983.00000      344.07163      120.02994        2.93861        2.90041        3.16177      145.00893
983.50000      341.32666      121.25819        2.96678        2.92772        3.35424      145.46563
984.00000      336.75093      123.19215        3.00180        2.96078        3.49886      145.76510
984.50000      334.00597      126.24123        3.03698        2.99446        3.44028      146.85560
985.00000      330.34442      128.78300        3.06660        3.01653        3.52852      147.21357
985.50000      327.59945      128.50400        3.10280        3.03852        3.52852      147.93844
986.00000      328.52084      124.77707        3.09365        3.05446        3.71185      148.29642
986.50000      329.44463      118.62054        3.07880        3.04262        3.93782      149.02001
987.00000      330.36601      116.97043        3.06066        3.02878        3.90471      149.37926
987.50000      332.20399      116.41624        3.04596        3.01704        3.61903      149.37160
988.00000      335.87513      117.78256        3.01679        2.99446        3.21560      149.36522
988.50000      346.88138      121.34170        2.93192        2.92896        3.46944      148.62631
989.00000      353.30229      123.25550        2.86319        2.87530        3.97120      148.61865
989.50000      358.80661      125.17027        2.80221        2.83313        4.03882      148.24664
990.00000      359.72799      129.55206        2.78124        2.83313        3.50300      148.23898
990.50000      356.98303      134.48326        2.76392        2.83313        3.10516      147.86697
991.00000      359.73999      135.84862        2.74346        2.81620        3.03109      147.49369
991.50000      363.41114      132.00474        2.72292        2.79135        3.38268      147.48603
992.00000      365.24911      126.24035        2.72983        2.77046        3.87189      147.47965
992.50000      365.25391      117.73375        2.75762        2.77467        4.00487      147.47199
993.00000      359.76159      118.27740        2.78570        2.79347        3.38268      146.73308
993.50000      354.26686      119.64277        2.80932        2.80932        3.07984      145.99544
994.00000      348.77214      117.44325        2.83792        2.82836        3.15004      145.62215
994.50000      346.94377      115.51892        2.86198        2.84440        3.27036      144.88451
995.00000      346.94857      115.23895        2.89112        2.86367        3.58860      144.51123
995.50000      346.03918      116.33009        2.92056        2.88308        4.07306      143.77231
996.00000      344.21080      120.71285        2.94433        2.89919        4.07306      143.40030
996.50000      338.71608      124.82043        2.97205        2.92550        3.93782      143.39264
997.00000      334.13794      126.18675        3.00003        2.95528        3.68065      143.38626
997.50000      330.47640      129.74588        3.02342        2.98034        3.46944      143.01298
998.00000      332.31677      129.46687        3.05188        2.99977        3.27036      142.27406
998.50000      335.98792      126.44469        3.02342        2.96478        3.46944      141.53642
999.00000      341.49224      121.77719        2.99067        2.93613        3.77506      140.06625
999.50000      345.16338      120.12707        2.95154        2.90213        3.77506      139.69297
1000.00000      348.62376      119.44975        2.91957        2.87385        3.71185      139.44994
1000.50000      349.54599      118.34307        2.85715        2.80245        3.41136      137.97437
1001.00000      349.55079      117.51259        2.80932        2.74230        2.95528      136.66523
1001.50000      355.97759      116.40591        2.76999        2.69320        2.73906      136.05938
1002.00000      364.24165      110.89559        2.70300        2.63540        2.85715      135.44986
1002.50000      377.09044      102.90919        2.63362        2.57884        3.74332      134.94438
1003.00000      387.18695       97.39887        2.57710        2.53245        4.24867      134.08532
1003.50000      402.79044       88.86105        2.51095        2.47162        3.45483      132.97672
1004.00000      409.21723       86.92966        2.44650        2.39966        3.05678      132.05289
1004.50000      415.64403       83.34593        2.39400        2.34143        3.93782      130.94430
1005.00000      422.07083       84.44108        2.34598        2.27326        5.15916      130.21863
1005.50000      431.25232       87.37295        2.32842        2.21790        4.00487      130.28801
1006.00000      434.92683       92.87174        2.30787        2.22823        3.18857      130.35739
1006.50000      434.01421       94.44399        2.30709        2.23841        3.29808      130.41704
1007.00000      429.43187       95.42905        2.33965        2.24712        2.93044      130.49008
1007.50000      421.18223       96.74438        2.37949        2.26234        2.95528      130.58148
1008.00000      413.84761       97.84048        2.42001        2.30320        4.28469      130.68884
1008.50000      408.34784       98.99067        2.45436        2.33787        5.03864      130.81693
1009.00000      402.84808       99.53633        2.49616        2.38472        3.74332      131.32061
