~Version ---------------------------------------------------
VERS. 2.0 : CWLS LOG ASCII STANDARD - VERSION 2.0
WRAP. NO  : One line per depth step
DLM . SPACE : Column Data Section Delimiter
~Well ------------------------------------------------------
STRT.F           48 : START DEPTH
STOP.F       1432.0 : STOP DEPTH
STEP.F          0.5 : STEP
NULL.       -999.25 : NULL VALUE
COMP.                 WALSH & WATTS, INC. : COMPANY
WELL.                         HOWARD F 25 : WELL
FLD .                            MONTAGUE : FIELD
CNTY.                            MONTAGUE : COUNTY
STAT.                               TEXAS : STATE
CTRY.                                 USA : COUNTRY
SEC .                                     : SECTION
TWP .                                     : TOWNSHIP
RGE .                                     : RANGE
LOC . 1115'FEL & 2300'FSL OF THE J.CHAMBLIS SURVEY A-123 : LOCATION
EKB .F                      512 : ELEVATION KELLY BUSHING
EDF .F                      511 : ELEVATION DERRICK FLOOR
EGL .F                      505 : ELEVATION GROUND LEVEL
PDAT.                        GL : PERMANENT DATUM
EPD .                       505 : ELEVATION PERMANENT DATUM
APD .                         7 : ABOVE PERMANENT DATUM
LMF .                        KB : LOG MEASURED FROM
DMF .                        KB : DRILLING MEASURED FROM
API .            42337343120000 : API NUMBER
UWI .                           : UWI NUMBER
DIGC.                     NthDS : DIGITIZING COMPANY
~Params ----------------------------------------------------
SRVC. PIONEER WIRELINE SERVICES : LOGGING COMPANY
LOG .                   CNFD/ML : LOG
DATE.                2010-10-07 : RUN DATE
RUN .                         1 : RUN NUMBER
TDD .F                     1450 : TOTAL DEPTH DRILLER
TDL .F                     1452 : TOTAL DEPTH LOGGER
BOTL.F                     1452 : BOTTOM LOGGED INTERVAL
TOPL.F                       50 : TOP LOGGED INTERVAL
CSGS.IN                         : CASING SIZE
CSGD.F                          : CASING DRILLER
CSGL.F                          : CASING LOGGER
BS  .IN                   7.875 : BIT SIZE
MUD .                  GEL-CHEM : MUD TYPE
MUDD.                           : MUD DENSITY
MUDV.                           : MUD VISCOSITY
PH  .                           : MUD PH
FL  .                           : FLUID LOSS
MUDS.                  FLOWLINE : SOURCE OF SAMPLE
RM  .OHMM                   4.0 : MUD RESISTIVITY
RMT .DEGF                    72 : RM TEMPERATURE
RMF .OHMM                   3.0 : MUD FILTRATE RESISTIVITY
RMFT.DEGF                    72 : RMF TEMPERATURE
RMC .OHMM                   5.0 : MUD CAKE RESISTIVITY
RMCT.DEGF                    72 : RMC TEMPERATURE
RMFS.                      CALC : RMF SOURCE
RMCS.                      CALC : RMC SOURCE
RMBH.OHMM                     3 : MUD RESISTIVITY AT BHT
BHT .DEGF                    88 : BOTTOM HOLE TEMPERATURE
TIMC.           0730 2010-10-07 : TIME CIRCULATION STOPPED
TIML.           1020 2010-10-07 : TIME LOGGER ON BOTTOM
TMAX.DEGF                    88 : MAXIMUM RECORDED TEMPERATURE
UNIT.                      M-19 : EQUIPMENT NUMBER
BASE.                GRAHAM, TX : BASE LOCATION
ENG .                    WENDEL : RECORDED BY
WIT .           WOMBLE/BURLESON : WITNESSED BY
~Curve Information -----------------------------------------
DEPT.F          :DEPTH
CALD.IN         :
DPHI.%          :
GRD.GAPI        :
MINV.OHMM       :
MNOR.OHMM       :
NPHI.%          :
RHOC.G/CC       :
~ASCII ------------------------------------------------------
# ...
608.50000        8.38263       19.22170      111.55391        6.59420        5.86956       24.37706        0.00866
609.00000        8.39159       19.08047      109.36012        6.98550        6.02463       22.90690        0.01588
609.50000        8.40238       18.47027      106.72758        7.76376        7.39130       21.68159        0.02310
610.00000        8.41316       17.85971      104.09504        5.79710        7.24637       20.55183        0.02310
610.50000        8.35722       17.60185      103.65628        3.62319        4.05797       20.38062        0.01949
611.00000        8.29031       17.54777      103.65628        3.56087        3.74782       20.57408        0.01949
611.50000        8.22322       17.74329       99.74861        3.50869        3.48840       20.77740        0.01949
612.00000        8.22468       18.03656       96.49084        4.65217        5.14493       21.07895        0.02671
612.50000        8.24369       18.31118       93.57859        6.60869        8.16376       22.07532        0.02671
613.00000        8.25960       18.46136       97.07493        7.02898        9.42029       23.07169        0.02671
613.50000        8.27843       18.58717      104.47895        6.43913        5.94203       23.04198        0.03754
614.00000        8.29744       18.46605      110.08407        7.03768        5.65217       22.07676        0.05560
614.50000        8.31335       18.39369      111.76231        6.65072        5.54927       21.66607        0.06282
615.00000        8.33236       18.90634      106.06945        6.82608        5.65217       22.92825        0.04838
615.50000        8.34808       19.59618       93.23581        7.43478        6.52174       24.02590        0.04115
616.00000        8.36709       20.42364       76.37110        9.49275        8.80434       22.38889        0.04115
616.50000        8.32779       20.93774       63.89395       11.44927       11.88405       19.11472        0.04838
617.00000        8.24662       21.13948       56.48993       13.33333       20.77245       16.38631        0.05560
617.50000        8.14918       20.92087       55.74679        5.21739        9.56521       16.07007        0.06282
618.00000        8.08227       20.82401       54.84459        5.74927        7.24637       16.71385        0.06282
618.50000        8.07185       21.16615       53.19926        6.43913       10.00000       18.23198        0.06643
619.00000        8.06143       21.76398       55.25593        5.50724        7.56811       19.49709        0.05199
619.50000        8.05283       22.42288       59.14990        5.20290        6.89275       19.49772        0.05199
620.00000        8.08080       22.38695       65.56671        4.94927        6.99275       20.28825        0.05199
620.50000        8.14717       21.51021       71.98353        4.64493        6.52174       22.25353        0.05199
621.00000        8.20256       20.69733       77.33088        5.10145        7.31014       24.98445        0.05199
621.50000        8.26910       19.57379       80.89578        6.11594        6.90869       26.05272        0.04115
622.00000        8.32450       19.33676       83.86561        6.81159        7.53623       24.73905        0.03754
622.50000        8.39104       19.50206       88.76872        7.28261        7.49420       23.87132        0.03393
623.00000        8.41316       19.50283       93.94056        6.37681        6.25217       24.67026        0.05199
623.50000        8.41316       18.95502       96.32630        6.11594        4.97536       25.89588        0.06282
624.00000        8.41316       17.82234       95.72850        6.20290        5.16666       26.07458        0.08448
624.50000        8.41316       16.78715       96.95702        7.27826        5.73188       25.61465        0.07726
625.00000        8.41316       16.25154      101.54202        7.35942        6.20290       26.48598        0.07004
625.50000        8.41316       16.71360      106.12429        7.87391        6.76811       27.43396        0.04115
626.00000        8.41316       17.94837      107.49541        7.82608        7.10145       27.69725        0.03032
626.50000        8.41316       19.18313      104.75318        6.19710        5.65217       24.65110        0.03393
627.00000        8.38300       19.96000       95.25958        6.70869        6.32898       20.60546        0.05560
627.50000        8.29269       20.43827       83.87110        7.13623        7.14348       19.03389        0.06282
628.00000        8.20238       20.91655       77.65995        9.75217       10.57971       20.31948        0.05921
628.50000        8.11152       21.00969       79.52466        9.82608       12.21594       21.92632        0.05921
629.00000        7.97441       20.42545       90.78974        5.07246        5.79710       23.72415        0.08448
629.50000        7.88848       18.88533      100.17639        5.65217        6.08695       24.87080        0.12137
630.00000        7.92139       17.03711      105.41405        6.37681        6.47971       25.87485        0.14946
630.50000        8.04058       15.90174      107.64074        6.37681        5.92174       26.47256        0.13982
631.00000        8.21207       15.26888      109.49449        6.60869        5.36232       25.07918        0.11336
631.50000        8.26088       15.26562      110.45701        6.34782        5.43478       23.39793        0.10614
632.00000        8.30951       15.47247      107.54202        7.01159        5.68116       22.81369        0.08809
632.50000        8.35027       16.22278      104.56945        6.55797        6.26087       24.17459        0.07004
633.00000        8.33492       16.85864       99.49632        7.18840        5.79710       24.87358        0.06643
633.50000        8.31152       16.91120       94.64257        6.19565        5.79710       23.07509        0.07365
634.00000        8.28355       16.55694       88.81534        6.89855        5.53043       21.40371        0.07365
634.50000        8.25539       16.42961       82.98810        6.50869        5.21014       20.47797        0.07726
635.00000        8.23199       16.86913       78.67731        5.91594        4.94348       20.06837        0.05921
635.50000        8.20402       18.09731       74.48993        6.05652        5.44927       19.87828        0.04838
636.00000        8.18062       19.44309       70.99907        6.73913        6.78261       20.04126        0.03754
636.50000        8.15722       21.05774       66.81169        7.30869        7.89420       20.04202        0.03393
637.00000        8.15722       22.31225       64.71662        6.14492        7.27101       20.08593        0.03393
637.50000        8.15722       23.56639       68.97530        6.47391        7.59855       21.35786        0.03754
638.00000        8.17806       24.20431       75.36196        5.20145        6.37681       26.00211        0.04838
638.50000        8.19561       23.93707       80.68737        3.11594        3.73913       29.88292        0.07004
639.00000        8.21645       22.40061       83.08956        3.75652        3.78840       29.94621        0.12780
639.50000        8.21810       19.83722       78.15355        4.82753        5.55507       23.98272        0.15307
640.00000        8.18775       18.10113       74.04020        5.50724        6.95652       18.60569        0.16390
640.50000        8.15119       17.80208       69.10419        5.57971        6.08695       17.84595        0.14224
641.00000        8.11042       19.07986       63.43600        5.64058        5.89420       18.57785        0.05921
641.50000        8.05978       21.65318       55.66726        5.97536        6.06666       18.96764        0.03393
642.00000        8.03163       23.86637       46.34368        6.37681        7.10145       18.86859        0.04476
642.50000        8.03565       24.77755       44.97257        8.65362       12.02898       19.37234        0.05199
643.00000        8.04040       24.74930       48.85282        7.24637       11.44927       20.44549        0.05199
