~Version ---------------------------------------------------
VERS. 2.0 : CWLS LOG ASCII STANDARD - VERSION 2.0
WRAP. NO  : One line per depth step
DLM . SPACE : Column Data Section Delimiter
~Well ------------------------------------------------------
STRT.F           48 : START DEPTH
STOP.F       1432.0 : STOP DEPTH
STEP.F          0.5 : STEP
NULL.       -999.25 : NULL VALUE
COMP.                 WALSH & WATTS, INC. : COMPANY
WELL.                         HOWARD F 25 : WELL
FLD .                            MONTAGUE : FIELD
CNTY.                            MONTAGUE : COUNTY
STAT.                               TEXAS : STATE
CTRY.                                 USA : COUNTRY
SEC .                                     : SECTION
TWP .                                     : TOWNSHIP
RGE .                                     : RANGE
LOC . 1115'FEL & 2300'FSL OF THE J.CHAMBLIS SURVEY A-123 : LOCATION
EKB .F                      512 : ELEVATION KELLY BUSHING
EDF .F                      511 : ELEVATION DERRICK FLOOR
EGL .F                      505 : ELEVATION GROUND LEVEL
PDAT.                        GL : PERMANENT DATUM
EPD .                       505 : ELEVATION PERMANENT DATUM
APD .                         7 : ABOVE PERMANENT DATUM
LMF .                        KB : LOG MEASURED FROM
DMF .                        KB : DRILLING MEASURED FROM
API .            42337343120000 : API NUMBER
UWI .                           : UWI NUMBER
DIGC.                     NthDS : DIGITIZING COMPANY
~Params ----------------------------------------------------
SRVC. PIONEER WIRELINE SERVICES : LOGGING COMPANY
LOG .                   CNFD/ML : LOG
DATE.                2010-10-07 : RUN DATE
RUN .                         1 : RUN NUMBER
TDD .F                     1450 : TOTAL DEPTH DRILLER
TDL .F                     1452 : TOTAL DEPTH LOGGER
BOTL.F                     1452 : BOTTOM LOGGED INTERVAL
TOPL.F                       50 : TOP LOGGED INTERVAL
CSGS.IN                         : CASING SIZE
CSGD.F                          : CASING DRILLER
CSGL.F                          : CASING LOGGER
BS  .IN                   7.875 : BIT SIZE
MUD .                  GEL-CHEM : MUD TYPE
MUDD.                           : MUD DENSITY
MUDV.                           : MUD VISCOSITY
PH  .                           : MUD PH
FL  .                           : FLUID LOSS
MUDS.                  FLOWLINE : SOURCE OF SAMPLE
RM  .OHMM                   4.0 : MUD RESISTIVITY
RMT .DEGF                    72 : RM TEMPERATURE
RMF .OHMM                   3.0 : MUD FILTRATE RESISTIVITY
RMFT.DEGF                    72 : RMF TEMPERATURE
RMC .OHMM                   5.0 : MUD CAKE RESISTIVITY
RMCT.DEGF                    72 : RMC TEMPERATURE
RMFS.                      CALC : RMF SOURCE
RMCS.                      CALC : RMC SOURCE
RMBH.OHMM                     3 : MUD RESISTIVITY AT BHT
BHT .DEGF                    88 : BOTTOM HOLE TEMPERATURE
TIMC.           0730 2010-10-07 : TIME CIRCULATION STOPPED
TIML.           1020 2010-10-07 : TIME LOGGER ON BOTTOM
TMAX.DEGF                    88 : MAXIMUM RECORDED TEMPERATURE
UNIT.                      M-19 : EQUIPMENT NUMBER
BASE.                GRAHAM, TX : BASE LOCATION
ENG .                    WENDEL : RECORDED BY
WIT .           WOMBLE/BURLESON : WITNESSED BY
~Curve Information -----------------------------------------
DEPT.F          :DEPTH
CALD.IN         :
DPHI.%          :
GRD.GAPI        :
MINV.OHMM       :
MNOR.OHMM       :
NPHI.%          :
RHOC.G/CC       :
~ASCII ------------------------------------------------------
# ...
153.50000        8.88654       21.37977       83.78374        4.96377        5.36232       29.45470        0.14320
154.00000        8.91345       21.81092       82.91330        5.39130        5.84492       29.86224        0.12084
154.50000        8.94545       22.90995       82.30838        5.00000        5.90000       29.86339        0.11636
155.00000        8.86218       24.00898       82.17151        4.81884        5.34203       29.86435        0.11636
155.50000        8.76218       24.92484       80.00089        5.89420        6.68695       29.86550        0.10502
156.00000        8.81564       26.02387       76.82571        4.49275        6.14203       29.86665        0.10738
156.50000        8.88600       26.26033       74.17882        4.70000        6.14492       29.26121        0.12269
157.00000        8.97018       25.89021       74.17882        4.88551        7.62319       27.16614        0.14105
157.50000        9.04054       24.25588       75.54743        5.21739        8.05217       24.26759        0.16364
158.00000        8.92473       20.91948       78.09579        5.65217        7.97101       21.36905        0.19302
158.50000        8.72727       18.53894       81.63228        9.03333       11.32898       19.99070        0.19484
159.00000        8.54545       15.77104       84.58027       10.82173       15.07246       23.61486        0.19636
159.50000        8.35909       15.42563       88.11677       10.14492       13.01449       26.52539        0.12818
160.00000        8.23036       17.06628       91.06476       10.06521       12.26086       26.70330        0.09575
160.50000        8.11509       18.67746       93.77735       10.13188       12.91304       25.65542        0.08364
161.00000        8.29091       19.06287       96.07662        8.21304       11.38695       23.87544        0.09818
161.50000        8.47273       19.08232       97.99268        6.01449        9.40000       25.15745        0.11273
162.00000        8.69091       18.94202       97.65053        5.28985        8.40579       28.23266        0.10855
162.50000        8.87273       18.97464       94.66421        6.59420        8.69565       28.52639        0.10349
163.00000        9.09091       19.54559       88.78739        4.20290        6.48550       27.43881        0.09931
163.50000        9.10709       20.51378       82.90783        4.58551        5.97391       26.74993        0.09425
164.00000        9.08691       21.67539       78.01093        4.26811        6.05072       28.15637        0.10062
164.50000        9.06254       22.21413       75.47352        4.20290        5.59855       28.76867        0.12484
165.00000        9.03636       22.33073       73.35765        5.07246        5.96087       27.58026        0.15393
165.50000        9.00000       21.79502       72.01367        5.99420        6.52174       22.42118        0.17018
166.00000        8.85654       21.23789       70.89414        7.25942        7.39130       20.04359        0.18327
166.50000        8.73691       20.48040       71.57845        7.27536        8.26087       21.23392        0.18127
167.00000        8.59327       19.99793       74.79469        6.76811        7.59420       22.99863        0.17705
167.50000        8.55909       19.53797       79.01549        6.66666        7.30145       26.44566        0.16364
168.00000        8.58636       19.49264       84.12316        6.66666        7.26521       29.89232        0.14545
168.50000        8.61364       20.05791       87.59122        6.66666        7.32319       29.93007        0.12364
169.00000        8.63636       20.89638       86.67425        6.66666        7.38116       26.66776        0.10764
169.50000        8.60654       21.73448       84.83757        7.47826        8.64058       23.40582        0.11662
170.00000        8.58182       21.45584       83.30746        6.95652       10.51304       21.58905        0.15007
170.50000        8.71927       20.61858       80.39505        8.11594       13.26086       23.09576        0.18353
171.00000        8.85654       20.17123       77.62772        9.71014       15.60434       23.42957        0.18909
171.50000        8.97109       21.09204       78.78283        9.34782       15.65217       22.74069        0.15273
172.00000        9.10836       23.25492       82.73812        6.63043       10.57971       21.91441        0.13091
172.50000        9.19382       24.77846       86.03648        6.17826        9.68550       25.47049        0.15029
173.00000        9.15654       23.65556       89.99177        5.36232        7.53623       29.90305        0.19600
173.50000        9.11927       21.24283       92.20618        6.08695        7.68116       29.90420        0.19509
174.00000        9.08818       18.58070       92.29104        5.58985        6.88405       29.90516        0.19400
174.50000        9.05091       17.00583       91.14961        9.40000       11.01449       27.46645        0.19309
175.00000        9.02000       15.85402       91.14961        9.97101       13.04347       25.02792        0.16182
175.50000        8.98273       15.69414       93.09578       11.10144       10.00000       23.40036        0.11545
176.00000        8.94545       16.72547       96.35034       10.30434       12.60869       22.99273        0.07684
176.50000        8.96200       18.45578      100.45618        6.91304        8.93768       23.89541        0.04789
177.00000        8.98182       21.62871      105.38319        5.07246        6.74782       26.67274        0.03880
177.50000        9.11400       23.67045      107.84669        3.97681        5.68406       29.45006        0.07127
178.00000        9.27273       24.33270      104.11312        5.23333        6.18406       29.91378        0.12364
178.50000        9.30545       23.63084      100.27279        5.73913        6.60434       29.91493        0.15091
179.00000        9.34545       22.43621       96.62407        6.37681        7.46376       29.39952        0.16182
179.50000        9.45454       20.84104       94.02370        4.78261        7.18405       28.69730        0.15273
180.00000        9.45454       20.29306       93.88684        6.90869        7.15942       28.63714        0.14778
180.50000        9.35545       19.87335       94.70801        7.02898       10.86956       27.61653        0.14578
181.00000        9.23327       20.46350       94.00728        6.52174        9.36231       26.76590        0.12825
181.50000        9.03636       21.77223       92.79195        4.67391        7.10145       25.74492        0.10247
182.00000        8.98600       22.95433       89.50728        4.40580        5.21739       24.89465        0.13124
182.50000        8.94400       22.85758       87.37224        6.36232        6.62463       24.15583        0.16429
183.00000        8.80909       21.74511       88.53009        7.39130        7.68116       25.24003        0.16364
183.50000        8.63182       20.81800       90.89779        6.66666        7.68116       29.34013        0.13524
184.00000        8.48400       20.37487       91.00180        5.92029        7.27971       29.92662        0.10113
184.50000        8.56564       21.33191       91.12772        5.78550        6.87826       29.92777        0.07029
185.00000        8.67091       22.12920       93.33940        5.67391        7.15942       26.47260        0.05818
185.50000        8.76909       23.08623       94.43429        6.74782        7.12608       23.60773        0.08000
186.00000        8.91364       22.88245       89.88502        6.58550        7.17826       23.98142        0.09818
186.50000        8.89345       22.55404       86.09670        6.01449        7.29420       25.33150        0.11465
187.00000        8.87054       22.28438       85.12772        6.44927        7.57246       26.45632        0.10447
187.50000        8.89727       22.16347       89.23356        6.44927        7.77826       27.80640        0.09600
188.00000        8.92945       21.82684       94.16056        7.10145        7.50724       28.30672        0.09964
