~Version ---------------------------------------------------
VERS. 2.0 : CWLS LOG ASCII STANDARD - VERSION 2.0
WRAP. NO  : One line per depth step
DLM . SPACE : Column Data Section Delimiter
~Well ------------------------------------------------------
STRT.F           40 : START DEPTH
STOP.F       1284.0 : STOP DEPTH
STEP.F          0.5 : STEP
NULL.       -999.25 : NULL VALUE
COMP.                 WALSH & WATTS, INC. : COMPANY
WELL.                         HOWARD G 17 : WELL
FLD .             MONTAGUE COUNTY REGULAR : FIELD
CNTY.                            MONTAGUE : COUNTY
STAT.                               TEXAS : STATE
CTRY.                                 USA : COUNTRY
SEC .                                     : SECTION
TWP .                                     : TOWNSHIP
RGE .                                     : RANGE
LOC . 520'FNL & 4250'FEL OF THE J.CHAMBLIS SURVEY, A-123 : LOCATION
EKB .F                      519 : ELEVATION KELLY BUSHING
EDF .F                      518 : ELEVATION DERRICK FLOOR
EGL .F                      512 : ELEVATION GROUND LEVEL
PDAT.                        GL : PERMANENT DATUM
EPD .                       512 : ELEVATION PERMANENT DATUM
APD .                         7 : ABOVE PERMANENT DATUM
LMF .                        KB : LOG MEASURED FROM
DMF .                        KB : DRILLING MEASURED FROM
API .            42337343900000 : API NUMBER
UWI .                           : UWI NUMBER
DIGC.                     NthDS : DIGITIZING COMPANY
~Params ----------------------------------------------------
SRVC. PIONEER WIRELINE SERVICES : LOGGING COMPANY
LOG .                      DIFL : LOG
DATE.                2010-10-13 : RUN DATE
RUN .                         1 : RUN NUMBER
TDD .F                     1298 : TOTAL DEPTH DRILLER
TDL .F                     1280 : TOTAL DEPTH LOGGER
BOTL.F                     1280 : BOTTOM LOGGED INTERVAL
TOPL.F                       50 : TOP LOGGED INTERVAL
CSGS.IN                         : CASING SIZE
CSGD.F                          : CASING DRILLER
CSGL.F                          : CASING LOGGER
BS  .IN                   7.875 : BIT SIZE
MUD .                  GEL-CHEM : MUD TYPE
MUDD.                           : MUD DENSITY
MUDV.                           : MUD VISCOSITY
PH  .                           : MUD PH
FL  .                           : FLUID LOSS
MUDS.                  FLOWLINE : SOURCE OF SAMPLE
RM  .OHMM                   3.6 : MUD RESISTIVITY
RMT .DEGF                    72 : RM TEMPERATURE
RMF .OHMM                   2.7 : MUD FILTRATE RESISTIVITY
RMFT.DEGF                    72 : RMF TEMPERATURE
RMC .OHMM                   4.5 : MUD CAKE RESISTIVITY
RMCT.DEGF                    72 : RMC TEMPERATURE
RMFS.                      CALC : RMF SOURCE
RMCS.                      CALC : RMC SOURCE
RMBH.OHMM                   3.0 : MUD RESISTIVITY AT BHT
BHT .DEGF                    85 : BOTTOM HOLE TEMPERATURE
TIMC.           0245 2010-10-13 : TIME CIRCULATION STOPPED
TIML.           0540 2010-10-13 : TIME LOGGER ON BOTTOM
TMAX.DEGF                    85 : MAXIMUM RECORDED TEMPERATURE
UNIT.                      M-19 : EQUIPMENT NUMBER
BASE.             GRAHAM, TEXAS : BASE LOCATION
ENG .                    WENDEL : RECORDED BY
WIT .           WOMBLE/BURLESON : WITNESSED BY
~Curve Information -----------------------------------------
DEPT.F          :DEPTH
CILD.MMHO       :
GRR.GAPI        :
RILD.OHMM       :
RILM.OHMM       :
RSFL.OHMM       :
SP.MV           :
~ASCII ------------------------------------------------------
# ...
601.00000      167.92197       77.27642        5.88184        6.47770        7.83179      162.92156
601.50000      169.90942       70.75440        5.84436        7.16133       11.76915      162.81848
602.00000      168.25321       73.23237        5.80182        7.10574       21.30378      162.56738
602.50000      166.26576       79.82378        5.86218        6.37558       16.36010      161.98852
603.00000      167.25949       89.56518        5.91559        5.96732       10.77671      161.77971
603.50000      171.23438      100.44051        5.72986        5.78277        7.60484      163.25989
604.00000      178.07783      105.66012        5.57230        5.62616        7.12307      163.17266
604.50000      186.35886      103.87994        5.39734        5.45216        7.04329      162.46693
605.00000      190.89024      101.18589        5.28258        5.34958        7.46857      161.85108
605.50000      190.89024      100.34139        5.25052        5.27358        7.98586      161.67398
606.00000      187.13396      102.37333        5.25788        5.26877        8.07729      161.67398
606.50000      182.16534      106.30241        5.36817        5.36850        8.10192      161.67398
607.00000      177.19672      107.15879        5.49716        5.48479        8.18123      161.67398
607.50000      174.01681      104.64316        5.61281        5.58860        8.25125      161.07927
608.00000      174.41430      100.83699        5.74768        5.74453        8.43204      160.12773
608.50000      175.11653       99.95483        5.88578        5.90480        8.61626      159.29513
609.00000      175.96451       99.44932        5.80712        6.04889        9.13707      158.19821
609.50000      176.40174       99.44932        5.68123        5.90912        9.81464      157.10130
610.00000      176.00425       99.44932        5.59712        5.78947        9.08438      156.14183
610.50000      175.60677       98.43038        5.66568        5.65569        8.09108      155.36738
611.00000      175.20928       91.83699        5.68469        5.76309        7.71678      154.97090
611.50000      180.17789       74.22356        5.60223        5.99463        7.06907      154.51892
612.00000      185.14651       55.04405        5.52097        6.23585       10.13340      154.12244
612.50000      190.11513       48.70043        5.45083        6.38957       16.13360      153.76561
613.00000      194.42127       51.10902        5.37177        6.04889       18.88449      153.44050
613.50000      198.39616       55.31563        5.23329        5.79652       14.74258      153.15504
614.00000      206.53807       60.22004        5.01068        5.52097       11.62955      152.95152
614.50000      216.75355       62.10131        4.79753        5.17373        8.71598      152.84579
615.00000      224.17336       63.59603        4.61842        4.88804        7.08630      151.99998
615.50000      225.98194       64.68633        4.50319        4.59933        6.48914      151.66694
616.00000      227.78389       67.03744        4.44707        4.36074        6.05736      151.36562
616.50000      229.59246       69.58479        4.38390        4.19793        5.96369      151.18852
617.00000      228.53912       71.13699        4.32136        4.19793        6.31878      151.80702
617.50000      226.88291       72.90528        4.28912        4.21740        6.83212      152.72685
618.00000      221.05969       74.43171        4.40101        4.37536        6.95593      153.72332
618.50000      215.24309       73.94602        4.50155        4.51884        7.06606      154.23610
619.00000      209.41987       71.05373        4.61926        4.68839        7.82083      154.53742
619.50000      203.60328       68.52422        4.73976        4.86430       10.33590      154.80174
620.00000      199.72113       69.03171        4.82154        5.02350       11.18718      154.80174
620.50000      200.71485       71.49779        4.90444        5.27166        8.87663      154.40526
621.00000      203.69602       77.50241        4.97814        5.51761        8.06501      153.34799
621.50000      217.60816       82.66453        4.85838        5.81242        8.40334      152.42288
622.00000      231.52029       86.13963        4.60690        6.08323        8.81631      150.78940
622.50000      250.15592       85.17620        4.27296        5.82234        8.82974      148.96297
623.00000      278.22531       79.62554        3.96323        5.24924        8.30164      147.36385
623.50000      306.30131       68.32598        3.71057        4.60522        7.36382      147.22377
624.00000      324.13534       54.44933        3.38488        3.85495        6.42116      147.31363
624.50000      336.85501       44.11321        3.04854        3.25077        7.76390      147.47751
625.00000      331.11128       41.11784        3.02819        2.89568       10.51232      148.00614
625.50000      325.37419       39.13546        3.05653        2.70811        7.47995      148.60879
626.00000      319.63046       37.38105        3.08176        2.78333        5.65707      149.04491
626.50000      319.13360       37.24229        3.12655        3.18030       11.51541      149.18236
627.00000      303.06840       40.28920        3.19524        3.58336       33.09009      149.33830
627.50000      288.49378       47.82224        3.38282        3.72324       40.79177      149.47575
628.00000      273.91917       68.15550        3.58140        3.69142       15.27896      149.91187
628.50000      244.76994       83.63986        3.76473        3.74803        6.97502      150.72861
629.00000      239.91394       94.07708        3.98597        4.07008        4.39860      152.19557
629.50000      243.22636       95.50439        4.05228        4.33295        4.65568      153.87134
630.00000      246.53877       89.41056        4.01300        4.57142        6.91582      155.33830
630.50000      245.84979       80.91409        4.04095        4.59010        9.18839      157.10923
631.00000      237.15139       77.41717        4.12748        4.49169       10.14884      158.79028
631.50000      228.45962       80.61673        4.21586        4.41470        8.33050      160.08808
632.00000      221.58305       90.13215        4.29461        4.46497        7.44587      161.29601
632.50000      221.58305       96.79294        4.38657        4.51967        6.65275      162.28984
633.00000      223.23926      100.32157        4.46851        4.54561        6.59589      160.35240
633.50000      229.95021      103.01761        4.46633        4.56391        6.90740      160.27310
634.00000      235.16394      106.50659        4.36871        4.50374        6.65842      160.18059
634.50000      240.38431      112.26937        4.28468        4.45167        6.29765      160.08808
635.00000      244.39232      113.10593        4.19103        4.36286        6.16563      161.29072
635.50000      247.79748      110.41782        4.11067        4.21073        6.22902      162.66517
636.00000      252.38849      107.85461        4.02058        4.04316        6.05331      163.55328
636.50000      259.34455      109.58324        3.93677        3.97313        5.93616      163.67222
637.00000      262.09386      110.81430        3.86623        3.92409        6.17051      163.77266
637.50000      264.84978      110.11849        3.78726        3.86859        6.29804      163.57178
638.00000      267.59909      107.37884        3.71939        3.77873        6.20328      163.32332
638.50000      270.35501      109.30571        3.67841        3.66009        5.99135      162.33213
639.00000      270.73925      111.50813        3.69637        3.54517        5.96659      160.84403
639.50000      269.94427      112.13655        3.71215        3.44769        5.86289      159.54623
640.00000      256.69462      108.38787        3.73028        3.46325        5.50989      158.05812
640.50000      239.13884      106.11805        3.83249        3.56161        5.48746      156.76033
