~Version ---------------------------------------------------
VERS. 2.0 : CWLS LOG ASCII STANDARD - VERSION 2.0
WRAP. NO  : One line per depth step
DLM . SPACE : Column Data Section Delimiter
~Well ------------------------------------------------------
STRT.F           48 : START DEPTH
STOP.F       1439.0 : STOP DEPTH
STEP.F          0.5 : STEP
NULL.       -999.25 : NULL VALUE
COMP.                 WALSH & WATTS, INC. : COMPANY
WELL.                         HOWARD F 14 : WELL
FLD .             MONTAGUE COUNTY REGULAR : FIELD
CNTY.                            MONTAGUE : COUNTY
STAT.                               TEXAS : STATE
CTRY.                                 USA : COUNTRY
SEC .                                     : SECTION
TWP .                                     : TOWNSHIP
RGE .                                     : RANGE
LOC . 1430'FEL & 2600'FSL OF THE J.CHAMBLIS SURVEY A-123 : LOCATION
EKB .F                      849 : ELEVATION KELLY BUSHING
EDF .F                      848 : ELEVATION DERRICK FLOOR
EGL .F                      841 : ELEVATION GROUND LEVEL
PDAT.                        GL : PERMANENT DATUM
EPD .                       841 : ELEVATION PERMANENT DATUM
APD .                         8 : ABOVE PERMANENT DATUM
LMF .                        KB : LOG MEASURED FROM
DMF .                        KB : DRILLING MEASURED FROM
API .            42337351020000 : API NUMBER
UWI .                           : UWI NUMBER
DIGC.                     NthDS : DIGITIZING COMPANY
~Params ----------------------------------------------------
SRVC.                   PIONEER : LOGGING COMPANY
LOG .                      CNFD : LOG
DATE.                2013-08-01 : RUN DATE
RUN .                         1 : RUN NUMBER
TDD .F                     1450 : TOTAL DEPTH DRILLER
TDL .F                     1449 : TOTAL DEPTH LOGGER
BOTL.F                     1429 : BOTTOM LOGGED INTERVAL
TOPL.F                       50 : TOP LOGGED INTERVAL
CSGS.IN                         : CASING SIZE
CSGD.F                          : CASING DRILLER
CSGL.F                          : CASING LOGGER
BS  .IN                   7.875 : BIT SIZE
MUD .                       GEL : MUD TYPE
MUDD.                       9.2 : MUD DENSITY
MUDV.                        75 : MUD VISCOSITY
PH  .                           : MUD PH
FL  .                           : FLUID LOSS
MUDS.                  FLOWLINE : SOURCE OF SAMPLE
RM  .OHMM                   2.8 : MUD RESISTIVITY
RMT .DEGF                    72 : RM TEMPERATURE
RMF .OHMM                   2.1 : MUD FILTRATE RESISTIVITY
RMFT.DEGF                    72 : RMF TEMPERATURE
RMC .OHMM                   3.5 : MUD CAKE RESISTIVITY
RMCT.DEGF                    72 : RMC TEMPERATURE
RMFS.                      CALC : RMF SOURCE
RMCS.                      CALC : RMC SOURCE
RMBH.OHMM                   2.3 : MUD RESISTIVITY AT BHT
BHT .DEGF                    87 : BOTTOM HOLE TEMPERATURE
TIMC.           0130 2018-08-01 : TIME CIRCULATION STOPPED
TIML.           0400 2018-08-01 : TIME LOGGER ON BOTTOM
TMAX.DEGF                    87 : MAXIMUM RECORDED TEMPERATURE
UNIT.                     C-052 : EQUIPMENT NUMBER
BASE.                GRAHAM, TX : BASE LOCATION
ENG .                    WENDEL : RECORDED BY
WIT .                  BURLESON : WITNESSED BY
~Curve Information -----------------------------------------
DEPT.F          :DEPTH
CALD.IN         :
DPHI.%          :
GRD.GAPI        :
MINV.OHMM       :
MNOR.OHMM       :
NPHI.%          :
RHOC.G/CC       :
~ASCII ------------------------------------------------------
# ...
678.50000        8.84404       20.35564       97.15594        8.78744       11.18743       19.52264        0.01149
679.00000        8.84404       21.02475       88.34860        8.83704        8.86177       19.18424        0.01156
679.50000        8.84404       20.83410       89.17429        7.14166        7.72347       19.71842        0.01164
680.00000        8.84404       20.18809       94.12842        6.21236        6.29454       19.88084        0.01472
680.50000        8.84404       19.24070       98.25686        5.79915        5.57369       19.02548        0.01844
681.00000        8.84404       18.45096      102.11007        5.74984        5.72802       18.65005        0.01131
681.50000        8.84404       18.19945      104.58713        5.85299        5.49154       18.94812       -0.00036
682.00000        8.84238       18.09496      105.41282        6.26186        5.52659       19.78295       -0.00415
682.50000        8.84092       18.00037      105.68805        6.05955        5.44574       20.17415        0.00197
683.00000        8.83927       17.90101      107.88988        5.40661        4.81680       19.84418        0.00709
683.50000        8.83798       17.68103      112.29355        4.69886        4.41086       19.90284        0.01288
684.00000        8.83633       17.49771      118.62383        5.70045        4.53682       20.68744        0.01626
684.50000        8.83486       17.49771      121.92658        4.79270        4.44725       21.03575        0.01892
685.00000        8.83321       17.90101      126.88071        5.01248        4.34558       20.54079        0.01535
685.50000        8.83174       18.93822      127.70639        4.87345        4.26618       20.04766        0.01106
686.00000        8.83009       19.80238      123.02750        4.61542        4.17106       19.89734        0.01258
686.50000        8.82881       20.83923      115.32107        4.50766        4.61675       19.44601        0.02881
687.00000        8.82716       21.61467      102.11007        6.10925        6.97760       18.67608        0.05558
687.50000        8.82569       22.11732       89.99998        7.16538        7.94938       16.94776        0.06321
688.00000        8.82073       22.22732       78.44035        9.71215        9.81397       16.03117        0.06795
688.50000        8.81651       21.44271       72.66053        7.89558        9.40466       15.47205        0.07114
689.00000        8.81156       20.30614       72.66053       10.07872       10.26926       15.89661        0.07122
689.50000        8.80734       19.60220       75.68806       19.82570       19.89843       16.57489        0.05787
690.00000        8.81339       20.52246       80.91741        6.88167        7.89985       16.78717        0.03108
690.50000        8.81853       22.95252       82.84402        4.41056        6.28037       16.68854        0.01485
691.00000        8.82459       25.07094       76.23851        6.65406        8.33914       16.30981        0.02464
691.50000        8.82972       27.61283       67.15595        7.17711        7.95311       15.85518        0.02794
692.00000        8.83596       28.75344       55.59632        7.25117        8.17553       15.61870        0.02900
692.50000        8.84092       28.68011       51.46788        7.53350        9.28912       15.59120        0.03405
693.00000        8.84404       28.31347       49.26604        8.78163       10.89071       15.85775        0.03726
693.50000        8.84404       28.16682       52.01834        7.66297        9.28187       16.17782        0.02824
694.00000        8.83908       28.76994       59.72476        6.96613        8.93002       16.25628        0.01741
694.50000        8.83303       29.51017       65.77980        8.61644        8.85862       16.64638        0.01522
695.00000        8.82569       29.74335       67.43118        6.67842        9.05440       17.09441        0.01519
695.50000        8.82569       28.97342       67.70641        8.61938        9.45646       17.09441        0.01785
696.00000        8.82569       28.33181       69.63301        7.06899        7.79189       17.09441        0.02006
696.50000        8.82569       27.94684       70.73393        5.80996        7.08777       17.09441        0.01829
697.00000        8.82569       28.15619       67.70641        7.55701        9.52063       16.86893        0.01316
697.50000        8.82569       28.69844       63.57797        7.34016        8.82742       16.59799        0.00702
698.00000        8.82569       28.24015       63.02751        7.77812        7.99630       16.61778        0.01967
698.50000        8.83266       26.38424       67.98164        6.74019        8.11908       16.95985        0.03487
699.00000        8.87394       23.94501       77.33943        8.16868       10.18103       17.20440        0.03683
699.50000        8.88294       21.01742       82.84402        7.74602        7.81875       17.04308        0.03069
700.00000        8.88569       19.96994       85.59631        5.90275        6.02910       16.77434        0.01589
700.50000        8.89430       19.52294       89.67091        6.00877        5.92212       16.43927        0.01438
701.00000        8.89779       19.49982       93.23581        5.98653        6.08616       16.47340        0.01943
701.50000        8.90055       19.47229       95.97804        5.58208        5.45572       17.47413        0.02554
702.00000        8.90386       18.91009       98.72027        5.63782        5.39738       18.13945        0.03062
702.50000        8.90165       18.07340      100.63983        5.71134        5.63914       17.90642        0.01987
703.00000        8.89743       18.00477      102.28517        5.17142        4.83640       17.55633        0.01091
703.50000        8.89375       18.12844      103.93051        5.02834        4.79946       17.06422        0.00016
704.00000        8.88952       18.40367      105.85007        5.21043        4.97938       16.64220       -0.00381
704.50000        8.88603       18.73395      106.12429        5.23341        5.13305       16.84404       -0.00706
705.00000        8.89706       18.84404      106.94696        4.84511        4.66172       18.27523       -0.00793
705.50000        8.90441       18.97615      110.23764        4.73308        4.37423       20.62385       -0.00568
706.00000        8.90441       19.08624      115.44787        4.56643        4.53394       22.55046       -0.00381
706.50000        8.90441       19.14496      117.09321        4.54682        4.44429       24.00257       -0.00157
707.00000        8.90441       19.07156      115.99632        3.55852        3.26972       23.19009        0.00969
707.50000        8.90441       18.71560      113.25409        4.81399        4.71507       20.09174        0.02602
708.00000        8.90441       18.19560      110.51186        4.97803        4.78236       19.93431        0.02500
708.50000        8.90110       17.77982      109.41497        4.71798        4.58658       20.87817        0.01208
709.00000        8.89265       17.84110      111.06030        4.52679        4.43076       21.85321        0.00518
709.50000        8.88676       18.28147      114.07676        4.66674        4.57649       22.32110       -0.00196
710.00000        8.88879       18.95413      114.89943        4.69866        4.32537       22.55046       -0.00632
710.50000        8.89118       19.54642      114.07676        4.99456        4.38879       21.53211        0.00180
711.00000        8.89320       19.75229      113.80253        4.06619        3.60266       20.84661        0.02076
711.50000        8.89559       18.95413      116.27054        3.67979        3.41265       20.31193        0.04429
712.00000        8.89761       17.85321      119.56122        4.22289        4.02073       20.12844        0.05375
712.50000        8.90000       16.71560      122.85189        4.51302        4.25165       19.90826        0.04028
713.00000        8.90202       16.82569      123.40034        4.39114        4.22580       19.90312        0.01574
