~Version ---------------------------------------------------
VERS. 2.0 : CWLS LOG ASCII STANDARD - VERSION 2.0
WRAP. NO  : One line per depth step
DLM . SPACE : Column Data Section Delimiter
~Well ------------------------------------------------------
STRT.F           11 : START DEPTH
STOP.F       1399.0 : STOP DEPTH
STEP.F          0.5 : STEP
NULL.       -999.25 : NULL VALUE
COMP.                 WALSH & WATTS, INC. : COMPANY
WELL.                      HOWARD AB E 4E : WELL
FLD .             MONTAGUE COUNTY REGULAR : FIELD
CNTY.                            MONTAGUE : COUNTY
STAT.                                     : STATE
CTRY.                                 USA : COUNTRY
SEC .                                     : SECTION
TWP .                                     : TOWNSHIP
RGE .                                     : RANGE
LOC . 3250'FEL & 1590'FSL OF THE J.CHAMBLIS SURVEY A-123 : LOCATION
EKB .F                          : ELEVATION KELLY BUSHING
EDF .F                          : ELEVATION DERRICK FLOOR
EGL .F                          : ELEVATION GROUND LEVEL
PDAT.                        GL : PERMANENT DATUM
EPD .                           : ELEVATION PERMANENT DATUM
APD .                         8 : ABOVE PERMANENT DATUM
LMF .                        KB : LOG MEASURED FROM
DMF .                        KB : DRILLING MEASURED FROM
API .            42337348780000 : API NUMBER
UWI .                           : UWI NUMBER
DIGC.                     NthDS : DIGITIZING COMPANY
~Params ----------------------------------------------------
SRVC. PIONEER WIRELINE SERVICES : LOGGING COMPANY
LOG .                      DIFL : LOG
DATE.                2012-08-01 : RUN DATE
RUN .                         1 : RUN NUMBER
TDD .F                     1400 : TOTAL DEPTH DRILLER
TDL .F                     1396 : TOTAL DEPTH LOGGER
BOTL.F                     1394 : BOTTOM LOGGED INTERVAL
TOPL.F                       50 : TOP LOGGED INTERVAL
CSGS.IN                         : CASING SIZE
CSGD.F                          : CASING DRILLER
CSGL.F                          : CASING LOGGER
BS  .IN                   7.875 : BIT SIZE
MUD .                  CHEM-GEL : MUD TYPE
MUDD.                           : MUD DENSITY
MUDV.                           : MUD VISCOSITY
PH  .                           : MUD PH
FL  .                           : FLUID LOSS
MUDS.                  FLOWLINE : SOURCE OF SAMPLE
RM  .OHMM                   2.4 : MUD RESISTIVITY
RMT .DEGF                    73 : RM TEMPERATURE
RMF .OHMM                   1.8 : MUD FILTRATE RESISTIVITY
RMFT.DEGF                    73 : RMF TEMPERATURE
RMC .OHMM                   3.0 : MUD CAKE RESISTIVITY
RMCT.DEGF                    73 : RMC TEMPERATURE
RMFS.                      CALC : RMF SOURCE
RMCS.                      CALC : RMC SOURCE
RMBH.OHMM                   2.0 : MUD RESISTIVITY AT BHT
BHT .DEGF                    86 : BOTTOM HOLE TEMPERATURE
TIMC.           0200 2012-08-01 : TIME CIRCULATION STOPPED
TIML.           0430 2012-08-01 : TIME LOGGER ON BOTTOM
TMAX.DEGF                    86 : MAXIMUM RECORDED TEMPERATURE
UNIT.                       110 : EQUIPMENT NUMBER
BASE.                GRAHAM, TX : BASE LOCATION
ENG .                    WENDEL : RECORDED BY
WIT .           OVERBY/BURLESON : WITNESSED BY
~Curve Information -----------------------------------------
DEPT.F          :DEPTH
CILD.MMHO       :
GRR.GAPI        :
ILD.OHMM        :
ILM.OHMM        :
SFL.OHMM        :
SP.MV           :
~ASCII ------------------------------------------------------
# ...
652.50000      253.90404      134.89998        4.04448        3.95587        4.15771      150.76531
653.00000      251.91236      136.11998        4.06189        3.96340        4.10070      151.33331
653.50000      251.53293      135.79998        4.00324        3.96559        4.10700      151.42131
654.00000      254.37134      134.99998        3.95271        3.92998        4.17049      151.52265
654.50000      257.20974      137.11598        3.89564        3.88943        4.17049      151.61331
655.00000      260.04815      139.89998        3.90426        3.88395        4.08614      151.72531
655.50000      261.72067      139.99998        3.96462        3.92636        3.98290      151.82398
656.00000      258.76298      134.08998        4.04224        4.02590        3.92227      151.86665
656.50000      251.22170      126.32798        4.17049        4.19616        4.01628      151.86665
657.00000      243.68042      118.66598        4.24797        4.37657        4.20905      152.39998
657.50000      239.27037      112.59998        4.24797        4.56445        4.74990      153.17865
658.00000      241.14276      110.83998        4.18408        4.72461        5.26569      154.24798
658.50000      243.01514      113.74998        4.11230        4.55857        5.28998      155.44798
659.00000      244.88753      122.79998        4.04448        4.38033        4.78060      157.00531
659.50000      246.75992      128.19998        3.93263        4.12848        4.22795      158.53331
660.00000      250.85748      128.67998        3.79047        4.01530        3.80376      159.86665
660.50000      259.40538      124.04998        3.63267        3.88991        3.54459      159.73331
661.00000      270.80035      115.99998        3.47588        3.80376        3.42695      158.88265
661.50000      279.34825      107.54198        3.27201        3.71996        3.41855      157.87731
662.00000      307.66951       94.36398        3.04365        3.65077        3.60668      154.33865
662.50000      335.99076       87.23599        2.77703        3.36444        4.03555      150.94665
663.00000      364.31202       79.97199        2.46173        3.03488        4.57258      147.06665
663.50000      392.63328       73.87199        2.13429        2.61511        4.81446      142.24531
664.00000      449.55762       67.19999        1.95163        2.25866        4.92199      137.19998
664.50000      492.24921       61.39999        1.77729        1.95259        5.04430      133.46665
665.00000      534.94080       57.69399        1.67469        1.78691        5.22546      129.19998
665.50000      594.53002       54.45199        1.64646        1.70110        5.79716      126.08265
666.00000      606.52892       51.55399        1.62219        1.69214        6.40818      122.79998
666.50000      615.38994       49.72399        1.59485        1.71567        6.77203      120.74665
667.00000      622.67203       47.59999        1.57685        1.79923        7.17854      118.77599
667.50000      629.96077       46.79999        1.55762        1.83266        7.20060      117.33332
668.00000      637.24951       47.14999        1.56971        1.78822        6.64362      116.26665
668.50000      644.53826       48.48599        1.59720        1.70256        6.02677      116.13332
669.00000      637.30344       50.19999        1.60654        1.68562        5.70786      116.79999
669.50000      630.06196       55.05399        1.59446        1.67695        5.51133      118.62132
670.00000      626.23818       60.59999        1.58393        1.67428        5.05980      121.46665
670.50000      629.24314       69.38199        1.57202        1.68520        4.43442      124.82665
671.00000      639.57650       78.13399        1.56164        1.70517        3.77122      128.26665
671.50000      649.90986       81.59999        1.54989        1.74915        3.21311      129.73332
672.00000      652.91482       75.28999        1.53975        1.74948        3.12349      128.93332
672.50000      655.91978       67.52799        1.51519        1.71525        3.40871      127.01865
673.00000      664.45668       58.69999        1.48300        1.65802        4.07112      124.49598
673.50000      688.94052       52.53399        1.41048        1.59505        4.99563      122.31198
674.00000      722.46495       49.84999        1.33200        1.50039        6.03899      119.93332
674.50000      755.98271       48.19999        1.27662        1.38875        7.00019      118.53332
675.00000      789.50713       47.35999        1.24506        1.35342        7.30743      118.55732
675.50000      808.31046       47.29999        1.23934        1.32694        7.39449      119.31199
676.00000      802.98769       49.29999        1.28566        1.35135        7.09316      121.02132
676.50000      779.96783       53.18199        1.37089        1.37502        6.51643      124.13332
677.00000      716.23769       56.99999        1.51733        1.39602        5.88065      127.84532
677.50000      652.51421       69.67399        1.72358        1.56884        5.21745      131.94932
678.00000      583.82741       77.53399        1.96063        1.75917        4.60073      135.59998
678.50000      531.42066       85.99999        2.27172        2.04769        3.84294      139.86665
679.00000      452.81387       90.59999        2.66304        2.38193        3.55919      143.43998
679.50000      393.08104       93.73398        3.19346        2.83123        3.46927      146.42665
680.00000      333.35487       93.99998        3.68633        3.32157        3.75551      149.06665
680.50000      293.53299       91.79998        4.12265        4.22665        4.25502      152.26665
681.00000      253.97325       91.06599        4.32531        4.72113        4.69138      154.74665
681.50000      230.66259       92.39998        4.56922        5.11788        5.10659      157.48798
682.00000      219.67696       98.11598        4.69484        5.16965        5.15982      160.35998
682.50000      208.69133      105.19998        4.82333        5.19286        4.96873      163.74664
683.00000      204.14804      110.79998        4.92985        5.23348        4.83221      166.79998
683.50000      202.82258      113.06598        4.99287        5.36353        4.81741      168.04531
684.00000      201.49712      113.59998        5.04895        5.46653        4.92199      168.82664
684.50000      200.05840      112.72798        5.11349        5.49343        5.06757      169.16264
685.00000      198.56638      111.07198        5.13455        5.51708        5.10847      168.89598
685.50000      197.07437      108.39998        5.12794        5.54423        5.12448      168.41864
686.00000      197.08135      108.29998        5.12228        5.55342        5.10659      167.54664
686.50000      197.88778      110.09998        5.11568        5.46318        5.10126      166.69331
687.00000      199.00735      112.22998        5.11004        5.38562        5.06508      166.31998
687.50000      200.76648      114.69198        5.04771        5.23637        4.96233      165.96531
688.00000      202.51895      118.69998        4.94591        5.09157        4.81446      165.83998
688.50000      205.77707      123.69998        4.83221        4.93106        4.62905      165.73331
689.00000      209.78136      127.88798        4.74087        4.81180        4.53542      165.73331
689.50000      217.91852      130.19998        4.63843        4.68621        4.50297      165.81331
690.00000      224.72093      131.14998        4.50076        4.57904        4.50297      165.99998
690.50000      231.52333      131.59998        4.30730        4.42871        4.48918      167.01064
691.00000      238.32574      131.22398        4.14498        4.22328        4.27990      167.89598
691.50000      245.12814      130.19998        4.01160        4.00029        4.05267      169.11198
692.00000      251.49750      130.88798        3.89827        3.88371        3.92227      170.43731
