~Version ---------------------------------------------------
VERS. 2.0 : CWLS LOG ASCII STANDARD - VERSION 2.0
WRAP. NO  : One line per depth step
DLM . SPACE : Column Data Section Delimiter
~Well ------------------------------------------------------
STRT.F         48.5 : START DEPTH
STOP.F       1455.5 : STOP DEPTH
STEP.F          0.5 : STEP
NULL.       -999.25 : NULL VALUE
COMP.                 WALSH & WATTS, INC. : COMPANY
WELL.                         HOWARD F 25 : WELL
FLD .                            MONTAGUE : FIELD
CNTY.                            MONTAGUE : COUNTY
STAT.                               TEXAS : STATE
CTRY.                                 USA : COUNTRY
SEC .                                     : SECTION
TWP .                                     : TOWNSHIP
RGE .                                     : RANGE
LOC . 1115'FEL & 2300'FSL OF THE J.CHAMBLIS SURVEY A-123 : LOCATION
EKB .F                      512 : ELEVATION KELLY BUSHING
EDF .F                      511 : ELEVATION DERRICK FLOOR
EGL .F                      505 : ELEVATION GROUND LEVEL
PDAT.                        GL : PERMANENT DATUM
EPD .                       505 : ELEVATION PERMANENT DATUM
APD .                         7 : ABOVE PERMANENT DATUM
LMF .                        KB : LOG MEASURED FROM
DMF .                        KB : DRILLING MEASURED FROM
API .            42337343120000 : API NUMBER
UWI .                           : UWI NUMBER
DIGC.                     NthDS : DIGITIZING COMPANY
~Params ----------------------------------------------------
SRVC. PIONEER WIRELINE SERVICES : LOGGING COMPANY
LOG .                      DIFL : LOG
DATE.                2010-10-07 : RUN DATE
RUN .                         1 : RUN NUMBER
TDD .F                     1450 : TOTAL DEPTH DRILLER
TDL .F                     1452 : TOTAL DEPTH LOGGER
BOTL.F                     1452 : BOTTOM LOGGED INTERVAL
TOPL.F                       50 : TOP LOGGED INTERVAL
CSGS.IN                         : CASING SIZE
CSGD.F                          : CASING DRILLER
CSGL.F                          : CASING LOGGER
BS  .IN                   7.875 : BIT SIZE
MUD .                  GEL-CHEM : MUD TYPE
MUDD.                           : MUD DENSITY
MUDV.                           : MUD VISCOSITY
PH  .                           : MUD PH
FL  .                           : FLUID LOSS
MUDS.                  FLOWLINE : SOURCE OF SAMPLE
RM  .OHMM                   4.0 : MUD RESISTIVITY
RMT .DEGF                    72 : RM TEMPERATURE
RMF .OHMM                   3.0 : MUD FILTRATE RESISTIVITY
RMFT.DEGF                    72 : RMF TEMPERATURE
RMC .OHMM                   5.0 : MUD CAKE RESISTIVITY
RMCT.DEGF                    72 : RMC TEMPERATURE
RMFS.                      CALC : RMF SOURCE
RMCS.                      CALC : RMC SOURCE
RMBH.OHMM                     3 : MUD RESISTIVITY AT BHT
BHT .DEGF                    88 : BOTTOM HOLE TEMPERATURE
TIMC.           0730 2010-10-07 : TIME CIRCULATION STOPPED
TIML.           1020 2010-10-07 : TIME LOGGER ON BOTTOM
TMAX.DEGF                    88 : MAXIMUM RECORDED TEMPERATURE
UNIT.                      M-19 : EQUIPMENT NUMBER
BASE.                GRAHAM, TX : BASE LOCATION
ENG .                    WENDEL : RECORDED BY
WIT .           WOMBLE/BURLESON : WITNESSED BY
~Curve Information -----------------------------------------
DEPT.F          :DEPTH
CILD.MMHO       :
GRR.GAPI        :
RILD.OHMM       :
RILM.OHMM       :
RSFL.OHMM       :
SP.MV           :
~ASCII ------------------------------------------------------
# ...
609.50000      181.51196      105.06853        5.54193        6.15923        8.82794      148.81167
610.00000      182.02662      103.93051        5.56157        5.96322        8.82638      148.81167
610.50000      179.01516      103.93051        5.59418        5.84523        8.60438      148.81167
611.00000      176.93114      101.55299        5.63394        5.90370        7.70869      148.81167
611.50000      173.79593       98.58316        5.67351        5.99860        7.14343      148.73123
612.00000      174.26467       95.39120        5.63878        6.10964        8.03843      148.24128
612.50000      174.73342       94.37109        5.54339        6.24570        9.75934      147.43324
613.00000      180.25260       99.54294        5.44962        6.16464        9.75790      146.13525
613.50000      182.56268      107.03745        5.43366        5.91878        8.52350      144.84092
614.00000      182.11316      110.78608        5.52520        5.68273        7.96545      143.88662
614.50000      179.06497      110.78608        5.60235        5.76257        7.76511      143.53927
615.00000      176.00760      103.47255        5.69674        5.94586        7.50595      143.25042
615.50000      172.50508       90.04660        5.79271        6.40327        7.76236      142.87383
616.00000      171.59644       74.62430        5.80508        6.88850        9.83077      142.35829
616.50000      170.68779       58.68372        5.76498        7.51931       16.58962      141.93050
617.00000      170.50457       57.18920        5.72517        7.70258       18.66760      141.49905
617.50000      171.29952       55.94149        5.69444        7.70122       14.24586      141.13342
618.00000      171.83254       54.62522        5.65750        7.49843       14.73297      140.76779
618.50000      174.69795       54.15904        5.62666        7.18745       15.89317      140.40216
619.00000      179.87738       56.87384        5.43382        6.49384       12.54516      140.76779
619.50000      187.66029       62.21571        5.24803        5.86717       10.24283      140.40216
620.00000      192.84890       66.97622        5.09793        5.52969        9.25438      141.13342
620.50000      198.02832       72.68554        4.98216        5.39045        8.72180      141.86468
621.00000      201.24267       78.31808        4.90657        5.31853        8.08249      143.32721
621.50000      202.47838       80.89578        4.87983        5.28552        7.55331      144.42410
622.00000      202.48800       85.83179        4.93156        5.26544        7.74568      145.52099
622.50000      202.49761       87.75135        5.02693        5.32681        8.01053      146.61788
623.00000      197.91592       94.60693        5.10746        5.40103        7.42313      146.98351
623.50000      193.03602       95.97804        5.20624        5.47674        6.99594      147.71477
624.00000      192.43040       95.97804        5.20547        5.65684        7.35835      148.08041
624.50000      191.82478       97.34916        5.20455        5.88029        8.00510      148.44604
625.00000      191.22834      101.00455        5.20363        5.91010        8.34900      148.81167
625.50000      189.44297      106.67274        5.20287        5.85165        8.34752      148.81167
626.00000      187.09266      106.12429        5.36926        5.88231        7.60591      148.81167
626.50000      184.74235      102.61972        5.47126        6.07728        7.22918      149.17730
627.00000      182.39203       92.93142        5.47045        6.32054        7.66791      149.17730
627.50000      183.87567       84.85556        5.36386        6.48151        9.12046      148.81167
628.00000      186.82372       76.91954        5.27684        6.24215       12.03451      148.81167
628.50000      189.77178       82.77420        5.25546        5.88490        9.74301      148.81167
629.00000      188.46828       91.84276        5.27497        5.60697        7.58227      148.81167
629.50000      186.51762      101.58316        5.29561        5.60614        7.28317      148.44604
630.00000      185.21413      104.93691        5.32830        5.62743        7.40587      147.71477
630.50000      185.22374      107.56396        5.36120        5.66026        7.59471      147.34914
631.00000      185.23336      108.79796        5.38900        5.68721        7.46624      146.98351
631.50000      183.87039      109.82630        5.43097        5.86216        7.52820      146.98351
632.00000      181.95166      107.44605        5.50262        6.07336        7.85162      146.70929
632.50000      179.02284      103.95519        5.59060        6.33676        8.39872      146.30344
633.00000      176.09402      100.63983        5.67952        6.57818        8.54022      145.88662
633.50000      176.10845       95.77786        5.63665        6.72828        8.68435      145.15536
634.00000      178.56982       90.91863        5.55066        6.91305        9.13395      144.42410
634.50000      182.00455       85.08316        5.39857        6.71059        9.13261      144.42410
635.00000      186.42182       80.22393        5.27480        6.54623        8.53468      144.05847
635.50000      195.15972       75.41132        5.05248        6.22390        8.39031      144.05847
636.00000      203.80099       70.96891        4.83993        5.94617        8.82494      143.32721
636.50000      212.44226       67.95245        4.63372        5.48879        8.82338      142.59595
637.00000      225.40416       66.24404        4.38849        4.93989        8.67412      141.49905
637.50000      234.04543       68.00730        4.23178        4.56044        8.89530      140.40216
638.00000      234.67028       75.50181        4.23103        4.30307        6.96242      139.67090
638.50000      235.28595       82.81534        4.23028        4.47532        4.88312      138.57401
639.00000      236.21864       83.36378        4.21078        4.72905        5.05008      138.20838
639.50000      236.84349       77.82996        4.18169        5.26199        7.19793      137.47712
640.00000      238.68962       73.21753        4.15737        5.53441        8.59284      137.11149
640.50000      239.22265       69.22211        4.15676        5.68704        9.34810      137.47712
641.00000      238.06170       61.51644        4.15603        5.72457        9.91542      137.84275
641.50000      237.28161       54.47988        4.16688        5.75619       10.69656      138.57401
642.00000      239.32058       47.37202        4.16627        5.64784       14.73969      138.93964
642.50000      244.16943       47.02924        4.02722        5.37383       17.01187      138.93964
643.00000      251.44730       50.40218        3.91501        5.04339       12.34111      139.30527
643.50000      256.29615       61.20108        3.84423        4.67357        9.10520      140.03653
644.00000      261.14501       71.11973        3.77442        4.42138        7.30972      140.40216
644.50000      266.03540       83.02375        3.75131        4.22194        6.12112      141.13342
645.00000      266.34804       91.45336        3.75065        4.13059        6.27701      141.86468
645.50000      264.52113       98.81076        3.78625        4.13684        5.86622      142.59595
646.00000      262.53812      101.55299        3.83167        4.21982        5.52862      142.96158
646.50000      259.33863      103.38206        3.88703        4.43829        5.66943      143.69284
647.00000      257.20870      105.43873        3.93332        4.61335        5.91299      144.42410
647.50000      255.07877      105.39212        3.94893        4.75487        6.59770      144.78973
648.00000      252.93965      103.93051        3.95624        4.81746        6.82309      145.15536
648.50000      250.80972       93.57585        3.96234        4.80092        6.37656      145.52099
649.00000      249.90589       84.94331        3.96967        4.77743        6.59440      145.52099
