~Version ---------------------------------------------------
VERS. 2.0 : CWLS LOG ASCII STANDARD - VERSION 2.0
WRAP. NO  : One line per depth step
DLM . SPACE : Column Data Section Delimiter
~Well ------------------------------------------------------
STRT.F           11 : START DEPTH
STOP.F       1368.0 : STOP DEPTH
STEP.F          0.5 : STEP
NULL.       -999.25 : NULL VALUE
COMP.                 WALSH & WATTS, INC. : COMPANY
WELL.                      HOWARD AB E 4E : WELL
FLD .             MONTAGUE COUNTY REGULAR : FIELD
CNTY.                            MONTAGUE : COUNTY
STAT.                                     : STATE
CTRY.                                 USA : COUNTRY
SEC .                                     : SECTION
TWP .                                     : TOWNSHIP
RGE .                                     : RANGE
LOC . 3250'FEL & 1590'FSL OF THE J.CHAMBLIS SURVEY A-123 : LOCATION
EKB .F                          : ELEVATION KELLY BUSHING
EDF .F                          : ELEVATION DERRICK FLOOR
EGL .F                          : ELEVATION GROUND LEVEL
PDAT.                        GL : PERMANENT DATUM
EPD .                           : ELEVATION PERMANENT DATUM
APD .                         8 : ABOVE PERMANENT DATUM
LMF .                        KB : LOG MEASURED FROM
DMF .                        KB : DRILLING MEASURED FROM
API .            42337348780000 : API NUMBER
UWI .                           : UWI NUMBER
DIGC.                     NthDS : DIGITIZING COMPANY
~Params ----------------------------------------------------
SRVC. PIONEER WIRELINE SERVICES : LOGGING COMPANY
LOG .                      CNFD : LOG
DATE.                2012-08-01 : RUN DATE
RUN .                         1 : RUN NUMBER
TDD .F                     1400 : TOTAL DEPTH DRILLER
TDL .F                     1396 : TOTAL DEPTH LOGGER
BOTL.F                     1368 : BOTTOM LOGGED INTERVAL
TOPL.F                       50 : TOP LOGGED INTERVAL
CSGS.IN                         : CASING SIZE
CSGD.F                          : CASING DRILLER
CSGL.F                          : CASING LOGGER
BS  .IN                   7.875 : BIT SIZE
MUD .                  CHEM-GEL : MUD TYPE
MUDD.                           : MUD DENSITY
MUDV.                           : MUD VISCOSITY
PH  .                           : MUD PH
FL  .                           : FLUID LOSS
MUDS.                  FLOWLINE : SOURCE OF SAMPLE
RM  .OHMM                   2.4 : MUD RESISTIVITY
RMT .DEGF                    73 : RM TEMPERATURE
RMF .OHMM                   1.8 : MUD FILTRATE RESISTIVITY
RMFT.DEGF                    73 : RMF TEMPERATURE
RMC .OHMM                   3.0 : MUD CAKE RESISTIVITY
RMCT.DEGF                    73 : RMC TEMPERATURE
RMFS.                      CALC : RMF SOURCE
RMCS.                      CALC : RMC SOURCE
RMBH.OHMM                   2.0 : MUD RESISTIVITY AT BHT
BHT .DEGF                    86 : BOTTOM HOLE TEMPERATURE
TIMC.           0200 2012-08-01 : TIME CIRCULATION STOPPED
TIML.           0430 2012-08-01 : TIME LOGGER ON BOTTOM
TMAX.DEGF                    86 : MAXIMUM RECORDED TEMPERATURE
UNIT.                       110 : EQUIPMENT NUMBER
BASE.                GRAHAM, TX : BASE LOCATION
ENG .                    WENDEL : RECORDED BY
WIT .           OVERBY/BURLESON : WITNESSED BY
~Curve Information -----------------------------------------
DEPT.F          :DEPTH
CALD.IN         :
DPHI.V/V        :
GRD.GAPI        :
NPHI.%          :
PEC.B/E         :
RLML.OHMM       :
RNML.OHMM       :
ZCOR.G/C3       :
~ASCII ------------------------------------------------------
11.00000        -999.25        -999.25      148.62652        -999.25        -999.25        -999.25        -999.25        -999.25
11.50000        -999.25        -999.25      134.12611        -999.25        -999.25        -999.25        -999.25        -999.25
12.00000        -999.25        -999.25      115.94454        -999.25        -999.25        -999.25        -999.25        -999.25
12.50000        -999.25        -999.25      110.78999        -999.25        -999.25        -999.25        -999.25        -999.25
13.00000        -999.25        -999.25      106.92607       -2.42578        -999.25        -999.25        -999.25        -999.25
13.50000        -999.25        -999.25      104.16654       -2.38637        -999.25        -999.25        -999.25        -999.25
14.00000        -999.25        -999.25       96.71146       -2.33885        -999.25        -999.25        -999.25        -999.25
14.50000        -999.25        -999.25       84.83593       -2.29944        -999.25        -999.25        -999.25        -999.25
15.00000        -999.25        -999.25       71.57977       -2.25193        -999.25        -999.25        -999.25        -999.25
15.50000        -999.25        -999.25       61.08545       -2.13996        -999.25        -999.25        -999.25        -999.25
16.00000        -999.25        -999.25       52.52540       -1.99263        -999.25        -999.25        -999.25        -999.25
16.50000        -999.25        -999.25       49.48963       -1.81583        -999.25        -999.25        -999.25        -999.25
17.00000        -999.25        -999.25       47.83565       -1.43278        -999.25        -999.25        -999.25        -999.25
17.50000        -999.25        -999.25       48.11478       -0.64456        -999.25        -999.25        -999.25        -999.25
18.00000        -999.25        -999.25       49.22322        3.92892        -999.25        -999.25        -999.25        -999.25
18.50000        -999.25        -999.25       49.77860        9.41695        -999.25        -999.25        -999.25        -999.25
19.00000        -999.25        -999.25       49.50583       12.65672        -999.25        -999.25        -999.25        -999.25
19.50000        -999.25        -999.25       49.50930       14.54880        -999.25        -999.25        -999.25        -999.25
20.00000        -999.25        -999.25       49.23595       16.04052        -999.25        -999.25        -999.25        -999.25
20.50000        -999.25        -999.25       47.85821       17.25599        -999.25        -999.25        -999.25        -999.25
21.00000        -999.25        -999.25       45.92741       18.58195        -999.25        -999.25        -999.25        -999.25
21.50000        -999.25        -999.25       44.27342       19.15286        -999.25        -999.25        -999.25        -999.25
22.00000        -999.25        -999.25       44.27632       18.65562        -999.25        -999.25        -999.25        -999.25
22.50000        -999.25        -999.25       44.27979       17.32965        2.05082        -999.25        -999.25        -999.25
23.00000        9.58996        -999.25       44.00644       16.22468        2.05043        -999.25       10.03610       -0.00289
23.50000        9.55663        -999.25       44.28615       15.09761        2.04997       11.19133       12.74873        0.00191
24.00000        9.53679        -999.25       48.70950       15.08287        2.04959        7.49675       12.88086        0.00769
24.50000        9.55540        -999.25       56.72342       16.34880        2.04913        9.60288       13.04476        0.02180
25.00000        9.57405        -999.25       67.50035       19.26335        2.04874        7.00361        8.85704        0.04148
25.50000        9.61107        -999.25       73.85682       21.69208        2.15817        4.83754        6.93140        0.06282
26.00000        9.72180        -999.25       76.34647       23.23757        2.24937        6.24548        7.50902        0.08206
26.50000        9.74041        -999.25       71.93006       23.31492        2.32839        5.76173       13.55595        0.08509
27.00000        9.64856        -999.25       66.96059       23.66483        2.26684        5.95162        8.24909        0.08870
27.50000        9.44618        -999.25       61.43922       24.21731        2.35429        7.82671        9.83176        0.09079
28.00000        9.31749        -999.25       58.67969       24.88030        2.42716        8.33935        9.41010        0.07664
28.50000        8.98620        -999.25       59.51188       25.13297        2.45198        8.89891       12.87292        0.04235
29.00000        8.89435        -999.25       61.44847       24.49982        2.36845       10.99855       14.07942        0.02527
29.50000        8.89454        -999.25       63.66188       23.48693        2.26799        7.38844       10.88447        0.02094
30.00000        8.91319        -999.25       63.66478       22.42763        2.18445        6.78700       11.56101        0.02567
30.50000        8.89496        0.29890       61.73455       20.98490        2.11073        7.13574       13.21299        0.03805
31.00000        8.89519        0.29321       58.69936       19.78232        2.09350        7.79783       13.66064        0.04838
31.50000        8.91380        0.28611       55.66358       18.87661        2.07326        7.29242       14.06137        0.07693
32.00000        8.87720        0.27923       52.62839       19.05746        2.05602        5.68014       11.98555        0.10549
32.50000        8.76690        0.28349       49.86886       19.20810        2.10501        8.39639       14.65703        0.12928
33.00000        8.49089        0.30074       48.49111       18.98711        2.26177        6.16101       12.70758        0.15462
33.50000        8.38058        0.30000       48.77025       18.80295        2.44959        7.36462       13.99277        0.16235
34.00000        7.93883        0.29988       50.70742       18.91050        2.51221        7.96606       14.12274        0.13444
34.50000        7.84694        0.29969       53.74898       19.18269        2.55864        6.64260       13.10469        0.10498
35.00000        7.84717        0.29954       57.89609       19.14181        2.59452        9.42743       13.38122        0.06964
35.50000        7.84736        0.29936       60.38574       18.34254        2.62336        9.14079       16.79133        0.05047
36.00000        7.95809        0.29705       60.94112       17.72265        2.64752        6.10541       12.94368        0.04592
36.50000        7.92145        0.29963       59.01089       17.55065        2.55732        4.04332        7.50902        0.04134
37.00000        7.92168        0.29966       56.52760       17.91897        2.38294        8.69097       12.60866        0.03754
37.50000        8.01396        0.29969       54.87362       18.36096        2.17369       10.18050       13.90180        0.04588
38.00000        8.17993        0.29972       53.77154       18.80295        1.99931        8.01444       10.95812        0.05282
38.50000        8.69586        0.29975       52.39380       19.17127        2.01277        5.41516        8.39350        0.06282
39.00000        8.97233        0.29979       50.18733       19.99484        2.06147        5.12635        9.38628        0.07184
39.50000        8.93561        0.29982       48.53277       20.68140        2.12804        6.48375       10.64981        0.08520
40.00000        8.84376        0.29985       46.87879       20.76170        2.21924        7.61516       12.18772        0.10686
40.50000        8.78871        0.29989       46.32920       20.82873        2.32867        8.98195       12.96750        0.13285
41.00000        8.67844        0.29992       45.50394       20.38674        2.41986        8.34440       15.79422        0.14801
41.50000        8.60493        0.29995       45.50683       19.28177        2.38899        6.82310       12.92418        0.13632
42.00000        8.32896        0.29998       47.44400       18.36096        2.33953        7.61733       11.98555        0.11000
