~Version ---------------------------------------------------
VERS. 2.0 : CWLS LOG ASCII STANDARD - VERSION 2.0
WRAP. NO  : One line per depth step
DLM . SPACE : Column Data Section Delimiter
~Well ------------------------------------------------------
STRT.F           40 : START DEPTH
STOP.F       1271.0 : STOP DEPTH
STEP.F          0.5 : STEP
NULL.       -999.25 : NULL VALUE
COMP.                 WALSH & WATTS, INC. : COMPANY
WELL.                         HOWARD G 17 : WELL
FLD .             MONTAGUE COUNTY REGULAR : FIELD
CNTY.                            MONTAGUE : COUNTY
STAT.                               TEXAS : STATE
CTRY.                                 USA : COUNTRY
SEC .                                     : SECTION
TWP .                                     : TOWNSHIP
RGE .                                     : RANGE
LOC . 520'FNL & 4250'FEL OF THE J.CHAMBLIS SURVEY, A-123 : LOCATION
EKB .F                      519 : ELEVATION KELLY BUSHING
EDF .F                      518 : ELEVATION DERRICK FLOOR
EGL .F                      512 : ELEVATION GROUND LEVEL
PDAT.                        GL : PERMANENT DATUM
EPD .                       512 : ELEVATION PERMANENT DATUM
APD .                         7 : ABOVE PERMANENT DATUM
LMF .                        KB : LOG MEASURED FROM
DMF .                        KB : DRILLING MEASURED FROM
API .            42337343900000 : API NUMBER
UWI .                           : UWI NUMBER
DIGC.                     NthDS : DIGITIZING COMPANY
~Params ----------------------------------------------------
SRVC. PIONEER WIRELINE SERVICES : LOGGING COMPANY
LOG .                      CNFD : LOG
DATE.                2010-10-13 : RUN DATE
RUN .                         1 : RUN NUMBER
TDD .F                     1298 : TOTAL DEPTH DRILLER
TDL .F                     1280 : TOTAL DEPTH LOGGER
BOTL.F                     1280 : BOTTOM LOGGED INTERVAL
TOPL.F                       50 : TOP LOGGED INTERVAL
CSGS.IN                         : CASING SIZE
CSGD.F                          : CASING DRILLER
CSGL.F                          : CASING LOGGER
BS  .IN                   7.875 : BIT SIZE
MUD .                  GEL-CHEM : MUD TYPE
MUDD.                           : MUD DENSITY
MUDV.                           : MUD VISCOSITY
PH  .                           : MUD PH
FL  .                           : FLUID LOSS
MUDS.                  FLOWLINE : SOURCE OF SAMPLE
RM  .OHMM                   3.6 : MUD RESISTIVITY
RMT .DEGF                    72 : RM TEMPERATURE
RMF .OHMM                   2.7 : MUD FILTRATE RESISTIVITY
RMFT.DEGF                    72 : RMF TEMPERATURE
RMC .OHMM                   4.5 : MUD CAKE RESISTIVITY
RMCT.DEGF                    72 : RMC TEMPERATURE
RMFS.                      CALC : RMF SOURCE
RMCS.                      CALC : RMC SOURCE
RMBH.OHMM                   3.0 : MUD RESISTIVITY AT BHT
BHT .DEGF                    85 : BOTTOM HOLE TEMPERATURE
TIMC.           0245 2010-10-13 : TIME CIRCULATION STOPPED
TIML.           0540 2010-10-13 : TIME LOGGER ON BOTTOM
TMAX.DEGF                    85 : MAXIMUM RECORDED TEMPERATURE
UNIT.                      M-19 : EQUIPMENT NUMBER
BASE.             GRAHAM, TEXAS : BASE LOCATION
ENG .                    WENDEL : RECORDED BY
WIT .           WOMBLE/BURLESON : WITNESSED BY
~Curve Information -----------------------------------------
DEPT.F          :DEPTH
CALI.IN         :
DPHI.PU         :
GRD.GAPI        :
MINV.OHMM       :
MNOR.OHMM       :
NPHI.PU         :
RHOC.G/CC       :
~ASCII ------------------------------------------------------
# ...
985.50000        7.69604       23.67962       57.16980       10.84626       11.94029       19.09110        0.00597
986.00000        7.68906       24.35901       53.06603        8.99552        8.22985       19.74295       -0.00243
986.50000        7.68057       25.33424       43.30188        9.06417       11.64179       20.16920       -0.00410
987.00000        7.69283       26.50489       39.05659       10.11194       12.23880       19.28078       -0.00187
987.50000        7.70981       27.67517       37.39810       13.58208       17.33880       17.50384        0.00000
988.00000        7.73000       28.07877       35.94339       12.13880       15.03731       17.24791        0.00187
988.50000        7.74698       28.39159       35.20754       12.08955       12.95522       19.31208        0.00892
989.00000        7.76736       28.56945       36.54905       11.59253       12.83582       21.85838        0.01556
989.50000        7.78415       28.59720       38.58395       11.57761       13.01492       23.75993        0.02153
990.00000        7.80113       28.46333       40.75471        9.01940        9.55223       23.02824        0.02306
990.50000        7.80189       28.32984       42.45282        7.61194        7.68656       20.80537        0.02463
991.00000        7.80113       28.31778       41.60376        6.88209        7.68656       18.57498        0.01825
991.50000        7.82736       28.45020       38.58395        7.29701        8.05970       18.20123        0.01291
992.00000        7.84906       28.62405       37.64150        8.17910        9.44626       18.64877        0.00970
992.50000        7.87075       28.73356       39.84339        9.49253       10.42686       19.50093        0.00970
993.00000        7.89698       28.69333       42.31131        9.70149       11.04477       20.74095        0.00970
993.50000        7.88132       28.59664       44.08018       10.36417       11.41791       21.38954        0.00903
994.00000        7.83283       28.17895       47.73678       11.01492       11.79104       20.48347        0.00731
994.50000        7.79245       26.97767       52.47169       11.08208       13.43283       19.31562        0.00772
995.00000        7.86113       25.77638       62.09433       10.07462        9.31343       19.03463        0.01836
995.50000        7.94340       22.62218       84.90564       10.44776       10.68656       20.49212        0.02716
996.00000        7.93000       20.83348       97.87639        4.35373        3.58209       24.02182        0.03601
996.50000        7.91377       19.60516      117.52356        3.02836        2.05970       27.78289        0.05895
997.00000        7.90019       18.43629      122.12261        2.53731        2.01045       30.02321        0.08321
997.50000        7.88679       17.87351      120.39620        2.57463        1.95075       29.83601        0.08541
998.00000        7.88679       17.95309      114.28299        2.53731        1.68507       28.48836        0.06940
998.50000        7.88679       18.45696      112.23677        2.23880        1.49254       26.55469        0.04451
999.00000        7.88679       18.95832      110.78205        2.23880        2.02985       23.82853        0.03955
999.50000        7.88679       18.93713      108.73016        2.35821        2.67313       23.50988        0.05888
1000.00000        7.88679       18.16364      103.32733        2.05970        2.26567       24.96586        0.09112
1000.50000        7.94635       17.88384       97.33300        2.23880        1.88060       25.30075        0.10795
1001.00000        7.95888       16.87519       95.78771        2.48806        2.17910       25.48872        0.11627
1001.50000        7.97383       15.71917       94.24526        3.49701        2.61194       22.70677        0.09392
1002.00000        7.95140       15.26316       94.24526        5.67164        2.88507       19.77444        0.06992
1002.50000        7.92991       15.47857       94.24526        3.51791        2.28806       18.92594        0.04966
1003.00000        8.00000       15.80301       96.22639        3.13433        1.85821       19.24812        0.04328
1003.50000        7.99290       16.10526       97.87639        3.73134        2.19851       20.05376        0.04668
1004.00000        7.98411       15.94286       99.85752        3.47015        2.50000       20.83947        0.05075
1004.50000        7.97701       15.50902      101.88677        3.04477        2.31343       23.15790        0.04418
1005.00000        7.96972       15.14737      104.00941        3.61492        2.12686       23.87218        0.03757
1005.50000        7.96168       15.08760      102.33960        3.71492        2.22537       23.68421        0.02966
1006.00000        7.95701       15.33835       96.06507        3.23433        2.36119       23.18308        0.03369
1006.50000        7.95140       15.75827       84.97640        4.17910        2.49403       22.59399        0.04168
1007.00000        7.94673       16.56654       74.00942        6.26865        4.23880       22.59399        0.04485
1007.50000        7.91906       17.26917       63.92263        9.10447        7.91044       21.14023        0.03395
1008.00000        7.84430       18.25188       54.43301        8.35821       11.07014       16.87970        0.02090
1008.50000        7.79439       19.07105       52.92452       10.52238       14.17910       14.84963        0.01985
1009.00000        7.79439       19.73684       57.82923       13.47014       19.64178       14.54887        0.01862
1009.50000        7.86916       19.71805       64.12074       10.41492       10.84179       16.19060        0.01757
1010.00000        7.92523       19.70865       69.19810        5.85373        6.83880       16.82594        0.01653
1010.50000        7.92523       19.75564       73.86791        6.15671        3.28358       16.67293        0.01530
1011.00000        7.92523       19.81203       74.04621        9.55223        6.05970       16.36993        0.01425
1011.50000        7.92523       19.62406       74.15093       10.14925        9.60149       16.29323        0.01235
1012.00000        7.98131       19.37970       78.39621        4.97462        2.98507       17.01128        0.00597
1012.50000        7.98131       19.05489       84.19809        4.47761        2.93582       17.95489        0.01530
1013.00000        7.98131       18.27594       91.06130        4.86567        2.83582       18.93233        0.03347
1013.50000        7.98131       16.92218       91.41507        5.00000        3.13433       20.37594        0.03903
1014.00000        7.98131       15.97745       89.99998        4.07910        2.64925       21.63759        0.02836
1014.50000        7.98131       15.56391       89.64621        4.47761        3.03433       22.89060        0.01045
1015.00000        7.98318       15.75188       93.08205        4.00448        2.77612       23.56617       -0.00075
1015.50000        7.98841       16.12782       98.93205        3.85522        2.63731       23.95978        0.00373
1016.00000        7.99290       16.19060      102.39620        3.73134        2.58657       23.64662        0.01000
1016.50000        7.99738       15.79587      105.50941        3.53283        2.53731       22.57895        0.02004
1017.00000        7.99701       15.26316      105.28299        3.95522        2.47761       22.23045        0.03209
1017.50000        7.99215       14.71805      101.03771        3.58209        2.42836       21.91729        0.03209
1018.00000        7.98617       14.72068       97.64149        4.02985        2.36866       21.63534        0.03108
1018.50000        7.98131       14.96015       99.33960        4.01642        2.31791       21.29699        0.02612
1019.00000        7.96972       15.23647      101.74526        3.74477        2.26866       21.01504        0.02116
1019.50000        7.96542       15.51316      104.50469        3.58209        2.32836       20.85376        0.01664
1020.00000        7.96991       15.85451      105.88865        3.58209        2.47761       21.90489        0.01530
