~Version ---------------------------------------------------
VERS. 2.0 : CWLS LOG ASCII STANDARD - VERSION 2.0
WRAP. NO  : One line per depth step
DLM . SPACE : Column Data Section Delimiter
~Well ------------------------------------------------------
STRT.F           40 : START DEPTH
STOP.F       1271.0 : STOP DEPTH
STEP.F          0.5 : STEP
NULL.       -999.25 : NULL VALUE
COMP.                 WALSH & WATTS, INC. : COMPANY
WELL.                         HOWARD G 17 : WELL
FLD .             MONTAGUE COUNTY REGULAR : FIELD
CNTY.                            MONTAGUE : COUNTY
STAT.                               TEXAS : STATE
CTRY.                                 USA : COUNTRY
SEC .                                     : SECTION
TWP .                                     : TOWNSHIP
RGE .                                     : RANGE
LOC . 520'FNL & 4250'FEL OF THE J.CHAMBLIS SURVEY, A-123 : LOCATION
EKB .F                      519 : ELEVATION KELLY BUSHING
EDF .F                      518 : ELEVATION DERRICK FLOOR
EGL .F                      512 : ELEVATION GROUND LEVEL
PDAT.                        GL : PERMANENT DATUM
EPD .                       512 : ELEVATION PERMANENT DATUM
APD .                         7 : ABOVE PERMANENT DATUM
LMF .                        KB : LOG MEASURED FROM
DMF .                        KB : DRILLING MEASURED FROM
API .            42337343900000 : API NUMBER
UWI .                           : UWI NUMBER
DIGC.                     NthDS : DIGITIZING COMPANY
~Params ----------------------------------------------------
SRVC. PIONEER WIRELINE SERVICES : LOGGING COMPANY
LOG .                      CNFD : LOG
DATE.                2010-10-13 : RUN DATE
RUN .                         1 : RUN NUMBER
TDD .F                     1298 : TOTAL DEPTH DRILLER
TDL .F                     1280 : TOTAL DEPTH LOGGER
BOTL.F                     1280 : BOTTOM LOGGED INTERVAL
TOPL.F                       50 : TOP LOGGED INTERVAL
CSGS.IN                         : CASING SIZE
CSGD.F                          : CASING DRILLER
CSGL.F                          : CASING LOGGER
BS  .IN                   7.875 : BIT SIZE
MUD .                  GEL-CHEM : MUD TYPE
MUDD.                           : MUD DENSITY
MUDV.                           : MUD VISCOSITY
PH  .                           : MUD PH
FL  .                           : FLUID LOSS
MUDS.                  FLOWLINE : SOURCE OF SAMPLE
RM  .OHMM                   3.6 : MUD RESISTIVITY
RMT .DEGF                    72 : RM TEMPERATURE
RMF .OHMM                   2.7 : MUD FILTRATE RESISTIVITY
RMFT.DEGF                    72 : RMF TEMPERATURE
RMC .OHMM                   4.5 : MUD CAKE RESISTIVITY
RMCT.DEGF                    72 : RMC TEMPERATURE
RMFS.                      CALC : RMF SOURCE
RMCS.                      CALC : RMC SOURCE
RMBH.OHMM                   3.0 : MUD RESISTIVITY AT BHT
BHT .DEGF                    85 : BOTTOM HOLE TEMPERATURE
TIMC.           0245 2010-10-13 : TIME CIRCULATION STOPPED
TIML.           0540 2010-10-13 : TIME LOGGER ON BOTTOM
TMAX.DEGF                    85 : MAXIMUM RECORDED TEMPERATURE
UNIT.                      M-19 : EQUIPMENT NUMBER
BASE.             GRAHAM, TEXAS : BASE LOCATION
ENG .                    WENDEL : RECORDED BY
WIT .           WOMBLE/BURLESON : WITNESSED BY
~Curve Information -----------------------------------------
DEPT.F          :DEPTH
CALI.IN         :
DPHI.PU         :
GRD.GAPI        :
MINV.OHMM       :
MNOR.OHMM       :
NPHI.PU         :
RHOC.G/CC       :
~ASCII ------------------------------------------------------
# ...
670.50000        7.76151       17.58232       98.49054        3.60902        3.19549       29.95080        0.05601
671.00000        7.75924       17.13190      100.49715        3.89022        3.15789       29.95150        0.07293
671.50000        7.75736       16.56859      100.62734        4.19398        3.40902       29.85811        0.07970
672.00000        7.75509       16.16316      100.95281        4.59549        3.50376       28.28352        0.07492
672.50000        7.75245       16.16162      101.94337        4.36090        3.57895       25.53600        0.06297
673.00000        7.74943       16.45769      103.11224        4.47819        4.09022       23.11191        0.04786
673.50000        7.74585       17.43572      101.60375        4.06015        4.13534       21.53356        0.03410
674.00000        7.74302       17.73718       97.64149        4.21052        3.90977       21.59055        0.02030
674.50000        7.73943       17.98852       94.33866        5.01203        4.01052       23.07621        0.01278
675.00000        7.73641       18.19713       97.24526        5.26316        4.48120       24.50536        0.01402
675.50000        7.75226       18.21651      102.45281        5.11278        3.60902       25.85945        0.01530
676.00000        7.77679       18.15958      107.60941        5.26316        3.90977       26.31117        0.01756
676.50000        7.79736       17.95353      109.18299        4.21052        3.86015       27.06363        0.01977
677.00000        7.82208       17.73344      109.97262        3.73985        3.67519       27.30494        0.02199
677.50000        7.84057       17.32050      109.52828        4.51128        3.17443       26.38824        0.02331
678.00000        7.85755       16.68024      109.24526        4.56090        3.14286       24.05802        0.02583
678.50000        7.84774       15.90564      110.89526        3.95940        3.41353       23.21275        0.04135
679.00000        7.81396       15.71338      109.81130        3.50827        3.45865       23.09804        0.05150
679.50000        7.77358       16.12762      104.57545        3.09173        3.20752       23.90953        0.04162
680.00000        7.76415       16.81730      101.81601        3.54436        3.50827       27.97037        0.02895
680.50000        7.75472       17.63255      102.16979        3.55188        3.47970       29.85065        0.01838
681.00000        7.75472       17.57687      106.27356        3.20451        3.26466       29.92655        0.01455
681.50000        7.75472       17.11769      109.52828        2.81955        3.00752       29.31323        0.02207
682.00000        7.72170       16.57166      111.14431        2.63158        2.79248       24.32625        0.02947
682.50000        7.67208       16.19568      111.79243        2.81353        2.85714       20.24416        0.04380
683.00000        7.63094       16.22372      111.79243        3.00752        3.00752       18.83874        0.05120
683.50000        7.63453       16.77405      111.79243        3.05714        3.00752       19.36576        0.04023
684.00000        7.67057       17.23290      111.96224        3.39849        3.00752       19.93026        0.02707
684.50000        7.74302       17.62823      110.87262        3.93985        3.21203       19.91844        0.03124
685.00000        7.83019       17.64586      108.46696        4.54135        3.55489       19.44284        0.03647
685.50000        7.81302       17.53366      104.43394        4.61203        3.75940       20.03854        0.04586
686.00000        7.79245       17.42147      103.75469        4.56090        3.75940       23.11893        0.04586
686.50000        7.76679       17.28684      104.66884        4.53082        3.88421       25.91838        0.04436
687.00000        7.74962       17.11450      105.84903        4.63158        3.86316       28.21720        0.04248
687.50000        7.75623       16.88953      106.41507        4.73233        3.80601       26.76742        0.05150
688.00000        7.80698       16.43911      103.20847        4.76240        4.10977       23.61953        0.06560
688.50000        7.86792       16.06377       98.37734        4.78646        4.88722       20.21788        0.07733
689.00000        7.88509       15.94218       97.07545        5.41353        5.26316       19.24115        0.06895
689.50000        7.90226       16.02747       99.62262        5.11278        4.21052       20.16279        0.05286
690.00000        7.87245       16.21603      103.30186        5.17293        3.90977       21.81763        0.04263
690.50000        7.83906       16.44230      102.82922        5.26316        3.90977       22.20167        0.03835
691.00000        7.80585       16.63763      100.84809        5.36391        3.90977       22.61580        0.03519
691.50000        7.82396       16.84348       99.62262        5.53082        4.06015       23.17289        0.03124
692.00000        7.86321       16.99983      100.61318        4.81203        3.55940       24.58325        0.02647
692.50000        7.88113       16.97937      101.32073        4.79098        3.15789       27.05876        0.02519
693.00000        7.87170       16.72883      100.71507        4.68270        2.85714       29.47813        0.03395
693.50000        7.86792       16.24383      100.10658        4.55489        2.85714       29.32847        0.04335
694.00000        7.83491       15.90946      100.33017        4.37293        2.85714       27.42418        0.04804
694.50000        7.77981       15.85667      102.09903        4.14135        2.92030       25.26689        0.04023
695.00000        7.74264       16.14196      105.70752        4.00000        3.01504       24.71861        0.03083
695.50000        7.75981       16.63653      108.96224        4.37744        3.09474       26.20164        0.02301
696.00000        7.77208       17.38912      112.35846        4.47218        3.02857       27.42666        0.01361
696.50000        7.76340       17.47993      111.22639        4.55037        2.70677       28.72060        0.01910
697.00000        7.75623       17.34744      108.39620        4.63007        2.85714       29.42043        0.02797
697.50000        7.71698       17.09026      106.55658        4.52030        3.00752       28.87603        0.03857
698.00000        7.72755       17.24761      107.26413        4.34286        3.00752       27.84279        0.03492
698.50000        7.73585       17.68053      107.47639        4.16692        2.25564       25.11783        0.02707
699.00000        7.73585       17.96620      104.99998        4.18947        2.44962       25.11842        0.03271
699.50000        7.73585       17.75702      103.64715        4.31128        2.61053       26.66912        0.04233
700.00000        7.73358       17.45596      103.80564        4.06015        2.60601       28.32181        0.04289
700.50000        7.71943       17.08073      103.52828        4.24000        2.50113       29.96300        0.04672
701.00000        7.72321       16.76817      103.10375        4.37736        2.71698       30.00154        0.04728
701.50000        7.73264       16.54331      104.21601        4.15094        2.80755       28.55841        0.04796
702.00000        7.74057       16.35593      105.41318        4.18868        2.75472       25.81728        0.04849
702.50000        7.74849       16.16855      106.32167        4.22641        2.41509       23.40924        0.04906
703.00000        7.76547       16.07265      106.88771        4.22641        2.41509       22.18427        0.04234
703.50000        7.79245       16.20745      108.33960        4.28679        2.41509       23.72632        0.03675
704.00000        7.82472       17.10615      110.37733        4.40755        2.69585       26.55397        0.03004
704.50000        7.81132       18.36663      110.14243        4.50868        3.01887       28.77271        0.02445
705.00000        7.75472       19.72060      107.83016        3.40679        3.23019       29.16428        0.01887
