~Version ---------------------------------------------------
VERS. 2.0 : CWLS LOG ASCII STANDARD - VERSION 2.0
WRAP. NO  : One line per depth step
DLM . SPACE : Column Data Section Delimiter
~Well ------------------------------------------------------
STRT.F           40 : START DEPTH
STOP.F       1284.0 : STOP DEPTH
STEP.F          0.5 : STEP
NULL.       -999.25 : NULL VALUE
COMP.                 WALSH & WATTS, INC. : COMPANY
WELL.                         HOWARD G 17 : WELL
FLD .             MONTAGUE COUNTY REGULAR : FIELD
CNTY.                            MONTAGUE : COUNTY
STAT.                               TEXAS : STATE
CTRY.                                 USA : COUNTRY
SEC .                                     : SECTION
TWP .                                     : TOWNSHIP
RGE .                                     : RANGE
LOC . 520'FNL & 4250'FEL OF THE J.CHAMBLIS SURVEY, A-123 : LOCATION
EKB .F                      519 : ELEVATION KELLY BUSHING
EDF .F                      518 : ELEVATION DERRICK FLOOR
EGL .F                      512 : ELEVATION GROUND LEVEL
PDAT.                        GL : PERMANENT DATUM
EPD .                       512 : ELEVATION PERMANENT DATUM
APD .                         7 : ABOVE PERMANENT DATUM
LMF .                        KB : LOG MEASURED FROM
DMF .                        KB : DRILLING MEASURED FROM
API .            42337343900000 : API NUMBER
UWI .                           : UWI NUMBER
DIGC.                     NthDS : DIGITIZING COMPANY
~Params ----------------------------------------------------
SRVC. PIONEER WIRELINE SERVICES : LOGGING COMPANY
LOG .                      DIFL : LOG
DATE.                2010-10-13 : RUN DATE
RUN .                         1 : RUN NUMBER
TDD .F                     1298 : TOTAL DEPTH DRILLER
TDL .F                     1280 : TOTAL DEPTH LOGGER
BOTL.F                     1280 : BOTTOM LOGGED INTERVAL
TOPL.F                       50 : TOP LOGGED INTERVAL
CSGS.IN                         : CASING SIZE
CSGD.F                          : CASING DRILLER
CSGL.F                          : CASING LOGGER
BS  .IN                   7.875 : BIT SIZE
MUD .                  GEL-CHEM : MUD TYPE
MUDD.                           : MUD DENSITY
MUDV.                           : MUD VISCOSITY
PH  .                           : MUD PH
FL  .                           : FLUID LOSS
MUDS.                  FLOWLINE : SOURCE OF SAMPLE
RM  .OHMM                   3.6 : MUD RESISTIVITY
RMT .DEGF                    72 : RM TEMPERATURE
RMF .OHMM                   2.7 : MUD FILTRATE RESISTIVITY
RMFT.DEGF                    72 : RMF TEMPERATURE
RMC .OHMM                   4.5 : MUD CAKE RESISTIVITY
RMCT.DEGF                    72 : RMC TEMPERATURE
RMFS.                      CALC : RMF SOURCE
RMCS.                      CALC : RMC SOURCE
RMBH.OHMM                   3.0 : MUD RESISTIVITY AT BHT
BHT .DEGF                    85 : BOTTOM HOLE TEMPERATURE
TIMC.           0245 2010-10-13 : TIME CIRCULATION STOPPED
TIML.           0540 2010-10-13 : TIME LOGGER ON BOTTOM
TMAX.DEGF                    85 : MAXIMUM RECORDED TEMPERATURE
UNIT.                      M-19 : EQUIPMENT NUMBER
BASE.             GRAHAM, TEXAS : BASE LOCATION
ENG .                    WENDEL : RECORDED BY
WIT .           WOMBLE/BURLESON : WITNESSED BY
~Curve Information -----------------------------------------
DEPT.F          :DEPTH
CILD.MMHO       :
GRR.GAPI        :
RILD.OHMM       :
RILM.OHMM       :
RSFL.OHMM       :
SP.MV           :
~ASCII ------------------------------------------------------
# ...
761.00000      291.74432       96.30725        3.37685        3.47402        4.90056      159.57002
761.50000      291.30138       94.11474        3.41822        3.49715        4.92029      159.64667
762.00000      292.29303       91.84492        3.45483        3.49715        4.93799      159.71539
762.50000      293.28468       93.66474        3.44035        3.49715        4.91580      159.79469
763.00000      294.60688       96.41827        3.42759        3.45735        4.86045      159.82376
763.50000      295.59853      100.04404        3.41323        3.39478        4.82889      159.82376
764.00000      296.59018      102.81937        3.39892        3.33334        4.55641      159.82376
764.50000      298.37515      106.04073        3.38652        3.28059        4.11618      159.76297
765.00000      300.16012      109.22047        3.37212        3.26068        4.10417      159.52244
765.50000      301.94508      109.38699        3.35983        3.27820        4.29775      159.31099
766.00000      302.54007      107.77531        3.34574        3.29822        4.54367      159.06782
766.50000      302.54007      104.99998        3.33172        3.31836        4.64322      158.85636
767.00000      302.54007      100.83699        3.31937        3.31593        4.40021      158.51539
767.50000      302.54007       97.32223        3.30324        3.25671        4.25298      158.16121
768.00000      306.75789       94.29514        3.28619        3.20596        4.35941      157.75945
768.50000      310.96909       93.96805        3.26664        3.14870        4.44978      157.70923
769.00000      313.99693       94.04932        3.24741        3.09247        4.52793      157.09072
769.50000      315.45796       95.13369        3.23065        3.04428        4.30586      156.09953
770.00000      318.50563       96.94756        3.21143        3.00231        3.64563      155.23522
770.50000      321.55990       95.98016        3.14851        2.99811        3.49715      154.24403
771.00000      324.60757       94.24558        3.09454        2.99446        3.94806      153.37971
771.50000      327.66185       93.50219        3.03391        2.99045        4.34537      152.38852
772.00000      323.69526       98.54734        2.98173        2.98681        4.11418      151.74359
772.50000      321.21613      103.21584        2.98627        2.99155        3.85495      151.47927
773.00000      321.71196      107.27972        3.01201        3.00176        3.67170      151.17795
773.50000      322.20778      108.10637        3.03484        3.01073        3.68289      150.91363
774.00000      322.70361      106.88324        3.06100        3.02083        4.02572      150.54095
774.50000      321.71196      104.80175        3.08777        3.02985        4.20304      150.19205
775.00000      317.74536      100.83699        3.12902        3.04020        4.06117      149.89601
775.50000      309.57417       98.03192        3.17083        3.06007        3.99132      149.66341
776.00000      303.43917       96.04558        3.20791        3.07745        3.95503      149.70306
776.50000      297.31078       95.12179        3.25077        3.20733        4.06266      150.44843
777.00000      295.00354       93.40307        3.28879        3.32544        4.35411      151.10130
777.50000      294.60688       90.28082        3.33883        3.46578        4.48322      151.77795
778.00000      294.21022       84.51607        3.39582        3.61183        4.88804      152.37002
778.50000      293.94578       79.85153        3.44664        3.62439        6.31224      153.04667
779.00000      293.94578       80.55131        3.44538        3.52601        5.40457      153.74447
779.50000      297.91238       85.77091        3.39272        3.44202        4.54367      154.36033
780.00000      304.19282       92.53875        3.33334        3.35513        4.23489      155.06605
780.50000      311.13437       97.54029        3.27501        3.28959        4.09693      156.48808
781.00000      318.07591      100.24228        3.22495        3.23321        4.27530      158.50218
781.50000      325.01746      101.62994        3.16851        3.16986        4.34087      160.30482
782.00000      331.16568      103.11672        3.11325        3.10795        4.21073      160.88103
782.50000      335.72727      103.90968        3.06548        3.05467        3.94998      162.14975
783.00000      340.28885      104.60351        3.01073        2.99501        4.13704      163.25989
783.50000      344.85044      103.53302        2.96345        2.94367        4.27010      164.03169
784.00000      348.32121      105.23787        2.91035        2.88617        4.12195      164.31715
784.50000      348.04355      108.51474        2.85820        2.82980        3.87849      165.37442
785.00000      345.89498      110.49315        2.83256        2.79641        3.82922      165.37442
785.50000      343.74640      110.47135        2.85854        2.78129        3.67818      165.48015
786.00000      341.59783      109.91034        2.88143        2.82687        3.62726      166.32596
786.50000      338.23944      109.47025        2.90787        2.87986        3.88724      166.43169
787.00000      332.95065      108.96474        2.94421        2.94654        4.36738      166.96033
787.50000      325.01746      107.29954        3.03687        3.02580        4.46144      167.02641
788.00000      314.43986      107.04778        3.14640        3.11875        4.24935      166.76209
788.50000      306.50667      107.69602        3.24543        3.20245        4.17245      165.11011
789.00000      299.89568      109.29580        3.36249        3.30083        4.42088      167.40438
789.50000      295.92908      110.69932        3.39933        3.47593        4.80250      166.47134
790.00000      291.96248      107.57708        3.40762        3.50568        5.16335      165.65460
790.50000      292.40542       98.54338        3.41718        3.53999        5.14389      164.72156
791.00000      292.84174       94.69162        3.42676        3.57465        4.79753      163.90482
791.50000      293.28468       93.50219        3.42217        3.56161        4.68982      163.10130
792.00000      303.59783       93.50219        3.32929        3.52709        4.63870      162.41671
792.50000      313.91098       92.80836        3.25018        3.49715        4.77917      161.63169
793.00000      324.22414       93.60131        3.16196        3.39644        4.65455      160.84667
793.50000      332.42177       94.29514        3.07632        3.19330        4.42438      160.15945
794.00000      339.56164       90.06673        3.00304        3.04910        4.23206      159.37707
794.50000      346.70152       85.43986        2.92171        2.92687        4.02278      158.68984
795.00000      353.44473       83.26915        2.85229        2.82395        4.09693      157.90482
795.50000      359.39463       83.09470        2.77487        2.72465        3.99837      157.52156
796.00000      359.63923       82.25021        2.77487        2.72465        4.16889      157.21760
796.50000      359.89045       80.75748        2.77487        2.72465        3.97071      156.10218
797.00000      359.61279       80.25594        2.77706        2.77960        3.82829      155.02112
797.50000      358.29059       81.98655        2.78214        2.83566        4.02989      153.78940
798.00000      357.41133       87.05946        2.78808        2.90115        4.69639      152.63169
798.50000      357.41133       94.21584        2.80886        2.96814        5.00854      151.27046
799.00000      360.88210       99.35021        2.76930        2.99884        3.84183      150.08103
799.50000      367.85670       98.58501        2.70696        3.02083        3.34452      148.72244
800.00000      376.58321       94.09690        2.65376        3.04020        4.48186      147.53302
800.50000      392.13255       82.84690        2.59402        3.00341        8.97171      146.13478
