~Version ---------------------------------------------------
VERS. 2.0 : CWLS LOG ASCII STANDARD - VERSION 2.0
WRAP. NO  : One line per depth step
DLM . SPACE : Column Data Section Delimiter
~Well ------------------------------------------------------
STRT.F           48 : START DEPTH
STOP.F       1432.0 : STOP DEPTH
STEP.F          0.5 : STEP
NULL.       -999.25 : NULL VALUE
COMP.                 WALSH & WATTS, INC. : COMPANY
WELL.                         HOWARD F 25 : WELL
FLD .                            MONTAGUE : FIELD
CNTY.                            MONTAGUE : COUNTY
STAT.                               TEXAS : STATE
CTRY.                                 USA : COUNTRY
SEC .                                     : SECTION
TWP .                                     : TOWNSHIP
RGE .                                     : RANGE
LOC . 1115'FEL & 2300'FSL OF THE J.CHAMBLIS SURVEY A-123 : LOCATION
EKB .F                      512 : ELEVATION KELLY BUSHING
EDF .F                      511 : ELEVATION DERRICK FLOOR
EGL .F                      505 : ELEVATION GROUND LEVEL
PDAT.                        GL : PERMANENT DATUM
EPD .                       505 : ELEVATION PERMANENT DATUM
APD .                         7 : ABOVE PERMANENT DATUM
LMF .                        KB : LOG MEASURED FROM
DMF .                        KB : DRILLING MEASURED FROM
API .            42337343120000 : API NUMBER
UWI .                           : UWI NUMBER
DIGC.                     NthDS : DIGITIZING COMPANY
~Params ----------------------------------------------------
SRVC. PIONEER WIRELINE SERVICES : LOGGING COMPANY
LOG .                   CNFD/ML : LOG
DATE.                2010-10-07 : RUN DATE
RUN .                         1 : RUN NUMBER
TDD .F                     1450 : TOTAL DEPTH DRILLER
TDL .F                     1452 : TOTAL DEPTH LOGGER
BOTL.F                     1452 : BOTTOM LOGGED INTERVAL
TOPL.F                       50 : TOP LOGGED INTERVAL
CSGS.IN                         : CASING SIZE
CSGD.F                          : CASING DRILLER
CSGL.F                          : CASING LOGGER
BS  .IN                   7.875 : BIT SIZE
MUD .                  GEL-CHEM : MUD TYPE
MUDD.                           : MUD DENSITY
MUDV.                           : MUD VISCOSITY
PH  .                           : MUD PH
FL  .                           : FLUID LOSS
MUDS.                  FLOWLINE : SOURCE OF SAMPLE
RM  .OHMM                   4.0 : MUD RESISTIVITY
RMT .DEGF                    72 : RM TEMPERATURE
RMF .OHMM                   3.0 : MUD FILTRATE RESISTIVITY
RMFT.DEGF                    72 : RMF TEMPERATURE
RMC .OHMM                   5.0 : MUD CAKE RESISTIVITY
RMCT.DEGF                    72 : RMC TEMPERATURE
RMFS.                      CALC : RMF SOURCE
RMCS.                      CALC : RMC SOURCE
RMBH.OHMM                     3 : MUD RESISTIVITY AT BHT
BHT .DEGF                    88 : BOTTOM HOLE TEMPERATURE
TIMC.           0730 2010-10-07 : TIME CIRCULATION STOPPED
TIML.           1020 2010-10-07 : TIME LOGGER ON BOTTOM
TMAX.DEGF                    88 : MAXIMUM RECORDED TEMPERATURE
UNIT.                      M-19 : EQUIPMENT NUMBER
BASE.                GRAHAM, TX : BASE LOCATION
ENG .                    WENDEL : RECORDED BY
WIT .           WOMBLE/BURLESON : WITNESSED BY
~Curve Information -----------------------------------------
DEPT.F          :DEPTH
CALD.IN         :
DPHI.%          :
GRD.GAPI        :
MINV.OHMM       :
MNOR.OHMM       :
NPHI.%          :
RHOC.G/CC       :
~ASCII ------------------------------------------------------
# ...
1132.00000        8.92727       18.32895      109.20816        3.76811        2.97101       29.98756        0.11273
1132.50000        8.92727       18.19761      106.87089        3.52609        3.11594       29.11002        0.09091
1133.00000        8.92727       18.68657      104.06452        3.07246        2.89855       26.95147        0.08364
1133.50000        8.92727       18.84969      101.59907        3.14493        2.76087       24.36122        0.08364
1134.00000        8.92727       18.74323      100.95816        3.23188        2.80000       22.20268        0.09091
1134.50000        8.92727       18.10100      100.18634        3.31884        2.83913       21.50080        0.11273
1135.00000        8.94745       17.56587       99.54543        3.39130        2.87246       21.74310        0.10909
1135.50000        8.98764       16.07131       97.46180        3.47826        2.97971       21.78034        0.10909
1136.00000        9.02782       14.42512       95.20362        3.55072        3.18261       20.86619        0.13091
1136.50000        9.03636       12.44968       95.31816        3.76811        3.42609       19.45165        0.15273
1137.00000        8.92364       11.46222       95.45452        4.34782        3.66956       17.75435        0.12727
1137.50000        8.81454       12.28641       94.09089        4.63768        3.87246       16.58647        0.09818
1138.00000        8.68364       13.85642       92.45452        4.57971        3.65942       16.67507        0.06727
1138.50000        8.62364       15.15220       91.72634        4.20290        3.40580       17.37848        0.04244
1139.00000        8.63273       16.33247       93.94089        3.47826        3.10145       17.70117        0.04000
1139.50000        8.64364       15.89664       98.55271        3.47826        2.94348       17.55079        0.05091
1140.00000        8.65273       15.23086      100.39634        3.47826        3.05507       17.39261        0.05818
1140.50000        8.66364       14.43163      100.19725        3.56956        3.18840       17.20307        0.06909
1141.00000        8.67200       14.35908       95.92361        3.67826        3.10869       17.14053        0.04000
1141.50000        8.66873       15.14410       92.36452        3.76811        3.04348       17.23522        0.03273
1142.00000        8.66473       15.92913       88.09089        4.03623        3.23623       17.80066        0.02182
1142.50000        8.66127       16.71415       86.53362        4.25797        3.11594       19.05888        0.02545
1143.00000        8.65727       17.41269       86.18180        5.07246        3.47826       20.15058        0.02909
1143.50000        8.69091       18.33165       88.19998        3.72029        2.78551       20.36458        0.03636
1144.00000        8.78182       18.85026       91.19998        3.06522        2.94638       19.88959        0.04364
1144.50000        8.89091       18.55007       93.72816        3.13333        2.68116       19.50963        0.07273
1145.00000        8.91691       17.09833       94.93907        3.18840        2.47681       19.29484        0.11531
1145.50000        8.83164       15.88873       92.30180        4.27536        2.95072       19.45261        0.14025
1146.00000        8.74618       15.20808       89.72725        6.52174        3.18840       19.45325        0.13698
1146.50000        8.67509       15.36072       91.25453        4.09420        3.33333       17.99016        0.09455
1147.00000        8.62436       15.48834       94.85452        3.33333        3.62319       17.01002        0.06909
1147.50000        8.64018       15.53961       94.79998        4.34782        3.64782       17.81773        0.06909
1148.00000        8.65891       15.63882       93.81816        4.34782        3.28551       19.73981        0.07273
1148.50000        8.67782       16.13205       94.14543        4.20290        3.10580       20.96472        0.05818
1149.00000        8.69345       16.72421       94.90907        3.79710        3.26087       21.40451        0.05455
1149.50000        8.70909       17.12278       98.18180        3.88406        3.44782       21.84919        0.05818
1150.00000        8.70909       17.28917      100.90907        3.60290        3.18840       22.11449        0.07636
1150.50000        8.72395       17.34989      102.85829        3.18840        2.75362       22.50526        0.09493
1151.00000        8.75137       17.00940      103.30802        3.18840        2.31884       23.01790        0.10580
1151.50000        8.77422       16.47745      104.84367        2.89855        2.53623       25.39196        0.11304
1152.00000        8.80164       15.84202      107.03745        3.20869        2.79710       27.58979        0.11304
1152.50000        8.87349       15.45143      106.90857        3.04348        3.05797       27.98055        0.10942
1153.00000        8.97020       15.90302      105.83087        3.51449        3.03043       26.99887        0.09493
1153.50000        9.08629       16.57422      104.99998        3.15507        2.55652       25.88434        0.09130
1154.00000        9.14899       17.33476      106.48078        3.09855        2.25217       24.88695        0.08406
1154.50000        9.15667       18.07373      106.30802        2.97101        2.05072       25.67515        0.09493
1155.00000        9.14973       18.16066      103.56579        2.53623        1.88406       26.62070        0.10580
1155.50000        9.11700       17.68611      101.27877        2.78551        1.88406       27.06460        0.12391
1156.00000        9.07788       16.58986       97.21204        3.33333        2.24638       26.84806        0.12754
1156.50000        8.87623       15.10215       91.11607        4.05797        3.15217       24.77681        0.13116
1157.00000        8.68135       13.86221       83.76141        3.94927        3.18840       21.76759        0.12029
1157.50000        8.47843       13.00887       76.34368        5.16956        3.33333       18.05454        0.10580
1158.00000        8.43144       13.04607       71.73673        7.97101        6.30435       15.87360        0.08043
1158.50000        8.40859       13.75981       70.74953       12.57970       24.05796       15.93530        0.05507
1159.00000        8.38117       14.74778       76.50821        9.71014       15.36231       17.32546        0.04058
1159.50000        8.35832       15.19338       85.19285        3.74782        4.34782       17.61872        0.03696
1160.00000        8.42852       14.60658       92.68736        3.47826        3.22029       16.63217        0.06232
1160.50000        8.49872       13.13752       92.11150        3.98551        3.30145       15.64573        0.07681
1161.00000        8.55722       12.42884       89.78060        9.13043        5.36232       15.92059        0.08406
1161.50000        8.62742       13.56306       88.94696        6.14492        5.79710       17.56669        0.05870
1162.00000        8.65082       14.97136       89.09779        5.90579        8.55072       18.24387        0.02971
1162.50000        8.65996       16.46499       87.47713        2.84058        2.86232       17.85072        0.03333
1163.00000        8.65082       16.53486       85.00912        3.95507        2.41014       17.37910        0.06594
1163.50000        8.61426       16.02764       83.91223        5.36232        3.84927       17.22215        0.09493
1164.00000        8.58373       15.82439       86.59961        6.23188        5.65217       17.70554        0.08768
1164.50000        8.54717       16.64782       92.96159        4.34782        3.33333       18.18894        0.05507
1165.00000        8.58903       17.51682       98.72027        4.34782        3.15942       18.82102        0.04058
1165.50000        8.66069       18.47956      106.12429        3.33333        3.00000       19.99179        0.03696
1166.00000        8.73236       19.44229      111.17822        3.13623        2.74348       21.61083        0.04420
