~Version ---------------------------------------------------
VERS. 2.0 : CWLS LOG ASCII STANDARD - VERSION 2.0
WRAP. NO  : One line per depth step
DLM . SPACE : Column Data Section Delimiter
~Well ------------------------------------------------------
STRT.F           40 : START DEPTH
STOP.F       1284.0 : STOP DEPTH
STEP.F          0.5 : STEP
NULL.       -999.25 : NULL VALUE
COMP.                 WALSH & WATTS, INC. : COMPANY
WELL.                         HOWARD G 17 : WELL
FLD .             MONTAGUE COUNTY REGULAR : FIELD
CNTY.                            MONTAGUE : COUNTY
STAT.                               TEXAS : STATE
CTRY.                                 USA : COUNTRY
SEC .                                     : SECTION
TWP .                                     : TOWNSHIP
RGE .                                     : RANGE
LOC . 520'FNL & 4250'FEL OF THE J.CHAMBLIS SURVEY, A-123 : LOCATION
EKB .F                      519 : ELEVATION KELLY BUSHING
EDF .F                      518 : ELEVATION DERRICK FLOOR
EGL .F                      512 : ELEVATION GROUND LEVEL
PDAT.                        GL : PERMANENT DATUM
EPD .                       512 : ELEVATION PERMANENT DATUM
APD .                         7 : ABOVE PERMANENT DATUM
LMF .                        KB : LOG MEASURED FROM
DMF .                        KB : DRILLING MEASURED FROM
API .            42337343900000 : API NUMBER
UWI .                           : UWI NUMBER
DIGC.                     NthDS : DIGITIZING COMPANY
~Params ----------------------------------------------------
SRVC. PIONEER WIRELINE SERVICES : LOGGING COMPANY
LOG .                      DIFL : LOG
DATE.                2010-10-13 : RUN DATE
RUN .                         1 : RUN NUMBER
TDD .F                     1298 : TOTAL DEPTH DRILLER
TDL .F                     1280 : TOTAL DEPTH LOGGER
BOTL.F                     1280 : BOTTOM LOGGED INTERVAL
TOPL.F                       50 : TOP LOGGED INTERVAL
CSGS.IN                         : CASING SIZE
CSGD.F                          : CASING DRILLER
CSGL.F                          : CASING LOGGER
BS  .IN                   7.875 : BIT SIZE
MUD .                  GEL-CHEM : MUD TYPE
MUDD.                           : MUD DENSITY
MUDV.                           : MUD VISCOSITY
PH  .                           : MUD PH
FL  .                           : FLUID LOSS
MUDS.                  FLOWLINE : SOURCE OF SAMPLE
RM  .OHMM                   3.6 : MUD RESISTIVITY
RMT .DEGF                    72 : RM TEMPERATURE
RMF .OHMM                   2.7 : MUD FILTRATE RESISTIVITY
RMFT.DEGF                    72 : RMF TEMPERATURE
RMC .OHMM                   4.5 : MUD CAKE RESISTIVITY
RMCT.DEGF                    72 : RMC TEMPERATURE
RMFS.                      CALC : RMF SOURCE
RMCS.                      CALC : RMC SOURCE
RMBH.OHMM                   3.0 : MUD RESISTIVITY AT BHT
BHT .DEGF                    85 : BOTTOM HOLE TEMPERATURE
TIMC.           0245 2010-10-13 : TIME CIRCULATION STOPPED
TIML.           0540 2010-10-13 : TIME LOGGER ON BOTTOM
TMAX.DEGF                    85 : MAXIMUM RECORDED TEMPERATURE
UNIT.                      M-19 : EQUIPMENT NUMBER
BASE.             GRAHAM, TEXAS : BASE LOCATION
ENG .                    WENDEL : RECORDED BY
WIT .           WOMBLE/BURLESON : WITNESSED BY
~Curve Information -----------------------------------------
DEPT.F          :DEPTH
CILD.MMHO       :
GRR.GAPI        :
RILD.OHMM       :
RILM.OHMM       :
RSFL.OHMM       :
SP.MV           :
~ASCII ------------------------------------------------------
# ...
841.00000      558.12417       41.08810        1.78139        2.14879        4.69553      128.05813
841.50000      552.16182       41.96035        1.81201        2.13874        4.48486      128.12685
842.00000      562.59592       43.01696        1.79150        2.06982        4.46144      128.18500
842.50000      577.99864       41.96035        1.76842        1.98951        4.75855      128.24051
843.00000      601.56314       39.18502        1.68733        1.90581        5.18571      128.29073
843.50000      627.96970       37.99559        1.61940        1.83466        5.57331      128.34888
844.00000      646.89682       36.95484        1.54505        1.75106        5.98078      128.08985
844.50000      650.87172       37.11541        1.51082        1.68097        5.95027      127.52950
845.00000      641.15310       38.05308        1.55316        1.60428        5.47745      126.97179
845.50000      628.56593       39.38326        1.59115        1.58728        5.09465      126.48016
846.00000      617.96621       40.96916        1.63575        1.66397        5.01617      125.99117
846.50000      599.41670       42.85242        1.68159        1.76326        5.36360      125.99117
847.00000      571.04258       44.05770        1.74362        1.88126        5.23934      125.99117
847.50000      540.23714       42.13678        1.85081        2.02582        5.79934      125.99117
848.00000      510.42543       40.45770        1.95006        2.16138        6.52559      126.12069
848.50000      480.61371       39.38326        2.07007        2.29482        6.84961      126.26870
849.00000      464.49551       38.64185        2.14108        2.40833        6.40242      126.39558
849.50000      463.17055       37.47423        2.11067        2.48685        6.34306      126.54359
850.00000      473.32641       36.45132        2.08436        2.51732        7.07208      126.67311
850.50000      498.63324       36.17775        2.03918        2.45676        6.86005      126.82113
851.00000      523.67508       37.59911        1.99497        2.30224        5.03913      126.96914
851.50000      541.56210       38.98678        1.94141        2.13900        4.60943      127.09866
852.00000      559.44913       40.57268        1.85917        1.95887        4.02989      127.24403
852.50000      577.33616       42.15859        1.78041        1.85974        3.64941      127.39205
853.00000      595.22319       42.35682        1.71425        1.80706        4.19512      127.52157
853.50000      610.01642       40.34669        1.64163        1.79390        4.93799      127.65901
854.00000      623.26607       38.56255        1.62137        1.78247        5.28258      127.77531
854.50000      628.18169       37.96189        1.61733        1.78247        5.15549      127.90747
855.00000      628.93030       38.47731        1.61330        1.78682        4.61729      128.03963
855.50000      629.67228       40.39030        1.60976        1.78747        4.15723      127.87839
856.00000      632.32221       42.10903        1.60575        1.76713        3.65252      127.27575
856.50000      638.72841       42.00792        1.59426        1.74702        3.56704      126.74712
857.00000      645.12799       40.51519        1.58034        1.70800        3.49715      126.58060
857.50000      651.53420       39.74008        1.56454        1.66458        3.31573      126.67839
858.00000      648.55303       40.11079        1.55089        1.64593        3.12826      126.76562
858.50000      639.41739       40.89383        1.54401        1.63336        2.91336      126.86342
859.00000      627.21447       41.72841        1.59814        1.63137        3.18708      126.95064
859.50000      614.61405       41.59757        1.64704        1.65760        3.99034      127.04844
860.00000      601.24515       41.48458        1.70478        1.69258        4.56586      128.52069
860.50000      587.87626       41.39140        1.76444        1.75983        4.03505      129.80527
861.00000      574.50736       40.37444        1.81853        1.82086        3.93797      131.27751
861.50000      565.01398       39.05220        1.81754        1.89321        4.00641      131.21672
862.00000      557.46168       39.03237        1.79828        1.95887        4.27530      131.16386
862.50000      563.75527       40.74118        1.77651        2.00118        4.96996      131.10306
863.00000      596.01817       44.28171        1.73209        2.00862        5.32294      131.05020
863.50000      634.97214       52.66519        1.56331        1.97840        3.49460      131.31716
864.00000      697.90798       61.68501        1.39042        1.75640        1.82308      132.13126
864.50000      780.34067       65.26717        1.25494        1.56350        1.60428      132.84227
865.00000      890.49827       60.42422        1.11616        1.36875        2.38935      133.65637
865.50000     1000.66248       52.87929        1.02036        1.14270        3.99496      133.37619
866.00000     1000.64261       44.33920        0.94651        1.01732        4.28834      133.05637
866.50000     1000.61611       39.46850        0.87576        0.91073        3.64453      132.73654
867.00000     1000.58961       38.78854        0.85746        0.83530        3.42342      132.45372
867.50000     1000.56311       40.21585        0.84179        0.79705        3.40264      131.30130
868.00000     1000.54324       42.71365        0.82419        0.80721        2.41229      129.85813
868.50000     1000.51674       45.56828        0.81233        0.83887        1.87794      128.20615
869.00000     1000.49686       44.75154        0.82118        0.89397        2.83756      126.55417
869.50000     1000.47036       42.70374        0.81919        0.89169        4.57142      125.46254
870.00000     1000.45049       38.06101        0.81744        0.88968        5.15706      124.75681
870.50000     1000.42399       35.63061        0.80245        0.86369        5.52097      124.05373
871.00000     1000.40411       34.69097        0.76701        0.82499        5.39898      123.43522
871.50000     1000.37762       35.67423        0.73725        0.79173        5.10086      122.73214
872.00000     1000.35774       37.85484        0.70464        0.75409        5.10086      121.97884
872.50000     1000.33787       38.29295        0.67730        0.72263        4.59066      120.72862
873.00000     1000.31137       37.10352        0.64735        0.68828        3.90669      119.47840
873.50000     1000.29149       36.01321        0.64283        0.66899        3.40617      118.81496
874.00000     1000.26499       36.08458        0.64197        0.66428        3.52924      118.70923
874.50000     1000.24512       36.14801        0.64100        0.66097        3.84862      118.61672
875.00000     1000.21862       36.01321        0.64014        0.67090        4.44166      118.51100
875.50000     1000.19874       34.42731        0.66371        0.68244        4.97814      118.40527
876.00000     1000.17225       32.37951        0.70387        0.71354        5.10086      118.41320
876.50000     1000.15237       29.47136        0.74098        0.75999        4.51967      119.11892
877.00000     1000.13250       29.37224        0.78577        0.81680        3.29060      119.73478
877.50000     1000.10600       30.52202        0.83281        0.87502        2.84327      121.04580
878.00000     1000.08612       32.26652        0.87491        0.92149        2.82825      122.55505
878.50000     1000.05962       33.79295        0.92560        0.97761        2.84119      123.17091
879.00000     1000.03975       35.53744        0.97233        1.02953        3.15965      123.87663
879.50000     1000.01325       36.72489        1.02865        1.08963        3.36987      124.49249
880.00000      931.76430       37.56343        1.08183        1.15044        3.31069      125.19822
880.50000      863.69422       39.38326        1.13059        1.20647        3.52924      125.77443
