~Version ---------------------------------------------------
VERS. 2.0 : CWLS LOG ASCII STANDARD - VERSION 2.0
WRAP. NO  : One line per depth step
DLM . SPACE : Column Data Section Delimiter
~Well ------------------------------------------------------
STRT.F         48.5 : START DEPTH
STOP.F       1449.0 : STOP DEPTH
STEP.F          0.5 : STEP
NULL.       -999.25 : NULL VALUE
COMP.                 WALSH & WATTS, INC. : COMPANY
WELL.                         HOWARD F 14 : WELL
FLD .             MONTAGUE COUNTY REGULAR : FIELD
CNTY.                            MONTAGUE : COUNTY
STAT.                               TEXAS : STATE
CTRY.                                 USA : COUNTRY
SEC .                                     : SECTION
TWP .                                     : TOWNSHIP
RGE .                                     : RANGE
LOC . 1430'FEL & 2600'FSL OF THE J.CHAMBLIS SURVEY A-123 : LOCATION
EKB .F                      849 : ELEVATION KELLY BUSHING
EDF .F                      848 : ELEVATION DERRICK FLOOR
EGL .F                      841 : ELEVATION GROUND LEVEL
PDAT.                        GL : PERMANENT DATUM
EPD .                       841 : ELEVATION PERMANENT DATUM
APD .                         8 : ABOVE PERMANENT DATUM
LMF .                        KB : LOG MEASURED FROM
DMF .                        KB : DRILLING MEASURED FROM
API .            42337351020000 : API NUMBER
UWI .                           : UWI NUMBER
DIGC.                     NthDS : DIGITIZING COMPANY
~Params ----------------------------------------------------
SRVC. PIONEER WIRELINE SERVICES : LOGGING COMPANY
LOG .                      DIFL : LOG
DATE.                2013-08-01 : RUN DATE
RUN .                         1 : RUN NUMBER
TDD .F                     1450 : TOTAL DEPTH DRILLER
TDL .F                     1449 : TOTAL DEPTH LOGGER
BOTL.F                     1449 : BOTTOM LOGGED INTERVAL
TOPL.F                       50 : TOP LOGGED INTERVAL
CSGS.IN                         : CASING SIZE
CSGD.F                          : CASING DRILLER
CSGL.F                          : CASING LOGGER
BS  .IN                   7.875 : BIT SIZE
MUD .                       GEL : MUD TYPE
MUDD.                       9.2 : MUD DENSITY
MUDV.                        75 : MUD VISCOSITY
PH  .                           : MUD PH
FL  .                           : FLUID LOSS
MUDS.                  FLOWLINE : SOURCE OF SAMPLE
RM  .OHMM                   2.8 : MUD RESISTIVITY
RMT .DEGF                    72 : RM TEMPERATURE
RMF .OHMM                   2.1 : MUD FILTRATE RESISTIVITY
RMFT.DEGF                    72 : RMF TEMPERATURE
RMC .OHMM                   3.5 : MUD CAKE RESISTIVITY
RMCT.DEGF                    72 : RMC TEMPERATURE
RMFS.                      CALC : RMF SOURCE
RMCS.                      CALC : RMC SOURCE
RMBH.OHMM                   2.3 : MUD RESISTIVITY AT BHT
BHT .DEGF                    87 : BOTTOM HOLE TEMPERATURE
TIMC.           0130 2018-08-01 : TIME CIRCULATION STOPPED
TIML.           0400 2018-08-01 : TIME LOGGER ON BOTTOM
TMAX.DEGF                    87 : MAXIMUM RECORDED TEMPERATURE
UNIT.                     C-052 : EQUIPMENT NUMBER
BASE.                GRAHAM, TX : BASE LOCATION
ENG .                    WENDEL : RECORDED BY
WIT .                  BURLESON : WITNESSED BY
~Curve Information -----------------------------------------
DEPT.F          :DEPTH
CILD.MMHO       :
GRR.GAPI        :
RILD.OHMM       :
RILM.OHMM       :
RSFL.OHMM       :
SP.MV           :
~ASCII ------------------------------------------------------
# ...
1129.50000      322.66318      104.62697        3.10455        3.03912        3.95540      160.01532
1130.00000      321.75223      104.62122        3.11162        2.99518        3.41354      160.00765
1130.50000      321.75702      104.34074        3.06250        2.95510        3.56030      161.10015
1131.00000      328.17445      103.23705        2.98989        2.91557        3.84055      161.45878
1131.50000      334.58948      105.97853        2.93082        2.88286        3.56030      161.81740
1132.00000      341.00451      107.62208        2.88456        2.84429        3.30050      162.17731
1132.50000      345.59044      109.26467        2.88456        2.82092        3.27283      162.90223
1133.00000      344.67948      109.80836        2.90405        2.86230        3.32841      162.89456
1133.50000      341.02129      113.37497        2.96333        2.91287        3.41354      163.25447
1134.00000      334.61585      114.46811        3.02381        2.96432        3.56030      163.61309
1134.50000      326.38131      112.26457        3.07516        3.00807        3.68224      163.97300
1135.00000      321.80737      107.86420        3.13475        3.06121        4.03954      164.69792
1135.50000      318.14917      103.18815        3.19470        3.11529        4.54485      165.05655
1136.00000      313.57523      103.18239        3.24539        3.16126        4.39435      165.41645
1136.50000      308.08794      106.47428        3.30746        3.21710        3.80835      165.77508
1137.00000      303.51399      106.74325        3.30857        3.26595        3.53045      166.13371
1137.50000      302.60304      107.83735        3.28415        3.25442        3.62076      165.76101
1138.00000      306.27083      109.20521        3.25497        3.22714        3.80835      165.02075
1138.50000      311.77250      114.41921        3.22605        3.20008        3.74477      165.01435
1139.00000      315.44029      118.80999        3.20224        3.17780        3.74477      164.64038
1139.50000      316.36083      122.10092        3.17379        3.15116        3.50086      163.90012
1140.00000      315.44988      126.21697        3.15886        3.12922        3.44240      164.26002
1140.50000      312.70983      127.85956        3.14745        3.12474        3.56030      163.51975
1141.00000      310.88313      128.12853        3.14162        3.16445        3.50086      162.77948
1141.50000      308.14068      128.12374        3.21819        3.19793        3.50086      162.04050
1142.00000      303.56674      128.94215        3.31247        3.23857        3.34949      162.39912
1142.50000      299.91094      130.03625        3.40952        3.27973        3.43285      160.92626
1143.00000      298.08424      126.45909        3.43083        3.31443        3.46800      160.42170
1143.50000      297.17328      119.33525        3.40780        3.34245        3.56630      159.55323
1144.00000      298.09383      113.58599        3.38493        3.32449        4.03954      158.82523
1144.50000      302.67976      113.05551        3.31443        3.24621        3.87302      157.95309
1145.00000      308.17904      113.79975        3.23176        3.15435        3.53045      157.22748
1145.50000      316.42556      112.14662        3.14930        3.06533        3.53045      157.22108
1146.00000      323.75634      106.64639        3.08060        2.99291        3.47151      157.21341
1146.50000      336.58400       97.30004        3.00023        2.90821        3.35655      157.20574
1147.00000      341.16753       87.67896        2.92171        2.82614        3.35655      157.19935
1147.50000      344.83532       83.27859        2.88942        2.78130        3.16445      157.50303
1148.00000      349.42125       85.47062        2.86037        2.74917        3.44240      158.01311
1148.50000      348.51029       93.43281        2.84046        2.78904        3.38493      158.62449
1149.00000      344.85210      108.26213        2.86037        2.84836        3.24539      159.23586
1149.50000      336.61516      117.32321        2.95063        2.92122        3.24539      159.74595
1150.00000      323.58318      120.21877        3.02814        2.98335        3.35655      161.65417
1150.50000      312.61909      120.30321        3.14928        3.08747        3.57854      162.26584
1151.00000      309.88165      119.08534        3.24826        3.16603        3.63877      162.78407
1151.50000      307.14422      118.66705        3.31252        3.23303        3.76307      163.42124
1152.00000      307.14900      116.91817        3.29272        3.24010        3.99123      163.95040
1152.50000      309.89840      114.18118        3.27644        3.21042        4.02444      164.26335
1153.00000      310.81726      111.39678        3.25658        3.18567        3.92320      164.25572
1153.50000      312.65020      111.43751        3.23711        3.15623        3.79238      164.24936
1154.00000      314.48313      117.75784        3.21135        3.13190        3.42683      164.24174
1154.50000      319.97475      122.62913        3.17336        3.10321        3.17577      164.23411
1155.00000      322.72176      124.81014        3.13555        3.07453        3.45463      163.89624
1155.50000      327.29691      123.43831        3.10457        3.04955        3.69523      163.39316
1156.00000      329.12984      119.88070        3.06758        3.01958        3.63278      162.88645
1156.50000      334.62146      114.95793        3.03129        2.98965        3.57149      162.46844
1157.00000      340.11069      115.22543        3.00134        2.96510        3.66236      162.37702
1157.50000      345.59992      116.58582        2.96558        2.93126        3.75555      162.36939
1158.00000      350.17507      122.04549        2.91555        2.88351        3.75500      162.36303
1158.50000      356.58077      129.69000        2.85662        2.82737        3.59930      162.35540
1159.00000      360.24185      131.05325        2.79888        2.77256        3.28728      162.34904
1159.50000      362.07478      133.45315        2.75166        2.72740        3.15986      163.07000
1160.00000      360.25142      134.04534        2.74376        2.71521        2.98824      163.79097
1160.50000      359.34213      132.67446        2.78453        2.74443        2.96261      163.78461
1161.00000      353.86487      132.39552        2.81886        2.76890        3.11594      163.77698
1161.50000      349.29929      132.38979        2.89034        2.86775        3.50586      163.82764
1162.00000      341.07741      130.74569        2.99454        2.97014        3.87870      164.11636
1162.50000      330.11331      128.55419        3.08432        3.05841        4.01108      164.46210
1163.00000      314.58124      124.07855        3.19551        3.16760        4.01037      164.80419
1163.50000      304.53122      119.87982        3.29132        3.26175        4.04374      165.09291
1164.00000      297.22342      115.42330        3.36228        3.35718        3.97540      165.43865
1164.50000      294.48598      111.04603        3.37390        3.34923        3.90821      165.63630
1165.00000      293.57670      110.76803        3.35326        3.34253        3.97411      165.80353
1165.50000      295.41202      112.59563        3.32844        3.33462        4.00707      165.97076
1166.00000      297.24496      119.03345        3.30808        3.32795        3.90637      166.11012
1166.50000      299.07789      123.38835        3.28359        3.28830        3.65084      166.28829
1167.00000      300.91082      121.24603        3.25929        3.24913        3.35495      166.52473
1167.50000      304.57430      114.60469        3.23553        3.21675        3.61901      166.44916
1168.00000      308.23538      106.63727        3.18944        3.17843        3.87094      166.13916
1168.50000      311.89646      107.45122        3.14401        3.14056        3.96943      165.82917
1169.00000      316.47161      111.81801        3.10665        3.10455        4.00247      165.57144
