~Version ---------------------------------------------------
VERS. 2.0 : CWLS LOG ASCII STANDARD - VERSION 2.0
WRAP. NO  : One line per depth step
DLM . SPACE : Column Data Section Delimiter
~Well ------------------------------------------------------
STRT.F           11 : START DEPTH
STOP.F       1368.0 : STOP DEPTH
STEP.F          0.5 : STEP
NULL.       -999.25 : NULL VALUE
COMP.                 WALSH & WATTS, INC. : COMPANY
WELL.                      HOWARD AB E 4E : WELL
FLD .             MONTAGUE COUNTY REGULAR : FIELD
CNTY.                            MONTAGUE : COUNTY
STAT.                                     : STATE
CTRY.                                 USA : COUNTRY
SEC .                                     : SECTION
TWP .                                     : TOWNSHIP
RGE .                                     : RANGE
LOC . 3250'FEL & 1590'FSL OF THE J.CHAMBLIS SURVEY A-123 : LOCATION
EKB .F                          : ELEVATION KELLY BUSHING
EDF .F                          : ELEVATION DERRICK FLOOR
EGL .F                          : ELEVATION GROUND LEVEL
PDAT.                        GL : PERMANENT DATUM
EPD .                           : ELEVATION PERMANENT DATUM
APD .                         8 : ABOVE PERMANENT DATUM
LMF .                        KB : LOG MEASURED FROM
DMF .                        KB : DRILLING MEASURED FROM
API .            42337348780000 : API NUMBER
UWI .                           : UWI NUMBER
DIGC.                     NthDS : DIGITIZING COMPANY
~Params ----------------------------------------------------
SRVC. PIONEER WIRELINE SERVICES : LOGGING COMPANY
LOG .                      CNFD : LOG
DATE.                2012-08-01 : RUN DATE
RUN .                         1 : RUN NUMBER
TDD .F                     1400 : TOTAL DEPTH DRILLER
TDL .F                     1396 : TOTAL DEPTH LOGGER
BOTL.F                     1368 : BOTTOM LOGGED INTERVAL
TOPL.F                       50 : TOP LOGGED INTERVAL
CSGS.IN                         : CASING SIZE
CSGD.F                          : CASING DRILLER
CSGL.F                          : CASING LOGGER
BS  .IN                   7.875 : BIT SIZE
MUD .                  CHEM-GEL : MUD TYPE
MUDD.                           : MUD DENSITY
MUDV.                           : MUD VISCOSITY
PH  .                           : MUD PH
FL  .                           : FLUID LOSS
MUDS.                  FLOWLINE : SOURCE OF SAMPLE
RM  .OHMM                   2.4 : MUD RESISTIVITY
RMT .DEGF                    73 : RM TEMPERATURE
RMF .OHMM                   1.8 : MUD FILTRATE RESISTIVITY
RMFT.DEGF                    73 : RMF TEMPERATURE
RMC .OHMM                   3.0 : MUD CAKE RESISTIVITY
RMCT.DEGF                    73 : RMC TEMPERATURE
RMFS.                      CALC : RMF SOURCE
RMCS.                      CALC : RMC SOURCE
RMBH.OHMM                   2.0 : MUD RESISTIVITY AT BHT
BHT .DEGF                    86 : BOTTOM HOLE TEMPERATURE
TIMC.           0200 2012-08-01 : TIME CIRCULATION STOPPED
TIML.           0430 2012-08-01 : TIME LOGGER ON BOTTOM
TMAX.DEGF                    86 : MAXIMUM RECORDED TEMPERATURE
UNIT.                       110 : EQUIPMENT NUMBER
BASE.                GRAHAM, TX : BASE LOCATION
ENG .                    WENDEL : RECORDED BY
WIT .           OVERBY/BURLESON : WITNESSED BY
~Curve Information -----------------------------------------
DEPT.F          :DEPTH
CALD.IN         :
DPHI.V/V        :
GRD.GAPI        :
NPHI.%          :
PEC.B/E         :
RLML.OHMM       :
RNML.OHMM       :
ZCOR.G/C3       :
~ASCII ------------------------------------------------------
# ...
353.00000        8.94659        0.24385      116.85080       27.01891        2.64068        4.18772        5.30686        0.06552
353.50000        8.98342        0.23925      112.15467       28.31363        2.68821        3.20794        4.96245        0.07184
354.00000        8.98342        0.24969      109.39224       29.60871        2.72775        2.74368        4.17473        0.08538
354.50000        8.96501        0.26652      109.39224       30.07720        2.79213        2.92419        4.17328        0.09668
355.00000        9.03867        0.28224      111.87843       30.18076        2.80933        4.04332        4.35379        0.10794
355.50000        9.24125        0.27735      114.91710       30.16895        2.79531        3.16679        3.74007        0.11697
356.00000        9.04880        0.26444      116.85080       30.15465        2.78357        2.75812        3.24910        0.11336
356.50000        8.81768        0.26107      115.46959       30.14248        2.72670        3.10469        3.92635        0.10285
357.00000        9.02486        0.27627      112.70716       30.12817        2.66148        3.27292        4.62094        0.08906
357.50000        9.27348        0.29548      109.39224       30.11637        2.58374        3.35018        4.17978        0.09170
358.00000        9.21179        0.29972      108.01103       30.10206        2.57786        3.12274        3.74007        0.11307
358.50000        8.89668        0.29655      108.56351       30.09026        2.61806        2.91913        3.52346        0.13668
359.00000        8.78085        0.28599      109.94473       30.07595        2.65137        2.83682        3.39350        0.16079
359.50000        8.78085        0.28306      110.49721       30.06378        2.68505        2.93935        3.66426        0.16339
360.00000        8.43094        0.28387      109.94473       30.04947        2.72525        2.89458        3.63393        0.16050
360.50000        8.24678        0.28940      108.28727       30.00827        2.73403        2.82888        3.31336        0.15715
361.00000        8.20994        0.29603      107.18230       28.90366        2.72441        3.03249        3.23105        0.15307
361.50000        8.17311        0.29747      109.11600       28.66018        2.71633        2.61155        3.00577        0.15307
362.00000        8.13628        0.29469      112.15467       28.62672        2.70672        2.63538        3.26715        0.15307
362.50000        8.15470        0.28362      115.74583       27.97403        2.68875        3.17689        3.89892        0.14819
363.00000        8.20994        0.26995      117.12705       26.06581        2.61943        2.86715        3.51985        0.14238
363.50000        8.19153        0.25855      114.91710       24.99802        2.56190        2.81588        3.39350        0.13653
364.00000        8.20994        0.25094      110.77346       24.65701        2.53177        3.12563        3.57040        0.13170
364.50000        8.43094        0.24560      104.69611       24.42495        2.57241        3.35740        3.92491        0.12708
365.00000        8.50460        0.23708      102.20992       24.48689        2.69466        3.47798        4.25993        0.12527
365.50000        8.85451        0.23665      103.03865       25.09976        2.82761        3.47364        4.04332        0.12310
366.00000        8.96501        0.24745      104.41987       26.56427        2.92202        3.15307        4.40433        0.12130
366.50000        9.00184        0.26035      106.35357       28.02878        2.96230        3.02527        3.97112        0.12390
367.00000        9.00184        0.27481      108.01103       29.02287        2.98931        3.13357        3.73068        0.12809
367.50000        9.20442        0.28098      111.04970       29.80893        2.86695        2.77256        3.46570        0.13935
368.00000        9.24125        0.27905      112.43091       29.97724        2.71997        2.67148        3.16679        0.15921
368.50000        9.16759        0.27181      113.25964       29.69221        2.59724        2.75596        3.53790        0.17328
369.00000        8.41252        0.26388      112.70716       28.01522        2.53927        3.17689        3.35740        0.17689
369.50000        8.28361        0.25508      111.04970       25.22191        2.52826        3.12274        3.89892        0.16870
370.00000        8.26519        0.25071      108.83975       22.89373        2.51498        3.37545        4.05776        0.13928
370.50000        8.24678        0.23939      106.07732       21.79721        2.49445        3.81227        4.82527        0.09007
371.00000        8.22836        0.22742      106.07732       21.23558        2.46249        4.07942        6.35379        0.07365
371.50000        8.22836        0.21545      108.28727       21.32985        2.43610        4.18772        5.79061        0.09393
372.00000        8.22836        0.20109      109.39224       21.63635        2.40971        4.14296        4.36823        0.12307
372.50000        8.24678        0.19410      109.94473       22.05254        2.43013        3.68231        4.47653        0.15805
373.00000        8.15470        0.19189      107.45854       23.32368        2.46894        3.24910        4.75307        0.15668
373.50000        8.24678        0.18828      103.31489       23.26665        2.49449        4.76534        8.77256        0.13383
374.00000        8.30203        0.18073      101.38119       22.84196        2.42817        8.53790       15.01804        0.10975
374.50000        8.37569        0.17680      103.31489       22.33262        2.34859        3.53790        6.78700        0.10679
375.00000        8.50460        0.19054      105.80108       22.76355        2.28227        4.53068        7.29242        0.10433
375.50000        8.59668        0.21138      108.56351       25.17502        2.20269        4.25993        5.99278        0.10137
376.00000        8.85451        0.22875      110.22097       27.86708        2.19168        3.26354        4.69314        0.09892
376.50000        8.90976        0.24091      110.77346       29.98396        2.23884        3.04693        4.02527        0.09892
377.00000        9.00184        0.26227      111.60218       30.00346        2.30512        2.86426        3.97112        0.10975
377.50000        9.03867        0.30021      112.15467       30.02260        2.38452        3.05632        3.66426        0.11877
378.00000        9.07551        0.30022      113.53589       30.04623        2.45080        3.53790        4.25993        0.12960
378.50000        9.07551        0.30022      114.91710       30.06537        2.53019        2.81588        3.72346        0.13863
379.00000        9.02026        0.30023      116.29832       30.08863        2.59648        2.88809        3.25632        0.14946
379.50000        8.98342        0.30023      115.74583       30.02319        2.59602        2.79783        3.14801        0.15668
380.00000        8.89134        0.30023      114.08837       28.66363        2.46303        2.83971        3.32130        0.14996
380.50000        8.13628        0.30024      111.04970       26.96380        2.30360        3.00072        3.97112        0.13321
381.00000        8.04420        0.26544      104.97235       25.32659        2.17061        4.52780        6.57039        0.11310
381.50000        8.06261        0.20743       98.34252       23.66108        2.01081        4.58484        5.99278        0.10520
382.00000        8.04420        0.17517       91.71269       22.27323        1.87783        4.17762        6.71480        0.09834
382.50000        8.02578        0.16582       88.39777       21.05376        1.87737        5.93068        6.84693        0.09263
383.00000        7.98895        0.16605       86.46407       19.47327        1.87699        6.11624        7.38844        0.08603
383.50000        7.93370        0.17205       86.46407       17.57683        1.83587        4.20866        6.24548        0.08087
