~Version ---------------------------------------------------
VERS. 2.0 : CWLS LOG ASCII STANDARD - VERSION 2.0
WRAP. NO  : One line per depth step
DLM . SPACE : Column Data Section Delimiter
~Well ------------------------------------------------------
STRT.F           48 : START DEPTH
STOP.F       1432.0 : STOP DEPTH
STEP.F          0.5 : STEP
NULL.       -999.25 : NULL VALUE
COMP.                 WALSH & WATTS, INC. : COMPANY
WELL.                         HOWARD F 25 : WELL
FLD .                            MONTAGUE : FIELD
CNTY.                            MONTAGUE : COUNTY
STAT.                               TEXAS : STATE
CTRY.                                 USA : COUNTRY
SEC .                                     : SECTION
TWP .                                     : TOWNSHIP
RGE .                                     : RANGE
LOC . 1115'FEL & 2300'FSL OF THE J.CHAMBLIS SURVEY A-123 : LOCATION
EKB .F                      512 : ELEVATION KELLY BUSHING
EDF .F                      511 : ELEVATION DERRICK FLOOR
EGL .F                      505 : ELEVATION GROUND LEVEL
PDAT.                        GL : PERMANENT DATUM
EPD .                       505 : ELEVATION PERMANENT DATUM
APD .                         7 : ABOVE PERMANENT DATUM
LMF .                        KB : LOG MEASURED FROM
DMF .                        KB : DRILLING MEASURED FROM
API .            42337343120000 : API NUMBER
UWI .                           : UWI NUMBER
DIGC.                     NthDS : DIGITIZING COMPANY
~Params ----------------------------------------------------
SRVC. PIONEER WIRELINE SERVICES : LOGGING COMPANY
LOG .                   CNFD/ML : LOG
DATE.                2010-10-07 : RUN DATE
RUN .                         1 : RUN NUMBER
TDD .F                     1450 : TOTAL DEPTH DRILLER
TDL .F                     1452 : TOTAL DEPTH LOGGER
BOTL.F                     1452 : BOTTOM LOGGED INTERVAL
TOPL.F                       50 : TOP LOGGED INTERVAL
CSGS.IN                         : CASING SIZE
CSGD.F                          : CASING DRILLER
CSGL.F                          : CASING LOGGER
BS  .IN                   7.875 : BIT SIZE
MUD .                  GEL-CHEM : MUD TYPE
MUDD.                           : MUD DENSITY
MUDV.                           : MUD VISCOSITY
PH  .                           : MUD PH
FL  .                           : FLUID LOSS
MUDS.                  FLOWLINE : SOURCE OF SAMPLE
RM  .OHMM                   4.0 : MUD RESISTIVITY
RMT .DEGF                    72 : RM TEMPERATURE
RMF .OHMM                   3.0 : MUD FILTRATE RESISTIVITY
RMFT.DEGF                    72 : RMF TEMPERATURE
RMC .OHMM                   5.0 : MUD CAKE RESISTIVITY
RMCT.DEGF                    72 : RMC TEMPERATURE
RMFS.                      CALC : RMF SOURCE
RMCS.                      CALC : RMC SOURCE
RMBH.OHMM                     3 : MUD RESISTIVITY AT BHT
BHT .DEGF                    88 : BOTTOM HOLE TEMPERATURE
TIMC.           0730 2010-10-07 : TIME CIRCULATION STOPPED
TIML.           1020 2010-10-07 : TIME LOGGER ON BOTTOM
TMAX.DEGF                    88 : MAXIMUM RECORDED TEMPERATURE
UNIT.                      M-19 : EQUIPMENT NUMBER
BASE.                GRAHAM, TX : BASE LOCATION
ENG .                    WENDEL : RECORDED BY
WIT .           WOMBLE/BURLESON : WITNESSED BY
~Curve Information -----------------------------------------
DEPT.F          :DEPTH
CALD.IN         :
DPHI.%          :
GRD.GAPI        :
MINV.OHMM       :
MNOR.OHMM       :
NPHI.%          :
RHOC.G/CC       :
~ASCII ------------------------------------------------------
# ...
853.50000        8.06820       24.28921       37.77155       11.15766       10.02043       18.05984        0.03032
854.00000        8.02073       25.19590       37.39282       11.05255        9.63503       18.97372        0.03032
854.50000        7.94275       26.11612       36.93615        9.05109        8.67153       19.46763        0.02671
855.00000        7.86476       26.93867       36.55742        6.90511        8.23357       18.75607        0.03754
855.50000        7.79962       26.60555       36.62807        8.04379        7.54306       18.06265        0.05199
856.00000        7.77992       25.60431       37.75608        8.21313        7.00730       17.76204        0.08087
856.50000        7.81205       24.76989       38.69427        7.54744        7.37226       17.51172        0.09170
857.00000        7.85046       24.53066       36.27042        6.74744        6.83649       17.25824        0.08087
857.50000        7.83841       25.15229       34.24963        6.08029        6.22919       17.24074        0.07365
858.00000        7.82828       25.89826       31.82578        5.64525        6.14452       17.22604        0.07365
858.50000        7.81623       26.39583       32.65052        5.57956        6.38394       16.25622        0.07365
859.00000        7.82140       25.78898       34.69252        4.93138        5.64525       15.44809        0.07726
859.50000        7.83996       24.87833       37.14292        5.74160        6.56934       14.96338        0.07726
860.00000        7.85514       24.11952       39.18492        7.50365        9.52554       15.03160        0.07726
860.50000        7.87370       23.35207       39.72278        8.11386       11.92554       15.13355        0.06643
861.00000        7.85072       23.12221       41.08172        6.87299        9.90511       15.05833        0.06643
861.50000        7.79706       23.15403       44.35178        5.83941        8.22043       14.84820        0.06282
862.00000        7.74403       23.18621       43.95119        7.00730        8.13284       14.61700        0.05921
862.50000        7.71878       23.21278       40.97271        4.81752        6.46569       14.48991        0.05921
863.00000        7.72695       22.98670       37.99149        5.49927        7.24087       14.44489        0.05921
863.50000        7.79805       22.75002       37.21658        5.83941        8.02919       14.56730        0.05199
864.00000        7.88327       22.96983       36.79817        6.31095        8.59708       14.98181        0.04476
864.50000        7.90083       23.83744       36.12709        7.25401       11.61459       15.47938        0.03393
865.00000        7.90572       25.12405       35.06388        7.80000       12.55474       16.00324        0.03032
865.50000        7.91061       26.19646       34.37771        7.80000       11.24087       16.94013        0.03032
866.00000        7.93199       26.95448       35.36234        9.92700       14.22627       18.06418        0.04115
866.50000        7.94854       26.76639       36.25266        9.57664       12.56788       18.51681        0.04838
867.00000        7.88541       26.45250       35.77010        8.88759       11.34452       17.64476        0.05199
867.50000        7.80979       26.07592       35.19322        7.88321       11.60583       16.85612        0.05199
868.00000        7.76168       25.79674       34.71066        9.08759       11.91824       17.36063        0.04476
868.50000        7.73315       25.62911       34.13105        8.78832       10.87591       18.10464        0.04115
869.00000        7.71018       25.46111       34.23995        7.15328        9.78102       18.79874        0.03393
869.50000        7.70970       25.62174       34.33116        7.29927        9.81021       18.49813        0.03393
870.00000        7.70913       25.94287       35.36354        6.27737        8.75912       17.54280        0.03393
870.50000        7.71521       26.15733       36.99571        7.15328        8.11095       16.18466        0.03754
871.00000        7.72247       25.65569       38.95431        6.67299        8.26277       15.71846        0.05921
871.50000        7.77791       25.05372       39.27502        6.39416        9.43065       15.37584        0.06282
872.00000        7.90739       24.55208       37.62712        6.33576       10.21897       15.52589        0.05921
872.50000        7.90682       24.81585       35.57081        6.28759        9.85401       15.66400        0.04115
873.00000        7.95698       26.60583       33.10325        5.85109        7.98978       15.59171        0.03032
873.50000        7.98646       28.44975       32.68483        5.34014        5.83941       16.41024        0.02310
874.00000        7.95994       29.93142       35.01918        5.25547        5.83941       18.09611        0.02671
874.50000        7.96847       29.95227       38.52421        4.54306        5.83941       19.78161        0.03754
875.00000        7.97564       29.96935       40.97604        3.35766        4.23357       20.16302        0.06643
875.50000        7.95941       29.99020       41.66963        4.63503        6.24817       20.26301        0.09686
876.00000        7.93843       29.14239       42.24717        5.54744        7.91241       21.27820        0.10614
876.50000        7.92084       28.28458       42.94076        6.13138        8.71532       22.33028        0.07570
877.00000        7.88620       28.84717       43.39535        8.10219       10.42335       22.97019        0.04115
877.50000        7.85713       29.52264       43.71463        8.61313       10.72992       23.73807        0.04476
878.00000        7.83379       29.78446       41.19242        8.75912        9.70802       23.55765        0.05199
878.50000        7.86136       28.18998       37.90662        7.59124        8.32116       21.64743        0.06643
879.00000        7.89430       25.32927       33.96367        7.44525        7.73722       19.73721        0.08809
879.50000        7.92743       23.22946       35.07399        7.76642        8.44671       18.75461        0.09170
880.00000        7.95500       22.07955       37.30034        9.25547       10.94890       18.42661        0.07004
880.50000        7.98795       22.40908       37.76443        7.73722        9.41605       17.78980        0.05199
881.00000        8.01552       23.32295       37.41575        7.49343        8.28905       16.73450        0.02671
881.50000        8.04500       24.04225       38.31973        5.40146        7.39708       16.27341        0.04115
882.00000        8.05418       23.70951       40.17594        7.00730        8.80146       16.15728        0.04838
882.50000        8.06545       22.93718       41.51979        8.16204       10.99708       16.23098        0.05199
883.00000        8.07653       22.01083       41.52903        8.71970       11.58102       16.31941        0.04476
883.50000        8.08571       21.71923       39.74452        8.43795       11.24087       16.57917        0.03393
884.00000        8.14360       22.57332       38.15126        7.08029        9.36350       16.70328        0.02671
884.50000        8.23110       24.06120       37.63318        7.51824        8.61313       16.55792        0.02671
885.00000        8.28026       25.30128       35.56998        7.88321        9.96934       16.41257        0.02671
885.50000        8.37796       26.01437       33.25139        7.20146        9.92700       17.00973        0.03754
886.00000        8.44806       26.66646       31.28928        7.48175        9.98978       17.66401        0.04476
886.50000        8.31097       27.18472       30.96376        8.51532       10.19854       17.76231        0.04838
887.00000        8.20111       27.60557       30.69431        9.38540       10.28175       16.98341        0.04838
887.50000        8.10619       27.71593       30.37153        9.48905       10.07299       15.91678        0.05560
888.00000        8.03941       27.29026       30.09935        8.77226       10.21897       15.78409        0.06643
