~Version ---------------------------------------------------
VERS. 2.0 : CWLS LOG ASCII STANDARD - VERSION 2.0
WRAP. NO  : One line per depth step
DLM . SPACE : Column Data Section Delimiter
~Well ------------------------------------------------------
STRT.F         48.5 : START DEPTH
STOP.F       1455.5 : STOP DEPTH
STEP.F          0.5 : STEP
NULL.       -999.25 : NULL VALUE
COMP.                 WALSH & WATTS, INC. : COMPANY
WELL.                         HOWARD F 25 : WELL
FLD .                            MONTAGUE : FIELD
CNTY.                            MONTAGUE : COUNTY
STAT.                               TEXAS : STATE
CTRY.                                 USA : COUNTRY
SEC .                                     : SECTION
TWP .                                     : TOWNSHIP
RGE .                                     : RANGE
LOC . 1115'FEL & 2300'FSL OF THE J.CHAMBLIS SURVEY A-123 : LOCATION
EKB .F                      512 : ELEVATION KELLY BUSHING
EDF .F                      511 : ELEVATION DERRICK FLOOR
EGL .F                      505 : ELEVATION GROUND LEVEL
PDAT.                        GL : PERMANENT DATUM
EPD .                       505 : ELEVATION PERMANENT DATUM
APD .                         7 : ABOVE PERMANENT DATUM
LMF .                        KB : LOG MEASURED FROM
DMF .                        KB : DRILLING MEASURED FROM
API .            42337343120000 : API NUMBER
UWI .                           : UWI NUMBER
DIGC.                     NthDS : DIGITIZING COMPANY
~Params ----------------------------------------------------
SRVC. PIONEER WIRELINE SERVICES : LOGGING COMPANY
LOG .                      DIFL : LOG
DATE.                2010-10-07 : RUN DATE
RUN .                         1 : RUN NUMBER
TDD .F                     1450 : TOTAL DEPTH DRILLER
TDL .F                     1452 : TOTAL DEPTH LOGGER
BOTL.F                     1452 : BOTTOM LOGGED INTERVAL
TOPL.F                       50 : TOP LOGGED INTERVAL
CSGS.IN                         : CASING SIZE
CSGD.F                          : CASING DRILLER
CSGL.F                          : CASING LOGGER
BS  .IN                   7.875 : BIT SIZE
MUD .                  GEL-CHEM : MUD TYPE
MUDD.                           : MUD DENSITY
MUDV.                           : MUD VISCOSITY
PH  .                           : MUD PH
FL  .                           : FLUID LOSS
MUDS.                  FLOWLINE : SOURCE OF SAMPLE
RM  .OHMM                   4.0 : MUD RESISTIVITY
RMT .DEGF                    72 : RM TEMPERATURE
RMF .OHMM                   3.0 : MUD FILTRATE RESISTIVITY
RMFT.DEGF                    72 : RMF TEMPERATURE
RMC .OHMM                   5.0 : MUD CAKE RESISTIVITY
RMCT.DEGF                    72 : RMC TEMPERATURE
RMFS.                      CALC : RMF SOURCE
RMCS.                      CALC : RMC SOURCE
RMBH.OHMM                     3 : MUD RESISTIVITY AT BHT
BHT .DEGF                    88 : BOTTOM HOLE TEMPERATURE
TIMC.           0730 2010-10-07 : TIME CIRCULATION STOPPED
TIML.           1020 2010-10-07 : TIME LOGGER ON BOTTOM
TMAX.DEGF                    88 : MAXIMUM RECORDED TEMPERATURE
UNIT.                      M-19 : EQUIPMENT NUMBER
BASE.                GRAHAM, TX : BASE LOCATION
ENG .                    WENDEL : RECORDED BY
WIT .           WOMBLE/BURLESON : WITNESSED BY
~Curve Information -----------------------------------------
DEPT.F          :DEPTH
CILD.MMHO       :
GRR.GAPI        :
RILD.OHMM       :
RILM.OHMM       :
RSFL.OHMM       :
SP.MV           :
~ASCII ------------------------------------------------------
# ...
769.50000      265.65737      102.01095        3.69062        3.90493        4.88743      136.85189
770.00000      257.75158       98.61881        3.83050        4.14435        5.05469      137.02008
770.50000      249.85497       90.08225        4.00490        4.54723        5.27189      136.47163
771.00000      244.02007       82.96890        4.13147        4.90995        6.24161      136.38023
771.50000      248.16186       76.11607        4.15279        5.16002        9.66333      136.38023
772.00000      250.23756       72.63618        4.10092        5.00891       11.71967      136.01459
772.50000      250.24718       72.43051        3.98408        4.50224       10.58771      135.64896
773.00000      250.26160       80.62155        3.96892        4.10190        7.48020      135.28333
773.50000      254.35748       88.12978        3.95629        4.04964        3.91836      135.64896
774.00000      262.54880       95.15537        3.85657        4.01825        3.64800      136.38023
774.50000      274.84038      100.63983        3.73921        4.01765        4.27834      137.09808
775.00000      283.03170      101.18828        3.59906        3.99528        4.59417      138.57401
775.50000      291.22302      100.09139        3.48629        3.88878        4.63678      139.30527
776.00000      294.21698       99.54294        3.43596        3.75760        5.20537      140.03653
776.50000      290.92567       98.99449        3.46168        3.62360        5.34228      141.13342
777.00000      288.61208       98.99449        3.49074        3.57975        4.45514      141.86468
777.50000      286.16994       99.54294        3.51735        3.61132        3.88024      142.59595
778.00000      286.63869      101.46250        3.52666        3.72703        4.14713      142.96158
778.50000      287.34181      104.20473        3.47545        3.84731        4.56298      143.32721
779.00000      287.81056      104.20473        3.43320        3.85260        4.67075      143.32721
779.50000      286.27749      102.83361        3.45763        3.85844        4.59167      143.32721
780.00000      282.74262      101.18828        3.50951        3.86374        4.86333      143.69284
780.50000      277.44950      100.36561        3.57322        3.86959        5.15106      143.69284
781.00000      273.91463      100.36561        3.62683        3.87491        4.95214      142.96158
781.50000      270.37976       99.81716        3.69267        3.94758        4.66689      141.86468
782.00000      266.85407       98.72027        3.73922        4.02072        4.70580      140.76779
782.50000      263.02098       98.44605        3.78881        4.11000        4.90801      140.03653
783.00000      262.41536       97.07493        3.83905        4.17401        4.99092      138.57401
783.50000      255.07889       95.15537        3.89599        4.22770        5.20538      137.11149
784.00000      247.74242       87.09870        4.03910        4.29028        5.29316      136.01459
784.50000      240.40594       78.49084        4.16570        4.36276        5.07344      134.55207
785.00000      229.40124       71.46251        4.32273        4.53947        4.99808      133.82081
785.50000      222.06477       63.07128        4.44280        4.90904        5.75714      133.08955
786.00000      221.45915       60.75958        4.51772        5.11392        7.67185      132.35829
786.50000      220.86271       63.34551        4.56039        5.24444        7.29151      132.35829
787.00000      219.95887       72.76781        4.59517        5.16829        6.81370      131.99266
787.50000      219.35326       80.62155        4.59643        5.08566        6.15577      131.99266
788.00000      224.87244       86.92868        4.46434        4.98268        5.24181      131.99266
788.50000      230.39162       89.67091        4.33604        4.78379        5.10970      132.35829
789.00000      239.46928       90.49358        4.14308        4.62412        5.06596      133.45518
789.50000      246.59542       92.41314        3.89784        4.37511        4.93828      134.91770
790.00000      253.72156       94.33270        3.79651        4.12532        4.61481      135.64896
790.50000      264.41536       96.25226        3.67868        4.06782        4.14555      136.74586
791.00000      271.54149       95.78334        3.58335        3.99400        4.51307      137.47712
791.50000      278.66763       96.17274        3.48625        3.78372        5.19173      138.20838
792.00000      285.79377      100.36561        3.46216        3.58481        4.93435      138.93964
792.50000      292.30948      104.47895        3.44210        3.49633        4.16638      139.85372
793.00000      291.09781      109.07219        3.44994        3.51794        3.92640      140.03653
793.50000      285.92844      109.96341        3.48340        3.54038        3.82755      139.71112
794.00000      280.76824      104.47895        3.52960        3.56738        3.95843      138.89942
794.50000      273.01418       95.10053        3.59347        3.72140        4.30681      138.93964
795.00000      267.85399       84.73490        3.67171        4.02935        4.80602      138.57401
795.50000      262.68461       82.26689        3.78328        4.30542        5.59469      138.57401
796.00000      254.55843       80.07311        3.95921        4.50296        6.29615      137.84275
796.50000      246.44144       78.42777        4.08814        4.64410        6.08600      138.20838
797.00000      234.25218       76.50821        4.24081        4.76249        5.93261      137.47712
797.50000      233.34353       75.95976        4.26642        4.84294        5.88183      137.11149
798.00000      234.57444       81.44422        4.26567        4.79242        5.98101      137.11149
798.50000      235.81452       88.02557        4.21440        4.64527        5.73274      137.11149
799.00000      239.73155       94.60693        4.13128        4.52641        5.35708      137.11149
799.50000      245.09463       96.52649        4.03363        4.39856        5.04851      137.11149
800.00000      249.37590       95.42959        3.98518        4.37557        4.87742      137.47712
800.50000      257.42511       94.78020        3.89098        4.30730        4.95967      138.46151
801.00000      262.79737       92.85712        3.79901        4.09815        5.08625      139.19411
801.50000      268.16044       90.93405        3.78339        3.94000        5.04256      139.19411
802.00000      268.33535       90.93405        3.78272        3.89956        4.71212      139.19411
802.50000      268.59770       92.85712        3.78216        3.88648        4.25712      138.82781
803.00000      268.78179      101.52745        3.78150        3.90786        4.44005      137.72891
803.50000      268.95669      104.09064        3.78083        4.00917        4.74973      137.36261
804.00000      269.13159      103.70877        3.78027        4.10941        4.87095      136.99631
804.50000      265.84028      100.30492        3.77960        4.23308        5.34446      134.57140
805.00000      263.64607       93.59064        3.79269        4.24200        5.48070      134.01096
805.50000      261.45186       86.26372        3.80368        4.22956        5.43378      133.33330
806.00000      258.16054       81.04394        3.83884        4.21526        5.38711      131.68495
806.50000      255.96633       75.54943        3.89699        4.20065        5.43202      130.76920
807.00000      253.77212       73.35163        3.94611        4.18868        5.43106      130.03660
807.50000      250.84330       71.70328        4.00588        4.21101        5.38441      128.93770
808.00000      241.80367       70.05493        4.05158        4.29193        5.52183      127.83880
808.50000      231.06045       70.60438        4.10739        4.40208        6.00763      126.37360
809.00000      220.30805       71.12361        4.34770        4.53724        6.05753      126.00730
