~Version ---------------------------------------------------
VERS. 2.0 : CWLS LOG ASCII STANDARD - VERSION 2.0
WRAP. NO  : One line per depth step
DLM . SPACE : Column Data Section Delimiter
~Well ------------------------------------------------------
STRT.F           48 : START DEPTH
STOP.F       1432.0 : STOP DEPTH
STEP.F          0.5 : STEP
NULL.       -999.25 : NULL VALUE
COMP.                 WALSH & WATTS, INC. : COMPANY
WELL.                         HOWARD F 25 : WELL
FLD .                            MONTAGUE : FIELD
CNTY.                            MONTAGUE : COUNTY
STAT.                               TEXAS : STATE
CTRY.                                 USA : COUNTRY
SEC .                                     : SECTION
TWP .                                     : TOWNSHIP
RGE .                                     : RANGE
LOC . 1115'FEL & 2300'FSL OF THE J.CHAMBLIS SURVEY A-123 : LOCATION
EKB .F                      512 : ELEVATION KELLY BUSHING
EDF .F                      511 : ELEVATION DERRICK FLOOR
EGL .F                      505 : ELEVATION GROUND LEVEL
PDAT.                        GL : PERMANENT DATUM
EPD .                       505 : ELEVATION PERMANENT DATUM
APD .                         7 : ABOVE PERMANENT DATUM
LMF .                        KB : LOG MEASURED FROM
DMF .                        KB : DRILLING MEASURED FROM
API .            42337343120000 : API NUMBER
UWI .                           : UWI NUMBER
DIGC.                     NthDS : DIGITIZING COMPANY
~Params ----------------------------------------------------
SRVC. PIONEER WIRELINE SERVICES : LOGGING COMPANY
LOG .                   CNFD/ML : LOG
DATE.                2010-10-07 : RUN DATE
RUN .                         1 : RUN NUMBER
TDD .F                     1450 : TOTAL DEPTH DRILLER
TDL .F                     1452 : TOTAL DEPTH LOGGER
BOTL.F                     1452 : BOTTOM LOGGED INTERVAL
TOPL.F                       50 : TOP LOGGED INTERVAL
CSGS.IN                         : CASING SIZE
CSGD.F                          : CASING DRILLER
CSGL.F                          : CASING LOGGER
BS  .IN                   7.875 : BIT SIZE
MUD .                  GEL-CHEM : MUD TYPE
MUDD.                           : MUD DENSITY
MUDV.                           : MUD VISCOSITY
PH  .                           : MUD PH
FL  .                           : FLUID LOSS
MUDS.                  FLOWLINE : SOURCE OF SAMPLE
RM  .OHMM                   4.0 : MUD RESISTIVITY
RMT .DEGF                    72 : RM TEMPERATURE
RMF .OHMM                   3.0 : MUD FILTRATE RESISTIVITY
RMFT.DEGF                    72 : RMF TEMPERATURE
RMC .OHMM                   5.0 : MUD CAKE RESISTIVITY
RMCT.DEGF                    72 : RMC TEMPERATURE
RMFS.                      CALC : RMF SOURCE
RMCS.                      CALC : RMC SOURCE
RMBH.OHMM                     3 : MUD RESISTIVITY AT BHT
BHT .DEGF                    88 : BOTTOM HOLE TEMPERATURE
TIMC.           0730 2010-10-07 : TIME CIRCULATION STOPPED
TIML.           1020 2010-10-07 : TIME LOGGER ON BOTTOM
TMAX.DEGF                    88 : MAXIMUM RECORDED TEMPERATURE
UNIT.                      M-19 : EQUIPMENT NUMBER
BASE.                GRAHAM, TX : BASE LOCATION
ENG .                    WENDEL : RECORDED BY
WIT .           WOMBLE/BURLESON : WITNESSED BY
~Curve Information -----------------------------------------
DEPT.F          :DEPTH
CALD.IN         :
DPHI.%          :
GRD.GAPI        :
MINV.OHMM       :
MNOR.OHMM       :
NPHI.%          :
RHOC.G/CC       :
~ASCII ------------------------------------------------------
# ...
958.50000        8.03831       29.97567      109.79403        3.05942        2.46377       26.42583        0.16377
959.00000        7.96270       29.78138      106.09991        3.38116        2.71594       26.08515        0.18793
959.50000        7.87675       27.82192      103.19972        3.57536        3.01884       24.37784        0.19706
960.00000        7.79099       25.02929       99.71675        4.25072        3.32029       22.53049        0.19812
960.50000        7.76747       22.70204       97.61035        4.49275        3.57246       22.25666        0.19895
961.00000        7.77787       20.28854       96.19225        4.45652        3.39420       23.55293        0.20000
961.50000        7.78653       20.36421       94.88527        4.46087        3.12029       24.52716        0.14927
962.00000        7.79692       21.51776       92.71581        3.57536        2.89130       22.51500        0.14203
962.50000        7.80732       22.51577       90.54909        4.03768        2.95072       21.65210        0.14203
963.00000        7.81415       22.69939       89.75490        7.10145        3.28116       22.10177        0.15290
963.50000        7.81358       22.10034       90.62379        4.57971        3.43478       25.46684        0.16014
964.00000        7.87699       20.69838       91.34603        3.53623        3.34782       26.30786        0.16739
964.50000        7.92989       19.52976       89.98552        5.65217        3.27536       24.03111        0.16014
965.00000        8.05747       18.12779       87.50893        4.80290        3.18840       22.50727        0.13116
965.50000        8.15882       17.10593       86.67909        4.49275        3.07971       22.19075        0.12391
966.00000        8.23137       15.87962       90.66037        3.04348        2.94927       21.25050        0.12391
966.50000        8.23079       14.85776       94.64034        3.58695        2.81884       20.12190        0.13116
967.00000        8.23031       14.32459       94.69753        5.01884        3.15942       19.42611        0.12391
967.50000        8.24199       14.45331       88.94403        6.56956        3.66811       19.13155        0.09130
968.00000        8.26573       15.48939       82.48303        5.07246        3.50000       18.96970        0.06413
968.50000        8.28554       16.44678       80.20532        5.23768        3.56087       18.48886        0.03768
969.00000        8.29210       17.33501       79.83474        7.02898        4.92753       17.95056        0.04203
969.50000        8.30186       18.01780       79.20913       10.36231        8.55072       19.36931        0.03985
970.00000        8.34004       19.29615       80.02461       11.01449        9.21304       20.85222        0.02681
970.50000        8.37804       21.03341       88.51679        4.31159        3.47826       25.05241        0.02246
971.00000        8.42089       21.75951       95.59269        4.17391        3.01884       25.52381        0.06286
971.50000        8.48082       21.41615       97.91494        4.25072        3.54058       25.24900        0.11138
972.00000        8.53062       19.92671       98.09149        3.35362        3.12609       24.89612        0.13685
972.50000        8.59055       18.88875       98.08287        4.34782        3.22464       24.36844        0.14783
973.00000        8.65049       18.69629      100.26801        3.65217        2.81159       23.49626        0.12391
973.50000        8.69864       18.96567      103.91617        3.21884        2.61884       22.45000        0.11098
974.00000        8.75291       18.80382      108.29507        3.40145        2.92898       22.40160        0.12547
974.50000        8.80718       17.73414      109.02005        3.55507        3.18840       23.70410        0.15652
975.00000        8.76721       16.38548      105.88534        3.73768        3.12464       26.12022        0.16583
975.50000        8.65128       15.06878      104.34109        3.60290        3.05942       28.19234        0.15206
976.00000        8.53517       14.84984      105.70501        3.91304        3.00580       27.11790        0.13674
976.50000        8.46029       14.97101      106.65616        3.91304        2.94203       25.57345        0.13431
977.00000        8.47489       14.81478      105.68922        4.28551        2.96232       27.19360        0.14565
977.50000        8.48702       14.85201      102.38997        4.84058        3.34927       29.66462        0.13609
978.00000        8.50144       15.73109      101.37497        4.42029        3.18840       29.96718        0.10036
978.50000        8.51604       17.48848      102.37418        4.49275        3.39130       28.96630        0.07062
979.00000        8.52817       20.06928      103.79150        4.26087        3.10724       27.29705        0.05663
979.50000        8.59817       21.08364      104.11195        3.24638        2.46377       27.37723        0.07069
980.00000        8.66797       20.78432      105.43474        3.04348        2.65072       28.25521        0.11750
980.50000        8.70113       18.74617      108.92242        3.04348        2.83623       28.16838        0.16134
981.00000        8.72049       16.30011      108.68763        3.76811        2.82609       26.44620        0.18551
981.50000        8.70703       14.53571      107.15162        3.16667        2.68116       23.18098        0.16594
982.00000        8.66733       13.66915      105.36606        3.90145        2.85652       20.02605        0.14406
982.50000        8.64208       14.34072      103.87810        4.51449        3.27101       19.08470        0.12188
983.00000        8.68237       15.40888      102.09254        4.49275        3.76811       18.46040        0.09533
983.50000        8.73042       16.67221      101.56840        4.89130        3.17536       18.18364        0.07319
984.00000        8.77866       17.19924      102.18644        3.36956        2.46377       19.52127        0.11098
984.50000        8.71584       16.81086      102.38623        4.07536        3.11594       21.37637        0.14203
985.00000        8.64049       16.61949      102.04855        5.07246        3.65942       26.35423        0.13341
985.50000        8.57768       18.40835      101.76715        4.20290        3.47826       28.79488        0.08177
986.00000        8.50233       20.71981      103.41757        3.00725        2.89855       30.01540        0.07029
986.50000        8.54874       21.39492      104.04109        3.33333        2.31884       29.33900        0.11185
987.00000        8.58738       21.33603      102.83414        3.23623        2.48116       28.42486        0.15290
987.50000        8.63397       20.80981      102.50194        4.05797        3.29710       28.27180        0.15290
988.00000        8.68038       20.81411      105.57973        3.04348        2.87826       28.77759        0.13841
988.50000        8.71903       20.66849      109.27308        3.17971        2.42754       28.95036        0.14348
989.00000        8.76543       19.66273      109.17123        3.34203        2.75362       28.23261        0.18043
989.50000        8.74978       18.11913      107.38985        3.50580        2.59565       25.85462        0.19275
990.00000        8.71447       16.85684      105.25329        3.64058        2.46377       23.87284        0.18188
990.50000        8.67935       15.60272      104.04360        3.80435        2.77971       22.95870        0.16558
991.00000        8.65839       15.34731      104.58486        4.03768        3.05942       23.04058        0.14927
991.50000        8.64813       15.93349      105.23437        4.34782        3.14058       23.57492        0.11304
992.00000        8.63805       17.96096      105.58367        3.91304        3.07536       24.98099        0.07214
992.50000        8.62971       19.98879      103.94894        3.81014        2.88551       25.30367        0.06413
993.00000        8.62603       20.47373      100.41386        3.62319        2.65942       23.30555        0.09264
