~Version ---------------------------------------------------
VERS. 2.0 : CWLS LOG ASCII STANDARD - VERSION 2.0
WRAP. NO  : One line per depth step
DLM . SPACE : Column Data Section Delimiter
~Well ------------------------------------------------------
STRT.F         48.5 : START DEPTH
STOP.F       1449.0 : STOP DEPTH
STEP.F          0.5 : STEP
NULL.       -999.25 : NULL VALUE
COMP.                 WALSH & WATTS, INC. : COMPANY
WELL.                         HOWARD F 14 : WELL
FLD .             MONTAGUE COUNTY REGULAR : FIELD
CNTY.                            MONTAGUE : COUNTY
STAT.                               TEXAS : STATE
CTRY.                                 USA : COUNTRY
SEC .                                     : SECTION
TWP .                                     : TOWNSHIP
RGE .                                     : RANGE
LOC . 1430'FEL & 2600'FSL OF THE J.CHAMBLIS SURVEY A-123 : LOCATION
EKB .F                      849 : ELEVATION KELLY BUSHING
EDF .F                      848 : ELEVATION DERRICK FLOOR
EGL .F                      841 : ELEVATION GROUND LEVEL
PDAT.                        GL : PERMANENT DATUM
EPD .                       841 : ELEVATION PERMANENT DATUM
APD .                         8 : ABOVE PERMANENT DATUM
LMF .                        KB : LOG MEASURED FROM
DMF .                        KB : DRILLING MEASURED FROM
API .            42337351020000 : API NUMBER
UWI .                           : UWI NUMBER
DIGC.                     NthDS : DIGITIZING COMPANY
~Params ----------------------------------------------------
SRVC. PIONEER WIRELINE SERVICES : LOGGING COMPANY
LOG .                      DIFL : LOG
DATE.                2013-08-01 : RUN DATE
RUN .                         1 : RUN NUMBER
TDD .F                     1450 : TOTAL DEPTH DRILLER
TDL .F                     1449 : TOTAL DEPTH LOGGER
BOTL.F                     1449 : BOTTOM LOGGED INTERVAL
TOPL.F                       50 : TOP LOGGED INTERVAL
CSGS.IN                         : CASING SIZE
CSGD.F                          : CASING DRILLER
CSGL.F                          : CASING LOGGER
BS  .IN                   7.875 : BIT SIZE
MUD .                       GEL : MUD TYPE
MUDD.                       9.2 : MUD DENSITY
MUDV.                        75 : MUD VISCOSITY
PH  .                           : MUD PH
FL  .                           : FLUID LOSS
MUDS.                  FLOWLINE : SOURCE OF SAMPLE
RM  .OHMM                   2.8 : MUD RESISTIVITY
RMT .DEGF                    72 : RM TEMPERATURE
RMF .OHMM                   2.1 : MUD FILTRATE RESISTIVITY
RMFT.DEGF                    72 : RMF TEMPERATURE
RMC .OHMM                   3.5 : MUD CAKE RESISTIVITY
RMCT.DEGF                    72 : RMC TEMPERATURE
RMFS.                      CALC : RMF SOURCE
RMCS.                      CALC : RMC SOURCE
RMBH.OHMM                   2.3 : MUD RESISTIVITY AT BHT
BHT .DEGF                    87 : BOTTOM HOLE TEMPERATURE
TIMC.           0130 2018-08-01 : TIME CIRCULATION STOPPED
TIML.           0400 2018-08-01 : TIME LOGGER ON BOTTOM
TMAX.DEGF                    87 : MAXIMUM RECORDED TEMPERATURE
UNIT.                     C-052 : EQUIPMENT NUMBER
BASE.                GRAHAM, TX : BASE LOCATION
ENG .                    WENDEL : RECORDED BY
WIT .                  BURLESON : WITNESSED BY
~Curve Information -----------------------------------------
DEPT.F          :DEPTH
CILD.MMHO       :
GRR.GAPI        :
RILD.OHMM       :
RILM.OHMM       :
RSFL.OHMM       :
SP.MV           :
~ASCII ------------------------------------------------------
# ...
1209.50000      274.57470      101.08620        3.54983        3.51027        3.97049      170.61445
1210.00000      270.91985       99.01104        3.64284        3.60892        4.24663      170.24117
1210.50000      265.43518       95.26766        3.73827        3.71034        4.50400      170.23351
1211.00000      259.03560       94.51329        3.81955        3.80029        4.61850      170.22713
1211.50000      257.21297       96.37869        3.86876        3.85802        4.24451      170.46444
1212.00000      259.04758       97.76874        3.86819        3.86819        4.46397      170.63960
1212.50000      262.71201       96.30140        3.84152        3.85092        5.10739      170.78312
1213.00000      267.29135       97.20785        3.76046        3.75160        4.77359      170.95828
1213.50000      273.70290       99.12357        3.69147        3.67100        4.38718      171.10546
1214.00000      277.36733      101.03833        3.61053        3.57662        4.10045      171.28062
1214.50000      282.86158      102.40370        3.53107        3.48466        3.80671      171.27296
1215.00000      289.27074      103.49580        3.46629        3.40979        3.76786      171.26658
1215.50000      297.51211      107.05493        3.39028        3.32185        3.76719      171.25892
1216.00000      302.09145      110.33984        3.32808        3.23644        3.92873      171.25254
1216.50000      304.84097      109.23817        3.27906        3.23597        3.96128      171.24488
1217.00000      303.93086      108.40976        3.25481        3.23540        3.86171      171.23723
1217.50000      301.19331      106.21121        3.23492        3.23492        3.79661      171.23084
1218.00000      300.28319      106.20546        3.25376        3.23871        3.73251      170.85756
1218.50000      299.37307      106.19972        3.27243        3.26444        3.82739      170.48555
1219.00000      299.37786      106.74338        3.28826        3.28604        3.92480      170.03914
1219.50000      299.38265      107.83452        3.30740        3.31215        4.02458      169.73898
1220.00000      297.56002      107.82878        3.32638        3.33846        3.95674      169.73260
1220.50000      296.64990      107.82399        3.34247        3.33263        3.92284      169.72494
1221.00000      296.65469      106.72136        3.33288        3.31747        3.85660      169.71856
1221.50000      297.57439      102.05481        3.32510        3.30499        3.88867      170.07653
1222.00000      301.24122       97.38731        3.31584        3.28968        4.02126      170.43450
1222.50000      303.07583      100.39800        3.28135        3.25107        3.92019      170.79374
1223.00000      306.74026      104.16376        3.24266        3.20922        3.88672      170.78609
1223.50000      310.40469      107.94775        3.19678        3.15982        3.91892      171.14278
1224.00000      314.98642      110.94020        3.15182        3.11145        3.85275      171.13768
1224.50000      318.65085      116.69311        3.11466        3.07140        3.69325      171.13002
1225.00000      320.48546      120.08592        3.07059        3.02412        3.48108      171.48926
1225.50000      323.23498      121.63502        3.04301        3.02843        3.51002      171.99349
1226.00000      325.07199      123.18136        3.04641        3.04051        3.59925      172.42458
1226.50000      324.16187      124.07602        3.05024        3.05513        3.56842      172.78383
1227.00000      324.16666      121.73940        3.05365        3.06732        3.42069      173.21493
1227.50000      322.34163      113.50702        3.05774        3.08206        3.66137      173.23414
1228.00000      319.60169      112.13113        3.06159        3.09687        3.84182      173.15336
1228.50000      317.77906      110.48005        3.06785        3.10923        3.81191      173.07257
1229.00000      315.03912      109.65260        3.08962        3.12391        3.77639      173.00403
1229.50000      313.21409      109.37264        3.11154        3.13893        3.74699      172.92325
1230.00000      313.21888      109.64112        3.12975        3.15491        3.72085      172.84009
1230.50000      311.39624      109.91055        3.15196        3.17515        3.73905      172.71908
1231.00000      311.40103      109.35637        3.16880        3.19239        3.75428      172.59443
1231.50000      310.49091      108.25374        3.18162        3.21287        3.77265      172.12735
1232.00000      305.00625      106.32940        3.20717        3.27683        3.83544      172.48532
1232.50000      301.35140      106.04944        3.28187        3.34920        3.87451      172.84457
1233.00000      290.37966      106.04465        3.37382        3.43869        3.87382      172.83691
1233.50000      284.89500      106.03891        3.46834        3.53027        3.72693      172.82925
1234.00000      281.24015      105.48472        3.50869        3.56292        3.68164      173.18850
1234.50000      280.33003      101.91506        3.52496        3.60244        4.32014      173.18084
1235.00000      278.50739       99.98977        3.53843        3.63606        5.52453      173.17319
1235.50000      276.68236       95.87070        3.55484        3.64892        6.86494      173.53243
1236.00000      276.68715       96.41436        3.56591        3.64828        5.46718      173.52478
1236.50000      278.52176       97.77972        3.57441        3.60375        4.17425      174.24965
1237.00000      284.01601       98.04916        3.58434        3.47372        3.80382      174.60762
1237.50000      295.91703      100.23719        3.46668        3.34867        3.80337      174.96559
1238.00000      306.90074      102.15099        3.32316        3.25114        3.90018      174.95921
1238.50000      315.13972      106.80797        3.18656        3.15344        4.03317      174.95155
1239.00000      324.29600      111.18977        3.12205        3.05868        3.83376      175.09508
1239.50000      327.96043      112.28187        3.04639        2.99473        3.55313      175.26292
1240.00000      335.28450      119.40588        2.97258        2.93005        3.34901      175.43442
1240.50000      339.86384      121.04642        2.91239        2.87726        3.34852      175.57429
1241.00000      345.35809      122.77650        2.85598        2.81513        3.40483      175.74579
1241.50000      352.68455      124.14186        2.81463        2.76829        3.43304      175.88932
1242.00000      354.51916      122.67547        2.78051        2.73220        3.37517      176.03888
1242.50000      356.35377      121.02440        2.78823        2.71519        3.46097      176.14457
1243.00000      355.44365      119.64851        2.79621        2.72388        3.51928      176.23325
1243.50000      349.96138      121.98736        2.80264        2.73106        3.23430      176.34259
1244.00000      346.30653      125.12145        2.83301        2.76112        3.26109      175.87918
1244.50000      341.73677      126.09563        2.85873        2.79725        3.31603      174.86604
1245.00000      336.25210      127.26630        2.88995        2.85461        3.37180      174.49276
1245.50000      328.02510      127.06407        2.92126        2.91340        3.63682      174.12075
1246.00000      322.54043      124.00350        2.97048        2.96298        3.79276      173.74746
1246.50000      317.97067      117.41645        3.03063        3.02400        3.85654      173.37417
1247.00000      311.57110      113.84679        3.09200        3.08601        3.92151      173.73342
1247.50000      306.08643      114.93793        3.14409        3.13853        3.88792      173.36013
1248.00000      299.68924      116.02907        3.20694        3.15521        3.85461      172.98812
1248.50000      296.03439      114.10474        3.25932        3.16113        3.69504      172.24921
1249.00000      292.37955      112.45366        3.32336        3.16804        3.72565      171.51030
