~Version ---------------------------------------------------
VERS. 2.0 : CWLS LOG ASCII STANDARD - VERSION 2.0
WRAP. NO  : One line per depth step
DLM . SPACE : Column Data Section Delimiter
~Well ------------------------------------------------------
STRT.F           11 : START DEPTH
STOP.F       1399.0 : STOP DEPTH
STEP.F          0.5 : STEP
NULL.       -999.25 : NULL VALUE
COMP.                 WALSH & WATTS, INC. : COMPANY
WELL.                      HOWARD AB E 4E : WELL
FLD .             MONTAGUE COUNTY REGULAR : FIELD
CNTY.                            MONTAGUE : COUNTY
STAT.                                     : STATE
CTRY.                                 USA : COUNTRY
SEC .                                     : SECTION
TWP .                                     : TOWNSHIP
RGE .                                     : RANGE
LOC . 3250'FEL & 1590'FSL OF THE J.CHAMBLIS SURVEY A-123 : LOCATION
EKB .F                          : ELEVATION KELLY BUSHING
EDF .F                          : ELEVATION DERRICK FLOOR
EGL .F                          : ELEVATION GROUND LEVEL
PDAT.                        GL : PERMANENT DATUM
EPD .                           : ELEVATION PERMANENT DATUM
APD .                         8 : ABOVE PERMANENT DATUM
LMF .                        KB : LOG MEASURED FROM
DMF .                        KB : DRILLING MEASURED FROM
API .            42337348780000 : API NUMBER
UWI .                           : UWI NUMBER
DIGC.                     NthDS : DIGITIZING COMPANY
~Params ----------------------------------------------------
SRVC. PIONEER WIRELINE SERVICES : LOGGING COMPANY
LOG .                      DIFL : LOG
DATE.                2012-08-01 : RUN DATE
RUN .                         1 : RUN NUMBER
TDD .F                     1400 : TOTAL DEPTH DRILLER
TDL .F                     1396 : TOTAL DEPTH LOGGER
BOTL.F                     1394 : BOTTOM LOGGED INTERVAL
TOPL.F                       50 : TOP LOGGED INTERVAL
CSGS.IN                         : CASING SIZE
CSGD.F                          : CASING DRILLER
CSGL.F                          : CASING LOGGER
BS  .IN                   7.875 : BIT SIZE
MUD .                  CHEM-GEL : MUD TYPE
MUDD.                           : MUD DENSITY
MUDV.                           : MUD VISCOSITY
PH  .                           : MUD PH
FL  .                           : FLUID LOSS
MUDS.                  FLOWLINE : SOURCE OF SAMPLE
RM  .OHMM                   2.4 : MUD RESISTIVITY
RMT .DEGF                    73 : RM TEMPERATURE
RMF .OHMM                   1.8 : MUD FILTRATE RESISTIVITY
RMFT.DEGF                    73 : RMF TEMPERATURE
RMC .OHMM                   3.0 : MUD CAKE RESISTIVITY
RMCT.DEGF                    73 : RMC TEMPERATURE
RMFS.                      CALC : RMF SOURCE
RMCS.                      CALC : RMC SOURCE
RMBH.OHMM                   2.0 : MUD RESISTIVITY AT BHT
BHT .DEGF                    86 : BOTTOM HOLE TEMPERATURE
TIMC.           0200 2012-08-01 : TIME CIRCULATION STOPPED
TIML.           0430 2012-08-01 : TIME LOGGER ON BOTTOM
TMAX.DEGF                    86 : MAXIMUM RECORDED TEMPERATURE
UNIT.                       110 : EQUIPMENT NUMBER
BASE.                GRAHAM, TX : BASE LOCATION
ENG .                    WENDEL : RECORDED BY
WIT .           OVERBY/BURLESON : WITNESSED BY
~Curve Information -----------------------------------------
DEPT.F          :DEPTH
CILD.MMHO       :
GRR.GAPI        :
ILD.OHMM        :
ILM.OHMM        :
SFL.OHMM        :
SP.MV           :
~ASCII ------------------------------------------------------
# ...
1292.50000      359.51543      133.66598        2.79875        2.86496        2.90372      190.53331
1293.00000      359.62438      135.10998        2.79549        2.85075        2.90372      191.86664
1293.50000      359.70443      136.49998        2.78898        2.85075        2.90372      192.17864
1294.00000      359.78447      136.62798        2.78334        2.85075        2.90372      192.15464
1294.50000      359.86452      136.42798        2.78470        2.85075        2.90372      191.57864
1295.00000      359.94457      135.95998        2.78830        2.85075        2.90372      191.33331
1295.50000      360.02462      134.19998        2.79258        2.83905        2.90372      191.86664
1296.00000      360.11131      130.69998        2.79618        2.82290        2.89731      192.79997
1296.50000      360.66311      128.33398        2.80270        2.81598        2.88719      193.86664
1297.00000      362.16508      128.17598        2.81201        2.81598        2.87835      194.88797
1297.50000      363.66704      130.03598        2.81598        2.82394        2.86830      195.33331
1298.00000      364.17234      132.25998        2.81598        2.84272        2.86830      195.38131
1298.50000      364.17930      134.33998        2.79532        2.84289        2.86583      195.57597
1299.00000      364.18625      137.87198        2.77737        2.83175        2.86830      195.43997
1299.50000      364.19321      142.03998        2.77481        2.81909        2.84725      195.08264
1300.00000      364.42067      143.39998        2.79875        2.81598        2.85425      194.64264
1300.50000      364.42764      141.71398        2.74770        2.76275        2.82463      193.38931
1301.00000      363.98825      137.42798        2.74433        2.77788        2.86478      193.28797
1301.50000      363.55552      133.59998        2.73844        2.77907        2.83766      193.59997
1302.00000      363.11613      132.39998        2.73173        2.77498        2.79309      194.66664
1302.50000      363.27634      132.69998        2.72604        2.77124        2.76461      194.58664
1303.00000      363.43655      133.09998        2.71969        2.76716        2.76954      194.30131
1303.50000      363.59676      133.19998        2.71319        2.76241        2.78163      193.83464
1304.00000      363.75696      133.19998        2.70637        2.75733        2.78881      193.31731
1304.50000      364.21031      132.91398        2.69858        2.75141        2.80013      192.13331
1305.00000      364.80355      131.92598        2.69758        2.74720        2.81028      191.09597
1305.50000      365.39680      130.39998        2.69758        2.74500        2.83331      190.10397
1306.00000      365.99671      129.59998        2.69758        2.74315        2.86830      189.17597
1306.50000      366.58996      130.39998        2.68701        2.74097        2.84568      188.36531
1307.00000      367.18321      131.99998        2.67648        2.73878        2.78847      187.94397
1307.50000      367.39005      133.62198        2.66730        2.73676        2.76461      187.72531
1308.00000      367.59690      135.73398        2.67319        2.73475        2.74854      187.24531
1308.50000      367.80374      137.99998        2.68322        2.73274        2.75479      186.55997
1309.00000      368.01058      139.03998        2.69477        2.73089        2.76190      185.99997
1309.50000      368.21742      136.59998        2.69940        2.73089        2.80253      185.78664
1310.00000      368.42426      135.35598        2.70139        2.73089        2.85951      185.90131
1310.50000      368.23138      134.58198        2.70371        2.73089        2.86830      186.71731
1311.00000      367.23903      134.43598        2.70571        2.73089        2.86250      187.86664
1311.50000      366.24667      133.89998        2.70803        2.73173        2.81598      188.42664
1312.00000      365.54746      132.59998        2.71003        2.73693        2.80632      189.04797
1312.50000      365.00147      132.27598        2.71235        2.74315        2.79532      189.38931
1313.00000      364.45549      131.69998        2.71552        2.75141        2.78436      188.84531
1313.50000      363.90284      131.06598        2.72002        2.76461        2.78163      188.01597
1314.00000      363.35686      129.19998        2.72503        2.77975        2.78163      187.16797
1314.50000      362.81087      127.19998        2.72955        2.79309        2.79309      186.02131
1315.00000      361.07902      126.79998        2.73089        2.79875        2.81304      185.65064
1315.50000      358.75423      127.87998        2.73089        2.79875        2.81598      185.51731
1316.00000      358.31484      130.33398        2.73089        2.79875        2.80116      185.67197
1316.50000      359.10130      132.39998        2.72871        2.79789        2.80167      185.95997
1317.00000      360.54730      133.37598        2.72503        2.79223        2.81598      186.39997
1317.50000      362.21983      133.75998        2.72069        2.78573        2.80443      186.79997
1318.00000      363.00628      133.59998        2.71685        2.78163        2.78163      186.54931
1318.50000      361.34771      133.39998        2.71719        2.78163        2.78163      186.29864
1319.00000      359.35603      132.85998        2.72537        2.78163        2.78163      186.09864
1319.50000      359.58286      130.94998        2.73240        2.78163        2.78163      185.87464
1320.00000      360.92227      126.39998        2.74063        2.78163        2.78163      185.68797
1320.50000      362.26169      123.39998        2.74770        2.78163        2.79875      185.51197
1321.00000      361.54915      123.29998        2.74097        2.77668        2.88011      185.09864
1321.50000      359.80397      126.46598        2.73508        2.77243        2.86830      184.66664
1322.00000      358.06545      131.79998        2.72838        2.76767        2.85618      184.27997
1322.50000      358.93185      134.99998        2.72169        2.76258        2.83696      184.22131
1323.00000      359.79159      133.99998        2.71585        2.75750        2.82013      184.39997
1323.50000      360.97111      131.66598        2.71419        2.75192        2.80116      184.39997
1324.00000      362.31052      129.94998        2.71285        2.74703        2.79875      184.39997
1324.50000      363.64994      130.13398        2.70753        2.74147        2.79875      184.04531
1325.00000      364.98935      130.69998        2.70288        2.73643        2.79875      183.59997
1325.50000      366.26214      131.29998        2.69758        2.73089        2.79463      183.08797
1326.00000      367.50162      131.39998        2.69229        2.71869        2.78368      182.59464
1326.50000      368.73444      131.19998        2.68767        2.70820        2.77413      181.50398
1327.00000      369.97392      131.84998        2.68240        2.69609        2.76309      180.13331
1327.50000      371.13346      133.46598        2.67779        2.68552        2.75276      179.19998
1328.00000      372.13976      136.19998        2.67254        2.68108        2.74113      178.19464
1328.50000      373.14606      136.79998        2.66730        2.68108        2.73156      177.61331
1329.00000      373.65503      136.78198        2.66468        2.68108        2.73676      177.37064
1329.50000      372.16302      135.90998        2.66468        2.68767        2.74265      177.21864
1330.00000      370.67100      135.92598        2.66468        2.70305        2.74770      176.39998
1330.50000      369.17899      135.19998        2.66468        2.72086        2.75361      175.63464
1331.00000      368.18431      133.59998        2.66468        2.73643        2.75868      175.17064
1331.50000      366.59236      133.39998        2.66468        2.75023        2.76461      174.76531
1332.00000      365.00041      134.99998        2.66468        2.75699        2.77975      174.31998
