~Version ---------------------------------------------------
VERS. 2.0 : CWLS LOG ASCII STANDARD - VERSION 2.0
WRAP. NO  : One line per depth step
DLM . SPACE : Column Data Section Delimiter
~Well ------------------------------------------------------
STRT.F           48 : START DEPTH
STOP.F       1439.0 : STOP DEPTH
STEP.F          0.5 : STEP
NULL.       -999.25 : NULL VALUE
COMP.                 WALSH & WATTS, INC. : COMPANY
WELL.                         HOWARD F 14 : WELL
FLD .             MONTAGUE COUNTY REGULAR : FIELD
CNTY.                            MONTAGUE : COUNTY
STAT.                               TEXAS : STATE
CTRY.                                 USA : COUNTRY
SEC .                                     : SECTION
TWP .                                     : TOWNSHIP
RGE .                                     : RANGE
LOC . 1430'FEL & 2600'FSL OF THE J.CHAMBLIS SURVEY A-123 : LOCATION
EKB .F                      849 : ELEVATION KELLY BUSHING
EDF .F                      848 : ELEVATION DERRICK FLOOR
EGL .F                      841 : ELEVATION GROUND LEVEL
PDAT.                        GL : PERMANENT DATUM
EPD .                       841 : ELEVATION PERMANENT DATUM
APD .                         8 : ABOVE PERMANENT DATUM
LMF .                        KB : LOG MEASURED FROM
DMF .                        KB : DRILLING MEASURED FROM
API .            42337351020000 : API NUMBER
UWI .                           : UWI NUMBER
DIGC.                     NthDS : DIGITIZING COMPANY
~Params ----------------------------------------------------
SRVC.                   PIONEER : LOGGING COMPANY
LOG .                      CNFD : LOG
DATE.                2013-08-01 : RUN DATE
RUN .                         1 : RUN NUMBER
TDD .F                     1450 : TOTAL DEPTH DRILLER
TDL .F                     1449 : TOTAL DEPTH LOGGER
BOTL.F                     1429 : BOTTOM LOGGED INTERVAL
TOPL.F                       50 : TOP LOGGED INTERVAL
CSGS.IN                         : CASING SIZE
CSGD.F                          : CASING DRILLER
CSGL.F                          : CASING LOGGER
BS  .IN                   7.875 : BIT SIZE
MUD .                       GEL : MUD TYPE
MUDD.                       9.2 : MUD DENSITY
MUDV.                        75 : MUD VISCOSITY
PH  .                           : MUD PH
FL  .                           : FLUID LOSS
MUDS.                  FLOWLINE : SOURCE OF SAMPLE
RM  .OHMM                   2.8 : MUD RESISTIVITY
RMT .DEGF                    72 : RM TEMPERATURE
RMF .OHMM                   2.1 : MUD FILTRATE RESISTIVITY
RMFT.DEGF                    72 : RMF TEMPERATURE
RMC .OHMM                   3.5 : MUD CAKE RESISTIVITY
RMCT.DEGF                    72 : RMC TEMPERATURE
RMFS.                      CALC : RMF SOURCE
RMCS.                      CALC : RMC SOURCE
RMBH.OHMM                   2.3 : MUD RESISTIVITY AT BHT
BHT .DEGF                    87 : BOTTOM HOLE TEMPERATURE
TIMC.           0130 2018-08-01 : TIME CIRCULATION STOPPED
TIML.           0400 2018-08-01 : TIME LOGGER ON BOTTOM
TMAX.DEGF                    87 : MAXIMUM RECORDED TEMPERATURE
UNIT.                     C-052 : EQUIPMENT NUMBER
BASE.                GRAHAM, TX : BASE LOCATION
ENG .                    WENDEL : RECORDED BY
WIT .                  BURLESON : WITNESSED BY
~Curve Information -----------------------------------------
DEPT.F          :DEPTH
CALD.IN         :
DPHI.%          :
GRD.GAPI        :
MINV.OHMM       :
MNOR.OHMM       :
NPHI.%          :
RHOC.G/CC       :
~ASCII ------------------------------------------------------
# ...
1304.50000        7.81319       14.94702      124.45052        3.77289        3.00366       21.13951        0.04081
1305.00000        7.81319       14.92796      124.72525        3.83370        3.04029       19.42878        0.04114
1305.50000        7.81319       14.91219      123.62635        3.76557        3.07179       19.37965        0.04154
1306.00000        7.81319       14.89313      122.52744        3.83883        3.04762       20.83410        0.04183
1306.50000        7.81319       14.87700      124.45052        3.92674        3.01831       22.21925        0.04223
1307.00000        7.81319       14.85793      129.39558        4.00000        2.99414       23.66929        0.04128
1307.50000        7.81319       14.98002      131.86810        3.81978        2.96483       23.76719        0.03396
1308.00000        7.81319       15.05041      129.67030        3.68718        2.93993       23.05591        0.02784
1308.50000        7.81319       14.98185      126.64832        3.80146        2.99341       21.90944        0.03385
1309.00000        7.81319       14.78460      123.62635        3.96410        3.07179       20.30504        0.03883
1309.50000        7.81319       14.71128      122.25272        3.91648        3.12234       18.39340        0.04048
1310.00000        7.81319       14.71128      120.60437        3.77582        2.98535       17.80165        0.03549
1310.50000        7.81319       14.71128      118.95602        3.70476        2.93040       18.13016        0.03344
1311.00000        7.81319       14.56462      118.13184        3.80952        3.00366       18.89093        0.03835
1311.50000        7.81319       14.38130      118.40657        3.85348        3.15018       19.19633        0.04421
1312.00000        7.81319       14.34464      118.13184        3.91209        3.15018       19.26966        0.04458
1312.50000        7.81319       14.52796      116.20877        4.08791        3.07692       19.33089        0.04143
1313.00000        7.81319       14.82127      112.36261        4.12674        3.07692       18.92759        0.03883
1313.50000        7.81319       15.08231      112.36261        3.98022        3.07692       19.16590        0.03568
1314.00000        7.81319       15.10541      116.75822        3.73626        3.07692       19.46545        0.03637
1314.50000        7.81319       14.98625      121.15382        3.73626        2.88132       19.58754        0.03820
1315.00000        7.81319       14.86050      123.90107        3.86813        2.93040       18.48763        0.03883
1315.50000        7.81319       14.87626      122.80217        4.13187        3.26007       17.16774        0.03883
1316.00000        7.81319       14.88946      120.60437        4.02930        3.07692       17.14171        0.03883
1316.50000        7.81319       14.83593      120.05492        3.84835        2.89890       17.97434        0.04018
1317.00000        7.81319       14.76260      121.15382        3.76190        3.00366       18.86050        0.04707
1317.50000        7.81319       14.74794      122.52744        3.65861        2.80806       19.92374        0.04850
1318.00000        7.81319       14.78864      122.52744        3.64176        2.93040       20.39413        0.04681
1318.50000        7.81319       14.82127      121.42854        3.95604        3.07692       20.17415        0.04908
1319.00000        7.81319       14.77727      121.42854        3.77289        3.08718       19.71586        0.05275
1319.50000        7.81319       14.52796      123.62635        3.62637        2.93040       18.83850        0.05714
1320.00000        7.81319       14.25298      128.84612        3.80952        2.93040       18.57672        0.06081
1320.50000        7.81319       14.01943      131.59338        3.63590        2.93040       19.74629        0.06081
1321.00000        7.81319       13.90468      133.51645        3.86447        2.93040       20.90743        0.05414
1321.50000        7.81319       14.01467      131.59338        3.72161        2.95458       20.79743        0.04414
1322.00000        7.81319       14.10633      126.37360        3.68718        2.99560       20.47479        0.04103
1322.50000        7.81319       14.12832      121.97799        3.72381        2.91941       19.90284        0.03883
1323.00000        7.81319       14.07333      120.60437        3.81831        2.83443       20.22475        0.04432
1323.50000        7.81319       14.14922      121.15382        3.93187        2.81758       20.85096        0.04875
1324.00000        7.81319       14.45170      121.15382        3.80952        2.87399       21.09074        0.04337
1324.50000        7.81319       14.95949      121.15382        3.66300        2.93040       19.75252        0.03689
1325.00000        7.81319       15.28873      121.70327        4.02930        2.93040       18.01100        0.03150
1325.50000        7.81319       15.23373      123.07690        3.68718        2.89377       18.03850        0.04747
1326.00000        7.81319       14.58295      124.72525        3.61758        2.71062       18.84363        0.06081
1326.50000        7.81319       14.13676      126.09887        3.66300        2.92015       19.75252        0.06081
1327.00000        7.81319       14.04400      126.09887        3.66300        3.07692       20.13749        0.05509
1327.50000        7.81319       14.17269      123.62635        3.71795        2.97949       20.14262        0.04820
1328.00000        7.81319       14.42640      121.97799        3.84908        2.93040       19.73419        0.04249
1328.50000        7.81319       14.63795      121.42854        3.74725        2.96703       19.39359        0.03850
1329.00000        7.81319       14.84216      123.35162        3.66300        2.95971       19.53254        0.03516
1329.50000        7.81319       15.01228      125.82415        3.68645        2.86373       20.04583        0.03762
1330.00000        7.81319       15.09258      125.27470        3.70549        2.99707       20.32081        0.04040
1330.50000        7.81319       14.98625      122.80217        3.72820        3.04542       19.58754        0.04509
1331.00000        7.81319       14.63062      120.60437        3.80952        2.99780       18.81760        0.04905
1331.50000        7.81319       14.19065      118.95602        3.95604        2.96117       19.09624        0.04982
1332.00000        7.81319       13.96590      117.85712        3.76557        2.93040       20.76810        0.04982
1332.50000        7.81319       14.03777      118.68129        3.85861        3.36996       21.78735        0.04982
1333.00000        7.81319       14.19285      120.60437        3.79927        3.23370       20.44656        0.04249
1333.50000        7.81319       14.16645      124.45052        3.73626        3.05275       17.82768        0.04615
1334.00000        7.81319       13.87315      128.29667        3.68425        3.01172       17.66270        0.04615
1334.50000        7.81319       13.72136      129.94503        3.84615        2.96264       18.43886        0.04615
1335.00000        7.81319       13.92044      129.12085        3.98535        2.92234       19.30633        0.04615
1335.50000        7.81319       14.31311      127.47250        3.72161        2.87326       19.63886        0.03150
1336.00000        7.81319       14.52796      126.92305        3.71502        2.96703       19.88084        0.03516
1336.50000        7.81319       14.48836      127.74722        4.00293        2.90110       20.07993        0.04249
1337.00000        7.81319       14.25151      127.74722        3.86960        2.87179       20.39413        0.04615
1337.50000        7.81319       14.05426      125.54942        3.73626        3.04762       20.39413        0.04982
1338.00000        7.81319       14.13676      123.62635        3.73626        2.95971       19.10578        0.04615
1338.50000        7.81319       14.28341      121.42854        3.73626        2.78388       18.73804        0.04615
