~Version ---------------------------------------------------
VERS. 2.0 : CWLS LOG ASCII STANDARD - VERSION 2.0
WRAP. NO  : One line per depth step
DLM . SPACE : Column Data Section Delimiter
~Well ------------------------------------------------------
STRT.F           40 : START DEPTH
STOP.F       1271.0 : STOP DEPTH
STEP.F          0.5 : STEP
NULL.       -999.25 : NULL VALUE
COMP.                 WALSH & WATTS, INC. : COMPANY
WELL.                         HOWARD G 17 : WELL
FLD .             MONTAGUE COUNTY REGULAR : FIELD
CNTY.                            MONTAGUE : COUNTY
STAT.                               TEXAS : STATE
CTRY.                                 USA : COUNTRY
SEC .                                     : SECTION
TWP .                                     : TOWNSHIP
RGE .                                     : RANGE
LOC . 520'FNL & 4250'FEL OF THE J.CHAMBLIS SURVEY, A-123 : LOCATION
EKB .F                      519 : ELEVATION KELLY BUSHING
EDF .F                      518 : ELEVATION DERRICK FLOOR
EGL .F                      512 : ELEVATION GROUND LEVEL
PDAT.                        GL : PERMANENT DATUM
EPD .                       512 : ELEVATION PERMANENT DATUM
APD .                         7 : ABOVE PERMANENT DATUM
LMF .                        KB : LOG MEASURED FROM
DMF .                        KB : DRILLING MEASURED FROM
API .            42337343900000 : API NUMBER
UWI .                           : UWI NUMBER
DIGC.                     NthDS : DIGITIZING COMPANY
~Params ----------------------------------------------------
SRVC. PIONEER WIRELINE SERVICES : LOGGING COMPANY
LOG .                      CNFD : LOG
DATE.                2010-10-13 : RUN DATE
RUN .                         1 : RUN NUMBER
TDD .F                     1298 : TOTAL DEPTH DRILLER
TDL .F                     1280 : TOTAL DEPTH LOGGER
BOTL.F                     1280 : BOTTOM LOGGED INTERVAL
TOPL.F                       50 : TOP LOGGED INTERVAL
CSGS.IN                         : CASING SIZE
CSGD.F                          : CASING DRILLER
CSGL.F                          : CASING LOGGER
BS  .IN                   7.875 : BIT SIZE
MUD .                  GEL-CHEM : MUD TYPE
MUDD.                           : MUD DENSITY
MUDV.                           : MUD VISCOSITY
PH  .                           : MUD PH
FL  .                           : FLUID LOSS
MUDS.                  FLOWLINE : SOURCE OF SAMPLE
RM  .OHMM                   3.6 : MUD RESISTIVITY
RMT .DEGF                    72 : RM TEMPERATURE
RMF .OHMM                   2.7 : MUD FILTRATE RESISTIVITY
RMFT.DEGF                    72 : RMF TEMPERATURE
RMC .OHMM                   4.5 : MUD CAKE RESISTIVITY
RMCT.DEGF                    72 : RMC TEMPERATURE
RMFS.                      CALC : RMF SOURCE
RMCS.                      CALC : RMC SOURCE
RMBH.OHMM                   3.0 : MUD RESISTIVITY AT BHT
BHT .DEGF                    85 : BOTTOM HOLE TEMPERATURE
TIMC.           0245 2010-10-13 : TIME CIRCULATION STOPPED
TIML.           0540 2010-10-13 : TIME LOGGER ON BOTTOM
TMAX.DEGF                    85 : MAXIMUM RECORDED TEMPERATURE
UNIT.                      M-19 : EQUIPMENT NUMBER
BASE.             GRAHAM, TEXAS : BASE LOCATION
ENG .                    WENDEL : RECORDED BY
WIT .           WOMBLE/BURLESON : WITNESSED BY
~Curve Information -----------------------------------------
DEPT.F          :DEPTH
CALI.IN         :
DPHI.PU         :
GRD.GAPI        :
MINV.OHMM       :
MNOR.OHMM       :
NPHI.PU         :
RHOC.G/CC       :
~ASCII ------------------------------------------------------
# ...
1227.50000        7.77903       15.24600      105.84903        4.62686        3.00895       19.60755        0.01664
1228.00000        7.77903       15.37908      105.67356        4.80597        3.10597       22.00000        0.01866
1228.50000        7.78052       15.50424      104.78771        4.17910        3.22089       24.84906        0.02313
1229.00000        7.78483       15.55137      103.72639        4.02985        3.31791       25.54717        0.02687
1229.50000        7.78839       15.58454      103.12639        4.56716        3.43283       23.88679        0.02463
1230.00000        7.79195       15.51518      103.30186        4.47761        3.31791       20.74227        0.01716
1230.50000        7.79625       15.44581      102.45281        4.47761        3.20298       20.20755        0.01093
1231.00000        7.78577       15.36249      101.43394        4.47761        3.13433       20.66415        0.01134
1231.50000        7.76161       15.30217      101.32073        4.47761        3.13433       22.49057        0.01321
1232.00000        7.74157       15.27427      104.15092        4.17910        3.13433       23.24528        0.01220
1232.50000        7.76498       15.38059      108.11318        4.32836        3.13433       22.49057        0.01093
1233.00000        7.77903       15.63205      107.20752        4.32836        3.13433       21.54717        0.00993
1233.50000        7.77903       15.67389      104.29243        4.32836        3.08507       21.49057        0.01183
1234.00000        7.77903       15.55061      100.64149        4.62686        3.00149       22.05660        0.01791
1234.50000        7.76966       15.34477      100.30752        4.62686        2.98507       22.59434        0.02537
1235.00000        7.74625       15.10085      100.89620        4.62686        3.09104       22.87623        0.02903
1235.50000        7.72715       14.73893      101.60375        4.22239        2.98507       23.12793        0.03034
1236.00000        7.74831       14.56174      101.60375        4.32836        2.98507       23.29925        0.03142
1236.50000        7.76966       14.49765      105.61413        4.45671        2.98507       23.33321        0.03209
1237.00000        7.79513       14.69369      108.39620        4.27910        2.98507       23.14453        0.03209
1237.50000        7.81648       15.14609      107.83016        4.22836        3.02836       23.11698        0.02996
1238.00000        7.77903       15.34703      106.41507        4.32836        3.09104       23.67547        0.02571
1238.50000        7.74775       15.44769      104.00941        4.22239        3.11642       24.36113        0.02213
1239.00000        7.72903       15.14119      102.45281        4.22836        3.01194       24.41509        0.01858
1239.50000        7.72285       14.88973      102.16979        4.29104        2.92388       23.92453        0.01966
1240.00000        7.73034       14.68615      104.81035        4.21642        2.83582       22.61132        0.02276
1240.50000        7.74532       14.56174      108.11318        3.88060        2.83582       21.22000        0.02399
1241.00000        7.75786       14.84449      109.52828        4.10448        2.83582       19.64528        0.02213
1241.50000        7.74307       15.03299      108.50941        4.32836        2.83582       19.88679        0.02060
1242.00000        7.71704       15.25919      107.66035        4.32836        2.83582       20.83019        0.01873
1242.50000        7.70693       15.42884      106.98111        4.22836        2.83582       21.61510        0.01716
1243.00000        7.71423       15.52309      106.80564        4.12985        2.83582       21.45925        0.01937
1243.50000        7.72285       15.63619      105.91979        4.29552        2.83582       20.59623        0.02198
1244.00000        7.72996       15.55061        -999.25        4.17910        2.88209       21.04566        0.02418
1244.50000        7.73876       15.44769        -999.25        4.24179        2.92985       21.86793        0.02463
1245.00000        7.74588       15.36211        -999.25        4.31642        2.98507       22.11321        0.02410
1245.50000        7.75318       15.25919        -999.25        4.15821        2.83582       20.56604        0.02321
1246.00000        7.76161       15.21018        -999.25        4.22836        3.03433       19.05661        0.02213
1246.50000        7.76779       15.15099        -999.25        4.56119        3.10746       18.52830        0.02127
1247.00000        7.77528       15.10198        -999.25        4.49403        3.03880       18.89811        0.02160
1247.50000        7.76873       15.05259        -999.25        4.37761        3.00298       19.44528        0.02298
1248.00000        7.74326       15.22488        -999.25        4.62686        3.04627       20.45283        0.02418
1248.50000        7.71255       15.46466        -999.25        4.92537        3.09851        -999.25        0.02373
1249.00000        7.68708       15.78021        -999.25        4.55224        3.14328        -999.25        0.02190
1249.50000        7.66386       16.05429        -999.25        4.38507        3.19552        -999.25        0.02037
1250.00000        7.64719       16.20170        -999.25        4.47761        3.24030        -999.25        0.01888
1250.50000        7.63333       16.22055        -999.25        5.79104        3.28358        -999.25        0.01100
1251.00000        7.61667       16.10745        -999.25        4.02985        3.33582        -999.25        0.00922
1251.50000        7.60281       15.89180        -999.25        4.65224        3.38060        -999.25        0.00741
1252.00000        7.59382       15.49369        -999.25        4.79403        3.43283        -999.25        0.01133
1252.50000        7.60637       14.98285        -999.25        5.63433        4.08507        -999.25        0.01526
1253.00000        7.61667       14.75024        -999.25        5.25373        4.73283        -999.25        0.01800
1253.50000        7.62921       15.28445        -999.25        5.79104        4.86865        -999.25        0.01481
1254.00000        7.63970       16.16814        -999.25        4.32836        3.84328        -999.25        0.00248
1254.50000        7.64494       17.27239        -999.25        4.62686        3.31343        -999.25       -0.00507
1255.00000        7.62715       18.13384        -999.25        4.02985        3.16418        -999.25       -0.00648
1255.50000        7.61255       18.09425        -999.25        4.02985        2.98507        -999.25       -0.00185
1256.00000        7.59775       17.68445        -999.25        4.11492        2.83582        -999.25        0.00618
1256.50000        7.59850       17.20302        -999.25        5.13880        2.94776        -999.25        0.01544
1257.00000        7.60712       17.00170        -999.25        6.07612        3.76865        -999.25        0.01941
1257.50000        7.61667       16.91800        -999.25        4.37164        3.76119        -999.25        0.02078
1258.00000        7.62453       16.91800        -999.25        7.19403        4.02985        -999.25        0.02211
1258.50000        7.62584       16.91800        -999.25        6.26865        3.78060        -999.25        0.02344
1259.00000        7.61554       16.91800        -999.25        -999.25        3.01492        -999.25        0.02481
1259.50000        7.58633       17.29501        -999.25        -999.25        3.65671        -999.25        0.02859
1260.00000        -999.25       17.67201        -999.25        -999.25        -999.25        -999.25        0.02244
1260.50000        -999.25        -999.25        -999.25        -999.25        -999.25        -999.25        0.01626
1261.00000        -999.25        -999.25        -999.25        -999.25        -999.25        -999.25        0.01111
1261.50000        -999.25        -999.25        -999.25        -999.25        -999.25        -999.25        0.01452
