~Version ---------------------------------------------------
VERS. 2.0 : CWLS LOG ASCII STANDARD - VERSION 2.0
WRAP. NO  : One line per depth step
DLM . SPACE : Column Data Section Delimiter
~Well ------------------------------------------------------
STRT.F           11 : START DEPTH
STOP.F       1399.0 : STOP DEPTH
STEP.F          0.5 : STEP
NULL.       -999.25 : NULL VALUE
COMP.                 WALSH & WATTS, INC. : COMPANY
WELL.                      HOWARD AB E 4E : WELL
FLD .             MONTAGUE COUNTY REGULAR : FIELD
CNTY.                            MONTAGUE : COUNTY
STAT.                                     : STATE
CTRY.                                 USA : COUNTRY
SEC .                                     : SECTION
TWP .                                     : TOWNSHIP
RGE .                                     : RANGE
LOC . 3250'FEL & 1590'FSL OF THE J.CHAMBLIS SURVEY A-123 : LOCATION
EKB .F                          : ELEVATION KELLY BUSHING
EDF .F                          : ELEVATION DERRICK FLOOR
EGL .F                          : ELEVATION GROUND LEVEL
PDAT.                        GL : PERMANENT DATUM
EPD .                           : ELEVATION PERMANENT DATUM
APD .                         8 : ABOVE PERMANENT DATUM
LMF .                        KB : LOG MEASURED FROM
DMF .                        KB : DRILLING MEASURED FROM
API .            42337348780000 : API NUMBER
UWI .                           : UWI NUMBER
DIGC.                     NthDS : DIGITIZING COMPANY
~Params ----------------------------------------------------
SRVC. PIONEER WIRELINE SERVICES : LOGGING COMPANY
LOG .                      DIFL : LOG
DATE.                2012-08-01 : RUN DATE
RUN .                         1 : RUN NUMBER
TDD .F                     1400 : TOTAL DEPTH DRILLER
TDL .F                     1396 : TOTAL DEPTH LOGGER
BOTL.F                     1394 : BOTTOM LOGGED INTERVAL
TOPL.F                       50 : TOP LOGGED INTERVAL
CSGS.IN                         : CASING SIZE
CSGD.F                          : CASING DRILLER
CSGL.F                          : CASING LOGGER
BS  .IN                   7.875 : BIT SIZE
MUD .                  CHEM-GEL : MUD TYPE
MUDD.                           : MUD DENSITY
MUDV.                           : MUD VISCOSITY
PH  .                           : MUD PH
FL  .                           : FLUID LOSS
MUDS.                  FLOWLINE : SOURCE OF SAMPLE
RM  .OHMM                   2.4 : MUD RESISTIVITY
RMT .DEGF                    73 : RM TEMPERATURE
RMF .OHMM                   1.8 : MUD FILTRATE RESISTIVITY
RMFT.DEGF                    73 : RMF TEMPERATURE
RMC .OHMM                   3.0 : MUD CAKE RESISTIVITY
RMCT.DEGF                    73 : RMC TEMPERATURE
RMFS.                      CALC : RMF SOURCE
RMCS.                      CALC : RMC SOURCE
RMBH.OHMM                   2.0 : MUD RESISTIVITY AT BHT
BHT .DEGF                    86 : BOTTOM HOLE TEMPERATURE
TIMC.           0200 2012-08-01 : TIME CIRCULATION STOPPED
TIML.           0430 2012-08-01 : TIME LOGGER ON BOTTOM
TMAX.DEGF                    86 : MAXIMUM RECORDED TEMPERATURE
UNIT.                       110 : EQUIPMENT NUMBER
BASE.                GRAHAM, TX : BASE LOCATION
ENG .                    WENDEL : RECORDED BY
WIT .           OVERBY/BURLESON : WITNESSED BY
~Curve Information -----------------------------------------
DEPT.F          :DEPTH
CILD.MMHO       :
GRR.GAPI        :
ILD.OHMM        :
ILM.OHMM        :
SFL.OHMM        :
SP.MV           :
~ASCII ------------------------------------------------------
# ...
1012.50000      998.84431       42.39999        0.57868        0.69505        3.16420      177.99998
1013.00000      998.85128       41.46599        0.57289        0.68940        2.83331      179.54664
1013.50000      998.85826       39.59999        0.58414        0.67637        2.43200      180.29331
1014.00000      998.86523       38.19999        0.60728        0.66176        1.98484      180.55464
1014.50000      998.87221       38.59999        0.62716        0.68154        1.91310      180.55998
1015.00000      998.87919       40.27999        0.64571        0.73002        2.05638      180.13331
1015.50000      998.88616       42.96999        0.65501        0.74693        2.31606      178.97864
1016.00000      998.89314       45.39999        0.66583        0.76676        2.60406      177.65598
1016.50000      998.90012       46.44999        0.67509        0.77670        2.85075      175.86664
1017.00000      998.90709       44.79999        0.67820        0.78789        3.30307      173.73331
1017.50000      998.91407       39.75399        0.67145        0.77499        3.72019      172.66664
1018.00000      998.92105       35.33399        0.64520        0.75056        4.27412      172.37331
1018.50000      998.92802       31.11199        0.62283        0.72985        4.33833      172.93331
1019.00000      998.93500       28.82200        0.59741        0.71425        4.43442      173.40798
1019.50000      998.94198       28.31400        0.59401        0.70472        4.65754      174.90664
1020.00000      998.94895       29.13400        0.61327        0.70797        4.55857      177.14664
1020.50000      998.95593       31.74999        0.62928        0.72618        4.34020      179.56531
1021.00000      998.96291       36.29999        0.67240        0.76511        4.32027      183.54664
1021.50000      998.96988       42.04999        0.71535        0.81293        4.38033      186.96531
1022.00000      998.97686       48.34199        0.75992        0.87221        3.87443      190.41064
1022.50000      998.98384       53.99999        0.79551        0.92513        3.27683      193.73331
1023.00000      998.99081       54.59999        0.83749        0.94812        2.80443      193.73331
1023.50000      998.99779       50.39999        0.87715        0.96455        2.73089      192.66664
1024.00000      999.00477       49.79999        0.92270        0.98810        2.76461      191.59997
1024.50000      999.01174       52.79999        0.92474        1.01321        2.65114      191.82931
1025.00000      999.01872       56.99999        0.91413        1.02478        2.39483      192.39997
1025.50000      999.02570       58.34999        0.90331        1.03444        2.31393      189.53331
1026.00000      999.03267       52.44599        0.89229        1.03998        2.60918      185.96797
1026.50000      999.03965       45.22999        0.88298        1.02308        3.36197      181.44531
1027.00000      999.04663       35.44999        0.88298        1.00856        4.12468      177.48798
1027.50000      999.05360       32.19999        0.88298        0.98205        4.38033      172.96531
1028.00000      999.06058       31.39999        0.88082        0.95185        3.72430      170.79998
1028.50000      999.06756       31.69999        0.87650        0.96290        3.26679      168.77598
1029.00000      999.07453       33.38399        0.87275        0.97264        3.01262      167.67731
1029.50000      999.08151       35.32399        0.87221        0.97617        2.98502      166.42398
1030.00000      999.08849       35.99999        0.87221        0.97826        2.97733      165.73331
1030.50000      999.09546       35.83999        0.87221        0.98091        2.84638      165.02131
1031.00000      999.10244       35.27999        0.87758        0.98392        2.74770      164.39998
1031.50000      999.10942       34.34999        0.87833        0.98610        2.74568      163.68798
1032.00000      999.11639       31.51599        0.85488        0.97868        2.84202      163.06664
1032.50000      999.12337       29.15000        0.81029        0.94958        2.99419      162.43998
1033.00000      999.13035       27.80000        0.77622        0.91919        3.18367      161.89065
1033.50000      999.13732       28.40000        0.74816        0.88103        3.50845      161.73331
1034.00000      999.14430       30.00000        0.72667        0.84892        3.77284      162.07731
1034.50000      999.15128       30.59999        0.72618        0.82824        3.87443      162.98931
1035.00000      999.15825       31.19999        0.75277        0.83298        3.77376      164.30398
1035.50000      999.16523       32.69999        0.79065        0.85630        3.43453      166.19464
1036.00000      999.17221       36.09999        0.82682        0.88842        3.09222      167.55198
1036.50000      999.17918       39.39999        0.87045        0.93886        2.71785      169.02131
1037.00000      999.18616       40.97199        0.91049        1.00134        2.50608      169.46664
1037.50000      999.19314       40.02799        0.95110        1.07786        2.37143      168.93331
1038.00000      999.20011       36.93399        0.99217        1.11349        2.37143      167.06664
1038.50000      998.54320       33.99999        1.01452        1.11671        2.38603      165.23464
1039.00000      994.55054       31.79999        1.01995        1.09944        2.34035      163.71731
1039.50000      995.49022       32.23999        1.01888        1.07998        2.21148      162.73331
1040.00000      999.89424       33.39999        1.01166        1.07456        2.08471      162.53331
1040.50000      999.23500       35.18399        1.00677        1.09849        2.11045      162.53331
1041.00000      998.57576       36.79999        1.02308        1.11247        2.21896      162.50931
1041.50000      972.38036       37.29999        1.06707        1.12863        2.39821      162.41864
1042.00000      946.17831       37.73799        1.10322        1.15461        2.49075      162.33598
1042.50000      919.98291       37.33399        1.11486        1.18498        2.45434      162.15998
1043.00000      967.15815       36.31199        1.08077        1.20005        2.33103      161.78665
1043.50000      998.63729       34.12399        0.99485        1.18178        2.25008      160.88531
1044.00000      998.72421       31.53799        0.93392        1.10804        2.29358      159.90131
1044.50000      998.81113       28.93400        0.89229        1.01433        2.46611      158.58665
1045.00000      998.89806       28.00000        0.86422        0.96219        2.62009      158.38665
1045.50000      998.98498       29.28000        0.84513        0.93123        2.75445      159.09865
1046.00000      999.07190       34.26599        0.82971        0.91795        2.78163      161.08265
1046.50000      999.15882       45.06599        0.84586        0.93243        2.74097      163.22664
1047.00000      999.24575       49.99999        0.87580        0.94905        2.73089      163.86664
1047.50000      999.33267       49.59999        0.93501        0.97109        2.73089      163.08798
1048.00000      970.77886       44.88799        0.99656        1.03109        2.67878      162.45598
1048.50000      889.08748       39.99999        1.09191        1.14116        2.57735      162.26664
1049.00000      807.40275       36.93399        1.18280        1.24743        2.51116      162.65598
1049.50000      765.66216       36.59999        1.29596        1.38128        2.59784      163.63998
1050.00000      722.14509       36.59999        1.40383        1.49405        2.81771      164.45331
1050.50000      678.62802       36.79999        1.49671        1.63098        3.20602      165.42664
1051.00000      644.19150       36.19999        1.54334        1.71304        3.51211      165.09864
1051.50000      627.92276       35.59999        1.57762        1.72358        3.59938      164.61331
1052.00000      611.65402       35.27999        1.61891        1.73068        3.42002      163.75998
