~Version ---------------------------------------------------
VERS. 2.0 : CWLS LOG ASCII STANDARD - VERSION 2.0
WRAP. NO  : One line per depth step
DLM . SPACE : Column Data Section Delimiter
~Well ------------------------------------------------------
STRT.F           40 : START DEPTH
STOP.F       1284.0 : STOP DEPTH
STEP.F          0.5 : STEP
NULL.       -999.25 : NULL VALUE
COMP.                 WALSH & WATTS, INC. : COMPANY
WELL.                         HOWARD G 17 : WELL
FLD .             MONTAGUE COUNTY REGULAR : FIELD
CNTY.                            MONTAGUE : COUNTY
STAT.                               TEXAS : STATE
CTRY.                                 USA : COUNTRY
SEC .                                     : SECTION
TWP .                                     : TOWNSHIP
RGE .                                     : RANGE
LOC . 520'FNL & 4250'FEL OF THE J.CHAMBLIS SURVEY, A-123 : LOCATION
EKB .F                      519 : ELEVATION KELLY BUSHING
EDF .F                      518 : ELEVATION DERRICK FLOOR
EGL .F                      512 : ELEVATION GROUND LEVEL
PDAT.                        GL : PERMANENT DATUM
EPD .                       512 : ELEVATION PERMANENT DATUM
APD .                         7 : ABOVE PERMANENT DATUM
LMF .                        KB : LOG MEASURED FROM
DMF .                        KB : DRILLING MEASURED FROM
API .            42337343900000 : API NUMBER
UWI .                           : UWI NUMBER
DIGC.                     NthDS : DIGITIZING COMPANY
~Params ----------------------------------------------------
SRVC. PIONEER WIRELINE SERVICES : LOGGING COMPANY
LOG .                      DIFL : LOG
DATE.                2010-10-13 : RUN DATE
RUN .                         1 : RUN NUMBER
TDD .F                     1298 : TOTAL DEPTH DRILLER
TDL .F                     1280 : TOTAL DEPTH LOGGER
BOTL.F                     1280 : BOTTOM LOGGED INTERVAL
TOPL.F                       50 : TOP LOGGED INTERVAL
CSGS.IN                         : CASING SIZE
CSGD.F                          : CASING DRILLER
CSGL.F                          : CASING LOGGER
BS  .IN                   7.875 : BIT SIZE
MUD .                  GEL-CHEM : MUD TYPE
MUDD.                           : MUD DENSITY
MUDV.                           : MUD VISCOSITY
PH  .                           : MUD PH
FL  .                           : FLUID LOSS
MUDS.                  FLOWLINE : SOURCE OF SAMPLE
RM  .OHMM                   3.6 : MUD RESISTIVITY
RMT .DEGF                    72 : RM TEMPERATURE
RMF .OHMM                   2.7 : MUD FILTRATE RESISTIVITY
RMFT.DEGF                    72 : RMF TEMPERATURE
RMC .OHMM                   4.5 : MUD CAKE RESISTIVITY
RMCT.DEGF                    72 : RMC TEMPERATURE
RMFS.                      CALC : RMF SOURCE
RMCS.                      CALC : RMC SOURCE
RMBH.OHMM                   3.0 : MUD RESISTIVITY AT BHT
BHT .DEGF                    85 : BOTTOM HOLE TEMPERATURE
TIMC.           0245 2010-10-13 : TIME CIRCULATION STOPPED
TIML.           0540 2010-10-13 : TIME LOGGER ON BOTTOM
TMAX.DEGF                    85 : MAXIMUM RECORDED TEMPERATURE
UNIT.                      M-19 : EQUIPMENT NUMBER
BASE.             GRAHAM, TEXAS : BASE LOCATION
ENG .                    WENDEL : RECORDED BY
WIT .           WOMBLE/BURLESON : WITNESSED BY
~Curve Information -----------------------------------------
DEPT.F          :DEPTH
CILD.MMHO       :
GRR.GAPI        :
RILD.OHMM       :
RILM.OHMM       :
RSFL.OHMM       :
SP.MV           :
~ASCII ------------------------------------------------------
# ...
1161.00000      339.75668      113.37553        2.98518        2.99082        3.86364      147.53302
1161.50000      341.61826      113.94646        2.98518        2.97901        3.88251      147.64932
1162.00000      343.47983      109.95593        2.98518        2.96381        3.90431      146.94359
1162.50000      347.45473      105.19822        2.93580        2.94098        3.92338      145.98412
1163.00000      351.42962      102.02642        2.87110        2.91496        3.84862      145.02200
1163.50000      361.14824      101.62994        2.80784        2.86796        3.76221      144.18148
1164.00000      370.86024      100.83699        2.75366        2.77335        3.61249      143.70042
1164.50000      380.57885       99.44932        2.67354        2.66899        3.44873      143.70042
1165.00000      405.42195       92.18589        2.55639        2.58079        3.33091      143.70042
1165.50000      419.88394       83.92730        2.42865        2.48368        3.73119      143.24315
1166.00000      429.15870       73.51387        2.38107        2.43635        4.24289      141.40879
1166.50000      438.43345       69.01981        2.35497        2.38993        4.04120      139.68015
1167.00000      444.83966       67.45770        2.32902        2.34453        4.43058      138.31628
1167.50000      446.99273       67.70153        2.30659        2.30532        4.23386      136.75945
1168.00000      443.51469       73.28193        2.28117        2.26140        2.92402      135.82377
1168.50000      428.60884       78.03964        2.25920        2.27673        2.57937      134.83786
1169.00000      414.36546       74.37224        2.37441        2.38440        3.05411      135.02289
1169.50000      400.45333       68.28633        2.49899        2.54599        4.01471      135.32949
1170.00000      385.74622       56.26123        2.64940        2.81742        6.42859      135.99822
1170.50000      368.08443       49.88986        2.73428        3.00341        8.87663      136.85725
1171.00000      360.41951       46.85088        2.78723        3.02340        8.61049      137.83786
1171.50000      352.75459       52.46695        2.84119        3.04353        6.41959      138.69689
1172.00000      345.46728       66.07995        2.88934        3.04520        4.65568      139.18060
1172.50000      351.25075       83.07488        2.91496        2.93919        4.24315      139.49778
1173.00000      357.02760       98.06166        2.85872        2.84951        4.02572      139.85196
1173.50000      362.81107      105.52928        2.79572        2.74964        3.79072      140.79293
1174.00000      367.42195      107.98545        2.74179        2.66315        3.63500      141.61496
1174.50000      369.69427      106.49866        2.68137        2.60415        3.47212      142.55593
1175.00000      371.96658      105.19822        2.70202        2.62692        3.62726      142.86782
1175.50000      370.64162      102.19294        2.78994        2.67859        3.98209      142.79117
1176.00000      352.75459       99.18765        2.88056        2.81742        4.24935      142.71187
1176.50000      338.17997       95.94646        2.96237        2.97158        4.17245      142.64315
1177.00000      330.23018       91.71805        3.05877        3.26823        3.99837      141.91363
1177.50000      341.16114       81.72686        2.96598        3.49715        5.75328      141.27663
1178.00000      357.39197       68.52422        2.86360        3.47233        8.46960      140.54711
1178.50000      370.97286       57.38920        2.78434        3.11894       10.28193      139.89954
1179.00000      373.95403       49.29515        2.70267        2.72133       10.59779      139.54800
1179.50000      376.93520       51.58678        2.61622        2.44676        7.98440      139.14359
1180.00000      401.77829       59.75219        2.52499        2.41229        4.82889      138.86341
1180.50000      420.85779       74.31276        2.45123        2.38092        3.04761      138.65196
1181.00000      434.23994       82.36717        2.40233        2.35756        2.87373      138.46694
1181.50000      424.96518       82.95792        2.36086        2.33115        3.43386      138.01760
1182.00000      419.28771       82.46232        2.40745        2.32124        3.91812      137.88544
1182.50000      408.21100       81.21144        2.46170        2.39882        3.92266      138.81055
1183.00000      397.14092       81.48501        2.51028        2.46890        4.07976      139.86782
1183.50000      392.33792       84.52796        2.54459        2.55157        3.55165      140.79293
1184.00000      387.12418       89.12113        2.57608        2.63685        3.41593      141.85020
1184.50000      381.90382       90.54844        2.60399        2.69594        3.64941      142.39469
1185.00000      377.33269       88.67311        2.63621        2.71339        3.64941      142.71980
1185.50000      372.76156       86.36563        2.66477        2.72863        3.64941      143.41496
1186.00000      368.19043       84.97796        2.69774        2.74613        3.88795      144.30306
1186.50000      366.07711       83.63986        2.72697        2.76155        3.70267      145.31804
1187.00000      365.19601       83.98677        2.76071        2.78146        3.69412      146.08720
1187.50000      364.30828       85.71739        2.79062        2.80493        3.98015      146.16121
1188.00000      360.53876       86.01673        2.82533        2.83204        4.09195      146.23522
1188.50000      355.31840       85.52510        2.86029        2.85924        3.97410      146.29866
1189.00000      350.10466       85.27532        2.89127        2.88336        3.83155      146.57090
1189.50000      348.40208       86.96034        2.90663        2.91123        3.88085      147.09954
1190.00000      346.69950       90.59800        2.91762        2.93580        3.99837      147.70218
1190.50000      344.42718       93.78170        2.93008        2.96399        3.94998      148.38940
1191.00000      342.72460       96.23787        2.94116        2.98900        3.85753      149.30923
1191.50000      341.88988       97.26871        2.95372        3.01183        3.92816      150.22905
1192.00000      341.49239       97.26871        2.96652        3.02856        4.15597      150.80262
1192.50000      342.28736       97.26871        2.97774        3.04335        4.21894      151.26253
1193.00000      343.08234       98.04976        2.99045        3.06044        4.29226      151.66429
1193.50000      343.87732       98.94184        3.00176        3.07539        4.30141      152.01055
1194.00000      345.85815      101.41188        2.97429        3.02690        4.28234      152.24579
1194.50000      348.42858      102.25241        2.94528        2.97719        4.15041      152.45196
1195.00000      350.99901      101.91342        2.91265        2.93955        4.02034      152.68720
1195.50000      353.57607      101.27708        2.88424        2.92313        4.00324      152.89337
1196.00000      356.14650      101.15417        2.85229        2.90451        3.92600      153.17883
1196.50000      358.71693      101.70924        2.82069        2.88600        3.87849      153.44315
1197.00000      358.71693      101.86783        2.81468        2.86988        3.87849      153.74447
1197.50000      358.71693      101.55065        2.82653        2.85872        3.86670      154.00879
1198.00000      358.71693       99.92509        2.83687        2.85541        3.83926      154.00879
1198.50000      358.71693       97.26871        2.84882        2.85177        3.89790      154.00879
1199.00000      358.20019       95.88104        2.85924        2.84847        3.97700      153.71275
1199.50000      356.65661       97.37972        2.87128        2.84466        3.99837      153.31628
1200.00000      355.11303      100.31761        2.88196        2.85454        3.95600      152.96738
1200.50000      352.38360      103.68765        2.89495        2.87829        3.90700      152.57090
