~Version ---------------------------------------------------
VERS. 2.0 : CWLS LOG ASCII STANDARD - VERSION 2.0
WRAP. NO  : One line per depth step
DLM . SPACE : Column Data Section Delimiter
~Well ------------------------------------------------------
STRT.F           48 : START DEPTH
STOP.F       1439.0 : STOP DEPTH
STEP.F          0.5 : STEP
NULL.       -999.25 : NULL VALUE
COMP.                 WALSH & WATTS, INC. : COMPANY
WELL.                         HOWARD F 14 : WELL
FLD .             MONTAGUE COUNTY REGULAR : FIELD
CNTY.                            MONTAGUE : COUNTY
STAT.                               TEXAS : STATE
CTRY.                                 USA : COUNTRY
SEC .                                     : SECTION
TWP .                                     : TOWNSHIP
RGE .                                     : RANGE
LOC . 1430'FEL & 2600'FSL OF THE J.CHAMBLIS SURVEY A-123 : LOCATION
EKB .F                      849 : ELEVATION KELLY BUSHING
EDF .F                      848 : ELEVATION DERRICK FLOOR
EGL .F                      841 : ELEVATION GROUND LEVEL
PDAT.                        GL : PERMANENT DATUM
EPD .                       841 : ELEVATION PERMANENT DATUM
APD .                         8 : ABOVE PERMANENT DATUM
LMF .                        KB : LOG MEASURED FROM
DMF .                        KB : DRILLING MEASURED FROM
API .            42337351020000 : API NUMBER
UWI .                           : UWI NUMBER
DIGC.                     NthDS : DIGITIZING COMPANY
~Params ----------------------------------------------------
SRVC.                   PIONEER : LOGGING COMPANY
LOG .                      CNFD : LOG
DATE.                2013-08-01 : RUN DATE
RUN .                         1 : RUN NUMBER
TDD .F                     1450 : TOTAL DEPTH DRILLER
TDL .F                     1449 : TOTAL DEPTH LOGGER
BOTL.F                     1429 : BOTTOM LOGGED INTERVAL
TOPL.F                       50 : TOP LOGGED INTERVAL
CSGS.IN                         : CASING SIZE
CSGD.F                          : CASING DRILLER
CSGL.F                          : CASING LOGGER
BS  .IN                   7.875 : BIT SIZE
MUD .                       GEL : MUD TYPE
MUDD.                       9.2 : MUD DENSITY
MUDV.                        75 : MUD VISCOSITY
PH  .                           : MUD PH
FL  .                           : FLUID LOSS
MUDS.                  FLOWLINE : SOURCE OF SAMPLE
RM  .OHMM                   2.8 : MUD RESISTIVITY
RMT .DEGF                    72 : RM TEMPERATURE
RMF .OHMM                   2.1 : MUD FILTRATE RESISTIVITY
RMFT.DEGF                    72 : RMF TEMPERATURE
RMC .OHMM                   3.5 : MUD CAKE RESISTIVITY
RMCT.DEGF                    72 : RMC TEMPERATURE
RMFS.                      CALC : RMF SOURCE
RMCS.                      CALC : RMC SOURCE
RMBH.OHMM                   2.3 : MUD RESISTIVITY AT BHT
BHT .DEGF                    87 : BOTTOM HOLE TEMPERATURE
TIMC.           0130 2018-08-01 : TIME CIRCULATION STOPPED
TIML.           0400 2018-08-01 : TIME LOGGER ON BOTTOM
TMAX.DEGF                    87 : MAXIMUM RECORDED TEMPERATURE
UNIT.                     C-052 : EQUIPMENT NUMBER
BASE.                GRAHAM, TX : BASE LOCATION
ENG .                    WENDEL : RECORDED BY
WIT .                  BURLESON : WITNESSED BY
~Curve Information -----------------------------------------
DEPT.F          :DEPTH
CALD.IN         :
DPHI.%          :
GRD.GAPI        :
MINV.OHMM       :
MNOR.OHMM       :
NPHI.%          :
RHOC.G/CC       :
~ASCII ------------------------------------------------------
# ...
503.50000        9.21154       20.11648       96.15382        3.82346        5.07727       20.72051        0.00831
504.00000        9.21337       21.75495       94.50547        3.35743        4.64251       20.97070        0.00968
504.50000        9.21557       25.91062       95.05492        4.01330        4.52239       22.49084        0.01133
505.00000        9.21740       28.87912       98.35163        2.77854        4.08763       24.27363        0.03504
505.50000        9.21941       29.66117      105.76921        6.63466        6.24339       24.80366        0.06191
506.00000        9.22124       29.63810      112.63734        6.11672        6.38145       25.24872        0.09399
506.50000        9.22344       29.92674      117.85712        3.72826        4.26643       26.35531        0.09188
507.00000        9.33864       29.92674      117.85712        3.08986        4.12258       26.58608        0.09196
507.50000        9.80952       29.92674      113.73624        3.11301        3.61483       25.53114        0.11202
508.00000        9.80952       29.92674      110.16481        3.07825        3.60843       24.08425        0.13756
508.50000        9.33333       29.92674      106.31866        2.86140        3.31621       23.16081        0.15450
509.00000        8.67399       29.92674      103.29668        2.96700        3.80845       21.92930        0.16498
509.50000        8.44322       27.01465       97.52745        4.48059        6.07767       19.53297        0.16504
510.00000        8.36264       24.58791       89.83514        7.06808        8.12844       18.49817        0.15421
510.50000        8.36264       24.18498       78.29669        7.23114        9.04930       17.68169        0.11130
511.00000        8.36264       25.16960       71.42856        8.58300       10.44699       17.10623        0.05982
511.50000        8.36264       27.38205       65.38460        8.22315        9.80859       17.05348        0.03563
512.00000        8.36264       29.22601       58.24175        6.96268        8.79175       17.01246        0.01269
512.50000        8.36264       29.96300       49.99999        7.37373        8.40063       16.80989        0.00679
513.00000        8.36264       29.96264       44.23076        7.96560        8.76559       16.57692        0.01484
513.50000        8.36264       29.96227       39.83516        7.96720        8.87628       15.96007        0.02083
514.00000        8.36264       29.96154       37.91208        7.45945        8.87788       15.47839        0.02487
514.50000        8.36264       29.96117       36.26373        7.29450        8.69740       15.20953        0.02654
515.00000        8.36264       29.96081       35.71428        7.49874        8.48082       15.57986        0.02040
515.50000        8.36264       29.96044       35.43955        6.63998        9.61960       16.63004        0.02047
516.00000        8.35476       29.95971       36.26373        8.99284       10.85101       18.26923        0.02055
516.50000        8.30769       29.95934       38.73626        9.70689       11.19997       18.31502        0.02061
517.00000        8.30769       29.95897       40.65933        8.61105       11.12885       17.40989        0.02069
517.50000        8.30769       29.95861       41.75823       10.37891       11.89672       16.11722        0.02077
518.00000        8.30769       29.95824       42.85713        8.63507       10.97105       15.91575        0.02084
518.50000        8.30769       29.95751       45.05493        8.84004       10.01821       15.87912        0.02699
519.00000        8.30769       29.95714       47.25274        8.92891        9.33618       15.81905        0.03212
519.50000        8.29615       29.95678       47.80219        8.07279        9.07569       15.79964        0.03823
520.00000        8.28645       29.95641       46.70329        7.04604        7.76821       16.42381        0.03372
520.50000        8.27491       29.95568       45.60439        6.50919        7.23646       17.61905        0.02540
521.00000        8.26886       29.95531       45.87911        6.25843        7.04388       17.76557        0.01805
521.50000        8.26447       29.95495       46.70329        5.75067        7.99720       17.71062        0.00842
522.00000        8.26081       29.95458       46.97801        5.99227        7.24535       17.43590        0.00819
522.50000        8.25641       29.95385       46.97801        6.49033        8.29031       17.15495        0.01027
523.00000        8.25275       29.95348       46.97801        6.55665        8.76173       16.93224        0.01357
523.50000        8.26502       29.95311       46.42856        6.96235        9.15433       16.32784        0.01802
524.00000        8.26868       29.95275       45.60439        6.34941        7.53776       16.15385        0.02172
524.50000        8.26135       29.95201       43.68131        5.38129        6.47219       16.56410        0.03816
525.00000        8.25513       29.95165       43.95603        5.00907        6.18288       17.07692        0.05187
525.50000        8.28938       29.95128       44.78021        5.84458        7.22639       17.38865        0.04558
526.00000        8.33828       29.95092       44.50548        7.19163        9.01198       17.48608        0.03398
526.50000        8.35861       29.95018       43.95603        6.91442        8.75685       17.47253        0.01748
527.00000        8.37564       29.94982       43.13186        5.46148        6.61711       17.09414        0.01256
527.50000        8.37711       29.94945       43.68131        5.22063        6.91735       16.71795        0.01020
528.00000        8.36923       29.94908       44.78021        5.46441        6.70077       17.70147        0.02274
528.50000        8.36264       29.94835       45.05493        6.21701        7.92418       19.45055        0.03784
529.00000        8.39927       29.94799       45.87911        8.08551        8.94368       20.23187        0.05036
529.50000        8.39927       29.94762       46.70329        8.70528        9.13655       20.23553        0.05322
530.00000        8.39927       29.94725       46.42856        6.97936        7.57935       20.02931        0.04120
530.50000        8.39927       29.94652       43.95603        7.36277        8.01731       19.72161        0.03126
531.00000        8.39927       29.94615       41.48351        6.68556        8.14955       19.32857        0.01945
531.50000        8.39927       29.94579       40.65933        7.19625        8.23843       19.09597        0.01919
532.00000        8.39927       29.94542       41.48351        7.46740       10.05793       19.01868        0.03745
532.50000        8.39927       29.94469       43.68131        9.37808       10.36280       18.92601        0.05312
533.00000        8.39927       29.94432       48.35164        9.34814        9.56632       18.83407        0.05374
533.50000        8.39927       29.94396       53.02197        6.99339        8.38974       18.61905        0.04374
534.00000        8.39927       29.94359       53.29669        8.57289        9.20925       18.30769        0.03120
534.50000        8.39927       29.94286       48.62636        7.91995        9.21085       18.07473        0.03781
535.00000        8.39927       29.94249       40.93406        7.70674        8.39401       18.11575        0.05971
535.50000        8.39927       29.94212       36.81318        7.54907        8.59706       18.22967        0.06341
536.00000        8.39927       29.94176       37.91208        8.02312        8.76639       18.35165        0.04826
536.50000        8.39927       29.94103       40.93406        8.13672        8.83490       19.20879        0.02901
537.00000        8.39927       29.94066       48.62636        7.27261        8.26896       19.77106        0.00590
537.50000        8.39927       29.94029       53.84614        5.75422        7.13603       19.50183       -0.00447
538.00000        8.39927       29.93993       60.98900        6.19700        7.32208       19.09890        0.03335
