~Version ---------------------------------------------------
VERS. 2.0 : CWLS LOG ASCII STANDARD - VERSION 2.0
WRAP. NO  : One line per depth step
DLM . SPACE : Column Data Section Delimiter
~Well ------------------------------------------------------
STRT.F           11 : START DEPTH
STOP.F       1399.0 : STOP DEPTH
STEP.F          0.5 : STEP
NULL.       -999.25 : NULL VALUE
COMP.                 WALSH & WATTS, INC. : COMPANY
WELL.                      HOWARD AB E 4E : WELL
FLD .             MONTAGUE COUNTY REGULAR : FIELD
CNTY.                            MONTAGUE : COUNTY
STAT.                                     : STATE
CTRY.                                 USA : COUNTRY
SEC .                                     : SECTION
TWP .                                     : TOWNSHIP
RGE .                                     : RANGE
LOC . 3250'FEL & 1590'FSL OF THE J.CHAMBLIS SURVEY A-123 : LOCATION
EKB .F                          : ELEVATION KELLY BUSHING
EDF .F                          : ELEVATION DERRICK FLOOR
EGL .F                          : ELEVATION GROUND LEVEL
PDAT.                        GL : PERMANENT DATUM
EPD .                           : ELEVATION PERMANENT DATUM
APD .                         8 : ABOVE PERMANENT DATUM
LMF .                        KB : LOG MEASURED FROM
DMF .                        KB : DRILLING MEASURED FROM
API .            42337348780000 : API NUMBER
UWI .                           : UWI NUMBER
DIGC.                     NthDS : DIGITIZING COMPANY
~Params ----------------------------------------------------
SRVC. PIONEER WIRELINE SERVICES : LOGGING COMPANY
LOG .                      DIFL : LOG
DATE.                2012-08-01 : RUN DATE
RUN .                         1 : RUN NUMBER
TDD .F                     1400 : TOTAL DEPTH DRILLER
TDL .F                     1396 : TOTAL DEPTH LOGGER
BOTL.F                     1394 : BOTTOM LOGGED INTERVAL
TOPL.F                       50 : TOP LOGGED INTERVAL
CSGS.IN                         : CASING SIZE
CSGD.F                          : CASING DRILLER
CSGL.F                          : CASING LOGGER
BS  .IN                   7.875 : BIT SIZE
MUD .                  CHEM-GEL : MUD TYPE
MUDD.                           : MUD DENSITY
MUDV.                           : MUD VISCOSITY
PH  .                           : MUD PH
FL  .                           : FLUID LOSS
MUDS.                  FLOWLINE : SOURCE OF SAMPLE
RM  .OHMM                   2.4 : MUD RESISTIVITY
RMT .DEGF                    73 : RM TEMPERATURE
RMF .OHMM                   1.8 : MUD FILTRATE RESISTIVITY
RMFT.DEGF                    73 : RMF TEMPERATURE
RMC .OHMM                   3.0 : MUD CAKE RESISTIVITY
RMCT.DEGF                    73 : RMC TEMPERATURE
RMFS.                      CALC : RMF SOURCE
RMCS.                      CALC : RMC SOURCE
RMBH.OHMM                   2.0 : MUD RESISTIVITY AT BHT
BHT .DEGF                    86 : BOTTOM HOLE TEMPERATURE
TIMC.           0200 2012-08-01 : TIME CIRCULATION STOPPED
TIML.           0430 2012-08-01 : TIME LOGGER ON BOTTOM
TMAX.DEGF                    86 : MAXIMUM RECORDED TEMPERATURE
UNIT.                       110 : EQUIPMENT NUMBER
BASE.                GRAHAM, TX : BASE LOCATION
ENG .                    WENDEL : RECORDED BY
WIT .           OVERBY/BURLESON : WITNESSED BY
~Curve Information -----------------------------------------
DEPT.F          :DEPTH
CILD.MMHO       :
GRR.GAPI        :
ILD.OHMM        :
ILM.OHMM        :
SFL.OHMM        :
SP.MV           :
~ASCII ------------------------------------------------------
# ...
51.50000      418.65428       84.30959        2.47104        2.43918        9.44839       31.02061
52.00000      439.84015       98.68268        2.32544        2.10739        7.56665       35.07648
52.50000      451.03269      115.74569        2.26495        1.96507        6.46585       39.29169
53.00000      443.61097      121.71701        2.19777        1.98900        6.62168       44.34220
53.50000      436.18259      126.56287        2.22983        2.03932        7.46181       50.16002
54.00000      402.11197      127.71233        2.36878        2.15612        8.70448       55.98052
54.50000      354.71691      127.30033        2.51653        2.29780        9.68660       63.46296
55.00000      307.32184      125.88986        2.70750        2.51912        9.45099       70.11543
55.50000      259.92011      124.47789        3.12272        2.88662        8.70021       75.96792
56.00000      212.52505      123.66591        3.56767        3.25205        8.08291       79.63714
56.50000      196.26256      123.25541        4.15431        3.72648        8.13777       81.63374
57.00000      180.00007      123.84339        4.66358        4.15951        8.82619       82.87903
57.50000      163.73758      125.46684        5.28023        4.71628       10.09624       84.12431
58.00000      147.47509      127.72076        6.08343        5.46567       11.65577       84.87028
58.50000      131.21260      128.81023        7.12534        6.23555       12.91070       85.16093
59.00000      114.95677      127.48426        7.87345        7.59554       13.18416       85.06159
59.50000       98.69428      123.35836        8.70065        8.88238       13.41133       84.94958
60.00000       87.94145      119.70996        9.75209       10.41702       14.05848       84.89824
60.50000       79.94678      115.43007       10.77402       11.90769       14.88216       84.88223
61.00000       71.95211      112.04416       12.06421       13.61556       16.46431       84.86822
61.50000       63.95744      108.60625       13.33414       15.05944       17.97919       84.85221
62.00000       58.50774      102.52992       15.06866       16.89801       19.77893       84.49755
62.50000       54.33052       92.91818       16.77049       20.06145       21.75882       84.19554
63.00000       50.14665       85.20639       18.63329       23.77571       23.38584       83.92887
63.50000       45.96943       80.90450       20.29508       26.03692       24.79034       83.72554
64.00000       48.63432       78.11457       21.24564       28.73916       25.62555       83.70953
64.50000       51.29921       75.67214       21.41046       30.62776       27.64749       83.06153
65.00000       53.96410       69.06032       20.22229       30.51811       29.48781       82.16488
65.50000       59.29388       69.52829       18.33757       25.02067       27.22907       81.11957
66.00000       64.62366       80.23748       17.24549       19.95972       20.50437       80.09492
66.50000       69.95344       96.22652       16.34341       16.90969       14.89846       78.92161
67.00000       75.28322      109.31565       15.23890       15.32576       12.13523       77.75097
67.50000       80.61300      119.60485       14.08775       13.89020       11.71969       75.66235
68.00000       83.27789      124.19421       13.09500       12.98162       12.11650       73.27574
68.50000       83.27789      123.50222       12.31287       12.06318       12.07669       71.45912
69.00000       83.94411      119.97031       12.08299       11.52356       11.62682       69.61382
69.50000       84.94345      116.45991       11.88528       10.99414       11.06206       68.91250
70.00000       85.94278      113.94797       11.53837       11.08574       10.89228       69.10649
70.50000       90.47309      114.03596       11.12980       11.33837       11.04702       69.39713
71.00000       95.00341      115.56541       10.47297       11.25212       10.78931       69.50579
71.50000       99.53372      118.85531        9.64043       10.34562       10.15342       69.66310
72.00000      104.06403      122.75269        8.98946        9.31519        9.33846       69.98775
72.50000      108.59434      125.55810        8.51298        8.85619        8.48687       70.91838
73.00000      110.92612      126.68006        8.36684        8.52675        8.15157       73.16097
73.50000      113.25790      126.26807        8.44053        8.45703        8.13590       75.12291
74.00000      115.58968      125.85757        8.49526        8.43866        8.39441       77.14951
74.50000      117.92146      127.35952        8.55802        8.49123        8.54114       78.85812
75.00000      113.59101      130.53492        8.61351        8.53802        8.41898       79.82608
75.50000      109.26057      133.02285        8.86999        8.57698        8.28114       80.73204
76.00000      105.76290      133.71232        9.21896        8.61824        8.27990       81.93467
76.50000      102.26523      131.80037        9.62124        8.93080        8.36556       83.14729
77.00000       98.60101      131.18988       10.13104        9.52353        8.69976       84.77123
77.50000       94.60367      130.97787       10.60814       10.19953        9.18303       86.25051
78.00000       90.60634      130.96737       11.20722       11.03106       10.12577       87.96779
78.50000       86.60900      129.09741       11.64813       11.62825       10.76284       88.85775
79.00000       82.61167      126.57147       12.00258       12.03815       11.19784       89.35106
79.50000       85.46976      125.13301       12.04248       12.11686       11.42639       89.77971
80.00000       88.32119      127.52093       11.76232       12.05497       11.33902       90.00636
80.50000       90.45977      133.41026       11.32569       11.32720       10.58619       90.14234
81.00000       92.23192      140.38405       10.99780       10.17524        9.89121       89.90967
81.50000       94.01073      144.08744       10.85168       10.06505        9.34097       89.64300
82.00000       94.03072      143.95544       10.74471       10.03250        8.89323       89.14901
82.50000       93.17796      139.39106       10.67337       10.15464        8.83747       88.46635
83.00000       92.20527      135.73315       10.72287       10.26274        8.98608       88.26834
83.50000       91.00607      128.66935       10.83255       10.47152        9.52577       88.38566
84.00000       88.38782      123.82948       10.96572       10.88463       10.23032       88.43632
84.50000       85.05670      123.55298       11.38249       11.37715       10.72749       88.42231
85.00000       81.72559      125.90690       11.81510       11.70230       11.32524       88.40630
85.50000       79.28056      126.24638       12.23741       11.82687       11.61973       88.39229
86.00000       77.85484      124.18444       12.73911       11.98482       11.55890       88.30695
86.50000       77.56836      120.97252       12.89099       12.12727       11.19637       88.22361
87.00000       77.28189      120.41203       12.92831       12.25836       10.94880       88.13027
87.50000       76.78222      122.28397       13.12066       12.35669       11.08917       88.30892
88.00000       73.50441      124.13941       13.37418       12.47367       11.28646       88.87089
88.50000       68.84085      125.12737       13.66993       12.73759       11.58562       89.87885
89.00000       64.17729      122.91542       14.49360       13.14297       12.27766       90.95281
89.50000       60.19994      120.70498       15.49602       14.58556       13.59373       93.71806
90.00000       56.56903      118.17904       16.79555       16.12998       14.66125       96.14131
90.50000       52.93146      115.68261       18.24015       17.24104       15.80162       98.90656
91.00000       49.30054      110.87074       19.82072       18.60662       16.98943      100.86582
91.50000       44.30388      104.78090       21.19074       19.88949       18.58859      103.10575
