~Version ---------------------------------------------------
VERS. 2.0 : CWLS LOG ASCII STANDARD - VERSION 2.0
WRAP. NO  : One line per depth step
DLM . SPACE : Column Data Section Delimiter
~Well ------------------------------------------------------
STRT.F           48 : START DEPTH
STOP.F       1432.0 : STOP DEPTH
STEP.F          0.5 : STEP
NULL.       -999.25 : NULL VALUE
COMP.                 WALSH & WATTS, INC. : COMPANY
WELL.                         HOWARD F 25 : WELL
FLD .                            MONTAGUE : FIELD
CNTY.                            MONTAGUE : COUNTY
STAT.                               TEXAS : STATE
CTRY.                                 USA : COUNTRY
SEC .                                     : SECTION
TWP .                                     : TOWNSHIP
RGE .                                     : RANGE
LOC . 1115'FEL & 2300'FSL OF THE J.CHAMBLIS SURVEY A-123 : LOCATION
EKB .F                      512 : ELEVATION KELLY BUSHING
EDF .F                      511 : ELEVATION DERRICK FLOOR
EGL .F                      505 : ELEVATION GROUND LEVEL
PDAT.                        GL : PERMANENT DATUM
EPD .                       505 : ELEVATION PERMANENT DATUM
APD .                         7 : ABOVE PERMANENT DATUM
LMF .                        KB : LOG MEASURED FROM
DMF .                        KB : DRILLING MEASURED FROM
API .            42337343120000 : API NUMBER
UWI .                           : UWI NUMBER
DIGC.                     NthDS : DIGITIZING COMPANY
~Params ----------------------------------------------------
SRVC. PIONEER WIRELINE SERVICES : LOGGING COMPANY
LOG .                   CNFD/ML : LOG
DATE.                2010-10-07 : RUN DATE
RUN .                         1 : RUN NUMBER
TDD .F                     1450 : TOTAL DEPTH DRILLER
TDL .F                     1452 : TOTAL DEPTH LOGGER
BOTL.F                     1452 : BOTTOM LOGGED INTERVAL
TOPL.F                       50 : TOP LOGGED INTERVAL
CSGS.IN                         : CASING SIZE
CSGD.F                          : CASING DRILLER
CSGL.F                          : CASING LOGGER
BS  .IN                   7.875 : BIT SIZE
MUD .                  GEL-CHEM : MUD TYPE
MUDD.                           : MUD DENSITY
MUDV.                           : MUD VISCOSITY
PH  .                           : MUD PH
FL  .                           : FLUID LOSS
MUDS.                  FLOWLINE : SOURCE OF SAMPLE
RM  .OHMM                   4.0 : MUD RESISTIVITY
RMT .DEGF                    72 : RM TEMPERATURE
RMF .OHMM                   3.0 : MUD FILTRATE RESISTIVITY
RMFT.DEGF                    72 : RMF TEMPERATURE
RMC .OHMM                   5.0 : MUD CAKE RESISTIVITY
RMCT.DEGF                    72 : RMC TEMPERATURE
RMFS.                      CALC : RMF SOURCE
RMCS.                      CALC : RMC SOURCE
RMBH.OHMM                     3 : MUD RESISTIVITY AT BHT
BHT .DEGF                    88 : BOTTOM HOLE TEMPERATURE
TIMC.           0730 2010-10-07 : TIME CIRCULATION STOPPED
TIML.           1020 2010-10-07 : TIME LOGGER ON BOTTOM
TMAX.DEGF                    88 : MAXIMUM RECORDED TEMPERATURE
UNIT.                      M-19 : EQUIPMENT NUMBER
BASE.                GRAHAM, TX : BASE LOCATION
ENG .                    WENDEL : RECORDED BY
WIT .           WOMBLE/BURLESON : WITNESSED BY
~Curve Information -----------------------------------------
DEPT.F          :DEPTH
CALD.IN         :
DPHI.%          :
GRD.GAPI        :
MINV.OHMM       :
MNOR.OHMM       :
NPHI.%          :
RHOC.G/CC       :
~ASCII ------------------------------------------------------
# ...
1408.00000        7.93164       26.36821       52.90908       13.38129       14.59424       19.07775        0.04208
1408.50000        7.93291       26.44546       55.40453       12.43165       16.66618       19.52120        0.04588
1409.00000        7.93436       26.53076       55.51090       12.02877       14.43021       19.42279        0.04416
1409.50000        7.93582       26.37843       55.63635       13.29496       18.23165       19.05174        0.04211
1410.00000        7.93691       25.29997       58.09090       12.04460       15.74100       18.74278        0.04007
1410.50000        7.93836       24.31910       60.13635        8.24316        9.76978       18.37209        0.03928
1411.00000        7.93982       22.67633       61.93635        8.70503        6.81439       18.00104        0.04272
1411.50000        7.94109       21.22995       60.46362        9.92805        7.86187       17.91055        0.04616
1412.00000        7.94255       20.23004       59.79271        9.92805        8.68489       17.86740        0.04903
1412.50000        7.94400       19.74481       59.98362       10.00000        9.07769       18.62461        0.05247
1413.00000        7.94527       20.45225       60.17726        7.05036        7.91367       19.79646        0.04444
1413.50000        7.94673       22.06313       59.65908       11.22302        7.94532       20.21174        0.03154
1414.00000        7.94782       23.99618       57.81817       10.86330        9.06474       19.39677        0.02330
1414.50000        7.94927       25.50105       55.97726       11.38705       12.98561       18.58217        0.03584
1415.00000        7.95073       26.50822       54.87272       10.87338       11.41438       18.44265        0.04444
1415.50000        7.95200       26.60803       53.89090       10.35971       10.26330       19.46811        0.04086
1416.00000        7.95345       26.20112        -999.25       11.22302       12.80575       20.87418        0.03656
1416.50000        7.95491       25.33918        -999.25       11.39568       12.06618       20.67476        0.05233
1417.00000        7.95618       23.26603        -999.25       10.01438        9.92805       19.67522        0.07383
1417.50000        7.95764       21.72963        -999.25        6.90647        6.74244       18.47563        0.07814
1418.00000        7.95909       20.73009        -999.25        9.25611        7.11223       17.77851        0.07814
1418.50000        7.96018       21.15428        -999.25        6.61870        5.98129       17.80989        0.07097
1419.00000        7.96164       22.42567        -999.25       12.66186       11.12661       17.73746        0.06237
1419.50000        7.96291       23.48467        -999.25       11.27050       10.64748       17.13182        0.05627
1420.00000        7.96364       24.15002        -999.25        9.84748        9.32374        -999.25        0.05412
1420.50000        7.96364       24.69388        -999.25        8.82446        8.00000        -999.25        0.05233
1421.00000        7.96364       25.14721        -999.25       10.53237        8.48920        -999.25        0.05018
1421.50000        7.96364       25.44697        -999.25       10.35971       10.21582        -999.25        0.04871
1422.00000        7.96364       25.35905        -999.25       10.70935       12.42877        -999.25        0.04778
1422.50000        7.96364       25.21343        -999.25       10.56115       11.02589        -999.25        0.04663
1423.00000        7.96364       24.92984        -999.25       10.74388       12.37410        -999.25        0.04864
1423.50000        7.96927       24.11695        -999.25       10.35971       11.10503        -999.25        0.05552
1424.00000        7.97618       22.57298        -999.25       10.50359       10.04604        -999.25        0.06380
1424.50000        7.98455       20.81261        -999.25        9.64028        8.77697        -999.25        0.07097
1425.00000        7.99309       19.56897        -999.25       13.52517        8.77697        -999.25        0.04484
1425.50000        8.00000       20.33826        -999.25       11.36690       13.81294        -999.25        0.01875
1426.00000        8.03273       22.25118        -999.25       13.16546       15.56834        -999.25        0.01702
1426.50000        8.05454       24.46603        -999.25       11.11079       12.94963        -999.25        0.03100
1427.00000        8.01818       25.74461        -999.25       11.20719       11.51079        -999.25        0.04265
1427.50000        7.97455       26.08682        -999.25       10.14388       11.16546        -999.25        0.05663
1428.00000        7.93818       25.72149        -999.25        9.44892       10.24460        -999.25        0.05473
1428.50000        7.89455       25.17332        -999.25       10.21582       10.69496        -999.25        0.05315
1429.00000        7.86600       25.10089        -999.25        9.88057       10.29640        -999.25        0.05125
1429.50000        7.85455       25.22266        -999.25        8.47050        8.95683        -999.25        0.04968
1430.00000        7.84091       25.69625        -999.25        9.82014       10.57553        -999.25        0.04778
1430.50000        7.81000       26.09103        -999.25        9.49640       10.26330        -999.25        0.04588
1431.00000        7.77691       25.57945        -999.25        9.49640        9.78417        -999.25        0.05208
1431.50000        7.80000       25.06372        -999.25        8.59136       11.48201        -999.25        0.05953
1432.00000        -999.25        -999.25        -999.25        -999.25        -999.25        -999.25        0.06573
