~Version ---------------------------------------------------
VERS. 2.0 : CWLS LOG ASCII STANDARD - VERSION 2.0
WRAP. NO  : One line per depth step
DLM . SPACE : Column Data Section Delimiter
~Well ------------------------------------------------------
STRT.F           48 : START DEPTH
STOP.F       1432.0 : STOP DEPTH
STEP.F          0.5 : STEP
NULL.       -999.25 : NULL VALUE
COMP.                 WALSH & WATTS, INC. : COMPANY
WELL.                         HOWARD F 25 : WELL
FLD .                            MONTAGUE : FIELD
CNTY.                            MONTAGUE : COUNTY
STAT.                               TEXAS : STATE
CTRY.                                 USA : COUNTRY
SEC .                                     : SECTION
TWP .                                     : TOWNSHIP
RGE .                                     : RANGE
LOC . 1115'FEL & 2300'FSL OF THE J.CHAMBLIS SURVEY A-123 : LOCATION
EKB .F                      512 : ELEVATION KELLY BUSHING
EDF .F                      511 : ELEVATION DERRICK FLOOR
EGL .F                      505 : ELEVATION GROUND LEVEL
PDAT.                        GL : PERMANENT DATUM
EPD .                       505 : ELEVATION PERMANENT DATUM
APD .                         7 : ABOVE PERMANENT DATUM
LMF .                        KB : LOG MEASURED FROM
DMF .                        KB : DRILLING MEASURED FROM
API .            42337343120000 : API NUMBER
UWI .                           : UWI NUMBER
DIGC.                     NthDS : DIGITIZING COMPANY
~Params ----------------------------------------------------
SRVC. PIONEER WIRELINE SERVICES : LOGGING COMPANY
LOG .                   CNFD/ML : LOG
DATE.                2010-10-07 : RUN DATE
RUN .                         1 : RUN NUMBER
TDD .F                     1450 : TOTAL DEPTH DRILLER
TDL .F                     1452 : TOTAL DEPTH LOGGER
BOTL.F                     1452 : BOTTOM LOGGED INTERVAL
TOPL.F                       50 : TOP LOGGED INTERVAL
CSGS.IN                         : CASING SIZE
CSGD.F                          : CASING DRILLER
CSGL.F                          : CASING LOGGER
BS  .IN                   7.875 : BIT SIZE
MUD .                  GEL-CHEM : MUD TYPE
MUDD.                           : MUD DENSITY
MUDV.                           : MUD VISCOSITY
PH  .                           : MUD PH
FL  .                           : FLUID LOSS
MUDS.                  FLOWLINE : SOURCE OF SAMPLE
RM  .OHMM                   4.0 : MUD RESISTIVITY
RMT .DEGF                    72 : RM TEMPERATURE
RMF .OHMM                   3.0 : MUD FILTRATE RESISTIVITY
RMFT.DEGF                    72 : RMF TEMPERATURE
RMC .OHMM                   5.0 : MUD CAKE RESISTIVITY
RMCT.DEGF                    72 : RMC TEMPERATURE
RMFS.                      CALC : RMF SOURCE
RMCS.                      CALC : RMC SOURCE
RMBH.OHMM                     3 : MUD RESISTIVITY AT BHT
BHT .DEGF                    88 : BOTTOM HOLE TEMPERATURE
TIMC.           0730 2010-10-07 : TIME CIRCULATION STOPPED
TIML.           1020 2010-10-07 : TIME LOGGER ON BOTTOM
TMAX.DEGF                    88 : MAXIMUM RECORDED TEMPERATURE
UNIT.                      M-19 : EQUIPMENT NUMBER
BASE.                GRAHAM, TX : BASE LOCATION
ENG .                    WENDEL : RECORDED BY
WIT .           WOMBLE/BURLESON : WITNESSED BY
~Curve Information -----------------------------------------
DEPT.F          :DEPTH
CALD.IN         :
DPHI.%          :
GRD.GAPI        :
MINV.OHMM       :
MNOR.OHMM       :
NPHI.%          :
RHOC.G/CC       :
~ASCII ------------------------------------------------------
# ...
1235.50000        8.47273       14.28253      101.61816        4.10072        3.49496       20.51927        0.05818
1236.00000        8.47709       13.64082       99.90816        4.02878        3.59712       18.04043        0.06909
1236.50000        8.49018       13.27172       96.87271        4.07626        3.74101       17.19708        0.05091
1237.00000        8.50327       13.23129       92.29089        3.72518        3.74101       17.87738        0.04364
1237.50000        8.51418       13.56824       89.81725        4.49208        3.81295       18.15271        0.02909
1238.00000        8.52727       13.86459       94.65816        4.89208        3.95683       17.34546        0.01818
1238.50000        8.53454       14.08413       99.58634        5.07194        4.07626       16.67299        0.02182
1239.00000        8.54327       14.30367      103.36361        5.28777        4.17266       17.53975        0.02909
1239.50000        8.55200       14.51944      103.78634        5.16403        4.17266       18.57970        0.02182
1240.00000        8.55927       14.80461      101.80089        4.92374        4.17266       19.19109        0.01818
1240.50000        8.51218       14.88182       99.62452        4.72374        4.17266       19.70525        0.02182
1241.00000        8.40909       14.79872       98.45452        5.03597        4.16115       20.07611        0.02909
1241.50000        8.32327       14.69009       96.74998        4.82014        4.12806       20.32980        0.03273
1242.00000        8.25654       14.61525       96.60271        4.83885        4.10072       20.35026        0.02909
1242.50000        8.26127       14.56387       98.06452        4.97554        4.06762       20.29911        0.02545
1243.00000        8.26691       14.65567       99.81816        5.08921        4.04029       20.23716        0.01818
1243.50000        8.27273       14.92990       96.68180        5.32374        4.11079       21.04375        0.01455
1244.00000        8.27745       15.11808       94.06907        5.33237        4.23453       22.07738        0.00727
1244.50000        8.28327       15.27515       96.06271        5.16259        4.30072       20.95400        0.01818
1245.00000        8.28800       15.63543       98.57998        4.95971        4.20431       19.05528        0.02182
1245.50000        8.29382       16.64658      100.09089        4.97842        4.12518       17.00392        0.02909
1246.00000        8.29945       18.12032       91.34180        5.15108        4.02878       16.39198        0.02909
1246.50000        8.30436       19.58689       82.58998        5.52518        4.14820       16.57506        0.03273
1247.00000        8.30000       21.05346       72.61907       10.79136        9.87050       17.34154        0.03636
1247.50000        8.25454       22.52003       64.52726       10.10359        9.92805       17.29660        0.04000
1248.00000        8.20000       23.41182       55.09090        9.28057        9.53237       17.62006        0.03636
1248.50000        8.14545       24.18414       49.56817       11.65467       18.70503       18.41936        0.02909
1249.00000        8.10000       23.94424       50.99999       10.83884       14.84891       19.01726        0.03273
1249.50000        8.04545       23.03331       63.49635       10.35971       15.97122       19.20945        0.05455
1250.00000        8.07600       20.66386       72.91635        8.75108       11.65467       19.09802        0.07636
1250.50000        8.08850       20.19213       84.08210        5.19414        6.75897       19.04849        0.09744
1251.00000        8.14836       17.81336       95.80290        4.12161        3.36996       18.76011        0.12308
1251.50000        8.19799       14.95883       96.41056        4.15091        3.36996       18.47210        0.11575
1252.00000        8.35255       14.26752       96.11494        4.17582        3.36996       18.78097        0.10110
1252.50000        8.49690       13.73285       94.84487        4.20513        3.36996       19.15133        0.07912
1253.00000        8.52847       13.78774       93.32023        4.23443        3.36996       19.35407        0.07179
1253.50000        8.48905       13.74383       93.06567        4.13187        3.36996       18.82342        0.07179
1254.00000        8.45620       13.26075       96.35034        4.03809        3.36996       18.39890        0.09011
1254.50000        8.41679       12.77768      101.27735        4.20366        3.36996       18.39890        0.08645
1255.00000        8.39781       12.61665      102.87315        4.33992        3.36996       18.39890        0.07912
1255.50000        8.44161       13.28198      102.98264        4.20073        3.36996       17.56706        0.05714
1256.00000        8.48540       14.27997      102.73082        3.86813        3.36996       16.56908        0.05348
1256.50000        8.52190       14.72095      103.08118        4.35311        3.36996       16.78866        0.05714
1257.00000        8.56569       14.74438      103.94888        4.10256        3.36996       18.06953        0.06081
1257.50000        8.55347       14.32095      104.67425        3.85201        3.36996       19.24062        0.06081
1258.00000        8.52427       13.89753      104.83574        3.96923        3.38022       20.39817        0.04615
1258.50000        8.50292       13.91144      102.86494        4.20952        3.43883       21.61025        0.03883
1259.00000        8.51734       13.92864      100.03739        3.93553        3.49743       22.42781        0.03883
1259.50000        8.53449       13.90741       96.64323        3.99853        3.54579       22.92699        0.04249
1260.00000        8.54890       13.87411       96.38866        4.24908        3.60439       23.01006        0.03883
1260.50000        8.51825       13.99524       95.73994        4.39560        3.66300       21.08253        0.03516
1261.00000        8.47263       14.19653       94.26458        4.54212        3.66300       19.62489        0.02784
1261.50000        8.41788       14.02782       92.79195        4.39560        3.66300       19.62598        0.03150
1262.00000        8.36314       13.73285       96.47352        4.39560        3.63223       20.14602        0.04249
1262.50000        8.35237       13.37896      101.07753        4.39560        3.59560       20.76999        0.04615
1263.00000        8.35000       13.20220      103.28374        4.10256        3.55018       21.23770        0.04249
1263.50000        8.34799       13.49497      102.44067        3.89743        3.50476       20.97640        0.02784
1264.00000        8.34562       14.05782      100.48082        4.17582        3.46813       22.38463        0.02784
1264.50000        8.34325       14.68289       98.98903        3.98242        3.42271       24.56029        0.02418
1265.00000        8.34124       15.05032       97.66969        4.03370        3.37729       26.15078        0.02418
1265.50000        8.33887       15.21501       95.72899        4.07619        3.36996       26.98920        0.02418
1266.00000        8.33686       15.22964       94.43429        4.12894        3.36996       27.63184        0.02418
1266.50000        8.33449       14.94419       95.84122        4.18022        3.36996       27.80055        0.02418
1267.00000        8.33212       14.57969       97.95436        4.22271        3.36996       27.59927        0.03029
1267.50000        8.33011       14.04062       99.43520        4.27546        3.36996       26.68619        0.03762
1268.00000        8.32774       13.73541       99.87315        4.32674        3.36996       24.43074        0.03828
1268.50000        8.32573       13.68198      100.23720        4.36923        3.36996       23.22964        0.03777
1269.00000        8.32336       13.80384      100.78465        4.38095        3.36996       23.21501        0.03711
1269.50000        8.32098       13.92608      100.52461        4.35311        3.36996       23.33431        0.03645
