~Version ---------------------------------------------------
VERS. 2.0 : CWLS LOG ASCII STANDARD - VERSION 2.0
WRAP. NO  : One line per depth step
DLM . SPACE : Column Data Section Delimiter
~Well ------------------------------------------------------
STRT.F           40 : START DEPTH
STOP.F       1284.0 : STOP DEPTH
STEP.F          0.5 : STEP
NULL.       -999.25 : NULL VALUE
COMP.                 WALSH & WATTS, INC. : COMPANY
WELL.                         HOWARD G 17 : WELL
FLD .             MONTAGUE COUNTY REGULAR : FIELD
CNTY.                            MONTAGUE : COUNTY
STAT.                               TEXAS : STATE
CTRY.                                 USA : COUNTRY
SEC .                                     : SECTION
TWP .                                     : TOWNSHIP
RGE .                                     : RANGE
LOC . 520'FNL & 4250'FEL OF THE J.CHAMBLIS SURVEY, A-123 : LOCATION
EKB .F                      519 : ELEVATION KELLY BUSHING
EDF .F                      518 : ELEVATION DERRICK FLOOR
EGL .F                      512 : ELEVATION GROUND LEVEL
PDAT.                        GL : PERMANENT DATUM
EPD .                       512 : ELEVATION PERMANENT DATUM
APD .                         7 : ABOVE PERMANENT DATUM
LMF .                        KB : LOG MEASURED FROM
DMF .                        KB : DRILLING MEASURED FROM
API .            42337343900000 : API NUMBER
UWI .                           : UWI NUMBER
DIGC.                     NthDS : DIGITIZING COMPANY
~Params ----------------------------------------------------
SRVC. PIONEER WIRELINE SERVICES : LOGGING COMPANY
LOG .                      DIFL : LOG
DATE.                2010-10-13 : RUN DATE
RUN .                         1 : RUN NUMBER
TDD .F                     1298 : TOTAL DEPTH DRILLER
TDL .F                     1280 : TOTAL DEPTH LOGGER
BOTL.F                     1280 : BOTTOM LOGGED INTERVAL
TOPL.F                       50 : TOP LOGGED INTERVAL
CSGS.IN                         : CASING SIZE
CSGD.F                          : CASING DRILLER
CSGL.F                          : CASING LOGGER
BS  .IN                   7.875 : BIT SIZE
MUD .                  GEL-CHEM : MUD TYPE
MUDD.                           : MUD DENSITY
MUDV.                           : MUD VISCOSITY
PH  .                           : MUD PH
FL  .                           : FLUID LOSS
MUDS.                  FLOWLINE : SOURCE OF SAMPLE
RM  .OHMM                   3.6 : MUD RESISTIVITY
RMT .DEGF                    72 : RM TEMPERATURE
RMF .OHMM                   2.7 : MUD FILTRATE RESISTIVITY
RMFT.DEGF                    72 : RMF TEMPERATURE
RMC .OHMM                   4.5 : MUD CAKE RESISTIVITY
RMCT.DEGF                    72 : RMC TEMPERATURE
RMFS.                      CALC : RMF SOURCE
RMCS.                      CALC : RMC SOURCE
RMBH.OHMM                   3.0 : MUD RESISTIVITY AT BHT
BHT .DEGF                    85 : BOTTOM HOLE TEMPERATURE
TIMC.           0245 2010-10-13 : TIME CIRCULATION STOPPED
TIML.           0540 2010-10-13 : TIME LOGGER ON BOTTOM
TMAX.DEGF                    85 : MAXIMUM RECORDED TEMPERATURE
UNIT.                      M-19 : EQUIPMENT NUMBER
BASE.             GRAHAM, TEXAS : BASE LOCATION
ENG .                    WENDEL : RECORDED BY
WIT .           WOMBLE/BURLESON : WITNESSED BY
~Curve Information -----------------------------------------
DEPT.F          :DEPTH
CILD.MMHO       :
GRR.GAPI        :
RILD.OHMM       :
RILM.OHMM       :
RSFL.OHMM       :
SP.MV           :
~ASCII ------------------------------------------------------
# ...
281.00000      135.29530       74.07488        7.41872        7.24774        9.64288      143.68720
281.50000      135.05762       75.85902        7.36203        7.17137        9.66639      142.42641
282.00000      135.77191       81.10241        7.30622        7.09580        9.77171      140.98588
282.50000      136.48621       84.44867        7.25745        7.06907        9.78481      140.05284
283.00000      137.20050       83.29294        7.20243        7.04629        9.78481      139.68280
283.50000      137.92141       81.97069        7.15436        7.09926        9.97609      139.90747
284.00000      137.90850       83.65571        7.09969        7.17442        9.99554      140.77707
284.50000      136.44779       86.05637        7.18273        7.25039       10.02601      141.59381
285.00000      134.98047       87.29140        7.29644        7.31735        9.93487      142.68808
285.50000      133.51976       86.76210        7.42912        7.39482        9.95122      143.78236
286.00000      132.05905       87.22400        7.54719        7.47403       10.35038      144.73918
286.50000      130.59834       86.93259        7.68396        7.56559       11.11927      145.83346
287.00000      129.13764       86.36563        7.82368        7.65827       11.32767      146.92773
287.50000      127.67032       83.03523        7.91519        7.74030       11.51261      147.88456
288.00000      126.20961       79.62554        8.00533        7.83512       11.46854      148.97883
288.50000      124.87451       78.50153        8.08566        7.91905       10.77605      150.18412
289.00000      123.80384       80.93787        8.17774        8.01606       10.54501      151.27310
289.50000      122.72657       84.96210        8.23770        8.22768       10.60166      152.80086
290.00000      121.65591       86.71254        8.28095        8.47888       10.52641      154.38676
290.50000      120.63813       87.61254        8.32999        8.70272       12.25690      155.56297
291.00000      120.42689       86.21695        8.37984        8.80933       14.71299      156.35592
291.50000      121.75601       84.41298        8.42332        8.56866       13.90056      156.59381
292.00000      123.08512       83.07091        8.33405        8.28801       13.32386      156.47487
292.50000      124.90345       83.98677        8.05961        8.09058       12.33175      156.17619
293.00000      127.71341       87.01981        7.75728        7.87002       11.81725      155.43610
293.50000      131.45122       89.95968        7.46584        7.65594       11.32422      154.59028
294.00000      134.26119       90.04690        7.34323        7.36203       10.45552      153.74447
294.50000      137.06455       89.69602        7.26099        7.00182        9.81464      153.00438
295.00000      139.87451       92.23347        7.18973        7.00907        9.60772      152.15857
295.50000      140.67475       95.57179        7.10964        7.01761        9.86916      151.31275
296.00000      141.21055       97.26871        7.03001        7.02616       10.13834      150.57266
296.50000      141.21747       94.44977        7.06347        7.03387       10.37941      149.83786
297.00000      140.56330       91.63082        7.19060        7.04201       10.60166      149.29073
297.50000      138.58694       90.97069        7.30399        7.13218       10.63916      148.80967
298.00000      136.61058       91.04206        7.43545        7.25215       11.45040      148.26253
298.50000      134.63421       91.11342        7.64849        7.37414       12.50792      147.84755
299.00000      130.74728       86.94448        7.88297        7.48268       11.83525      147.50130
299.50000      125.90838       85.22576        8.15984        7.76910        9.66639      147.10482
300.00000      120.97534       84.18501        8.35590        8.47888        9.30096      146.75592
300.50000      118.78235       83.39206        8.50163        9.37030       12.86864      146.91716
301.00000      117.91062       76.85021        8.65043        9.60772       15.82811      146.98588
301.50000      117.03228       65.08876        8.78202        9.60772       15.69282      147.04932
302.00000      114.98463       54.44933        8.93573        9.59135       15.33674      147.11804
302.50000      112.34900       44.86057        9.07222        9.47874       15.09864      147.41407
303.00000      111.47727       43.80991        9.12151        9.35149       15.28361      147.86077
303.50000      111.48419       45.42158        9.06229        9.22539       15.14467      148.30482
304.00000      111.82143       47.13039        9.01112        9.11707       14.85701      148.69337
304.50000      112.81930       48.10572        8.95261        9.02375       14.53493      149.14006
305.00000      113.26884       48.10572        8.90207        8.98537       14.69061      149.38324
305.50000      112.61513       46.95198        8.84426        8.94172       14.60589      149.59469
306.00000      111.96141       45.98656        8.88853        9.08549       14.09314      149.80614
306.50000      111.22841       45.23920        8.98154        9.26987       13.95313      149.99117
307.00000      110.33026       49.09691        9.08881        9.50821       14.98418      150.53566
307.50000      109.43872       54.66541        9.18392        9.74260       14.72016      151.10923
308.00000      108.54056       58.06717        9.29360       10.01747       14.48810      151.76738
308.50000      108.62676       60.08325        9.27495       10.39902       14.36427      152.42288
309.00000      109.38911       62.04779        8.92703       10.22325       14.28665      153.02024
309.50000      113.00310       64.49404        8.54574        9.63701       14.40280      153.70218
310.00000      118.12994       66.93832        8.22517        8.96352       14.29709      154.29954
310.50000      123.25679       70.30836        7.84515        8.25125       13.34740      154.98147
311.00000      128.38363       75.44272        7.48633        7.62571       10.33590      155.56297
311.50000      135.46596       82.24228        7.09666        6.96865        8.15140      156.05989
312.00000      143.53263       88.11012        6.72729        6.45526        8.21767      156.62553
312.50000      151.59930       90.26893        6.41998        6.15776        8.66307      157.12244
313.00000      159.66598       89.04977        6.08583        5.83440        8.66307      157.69072
313.50000      167.73265       85.57267        5.95208        5.56552        8.11624      158.41760
314.00000      174.12792       86.23281        5.80252        5.40194        7.31289      159.19733
314.50000      179.68417       87.29140        5.65707        5.31937        7.62338      160.08808
315.00000      179.90910       87.79889        5.66844        5.26653        7.65454      160.08808
315.50000      180.14064       87.18831        5.68157        5.33104        7.17311      160.08808
316.00000      180.36556       86.96034        5.69335        5.38815        7.17311      160.08808
316.50000      178.56895       86.96034        5.70653        5.48546        7.73747      160.08808
317.00000      176.18006       86.96034        5.71975        5.61692        8.47321      160.08808
317.50000      174.38345       87.62840        5.79158        5.73439        8.97444      160.02464
318.00000      170.85596       89.41254        5.96877        5.87146        9.17330      159.52244
318.50000      166.45644       90.25505        6.12821        5.99426        8.94172      159.01760
319.00000      162.05692       89.61276        6.31608        6.21122        8.90911      158.68191
319.50000      157.66400       86.03457        6.50932        6.44701        9.26310      158.45724
320.00000      153.26448       81.21144        6.68320        6.73671        9.85955      158.26165
320.50000      148.86496       79.62554        6.88767        7.12047        9.55580      158.03434
