~Version ---------------------------------------------------
VERS. 2.0 : CWLS LOG ASCII STANDARD - VERSION 2.0
WRAP. NO  : One line per depth step
DLM . SPACE : Column Data Section Delimiter
~Well ------------------------------------------------------
STRT.F           11 : START DEPTH
STOP.F       1368.0 : STOP DEPTH
STEP.F          0.5 : STEP
NULL.       -999.25 : NULL VALUE
COMP.                 WALSH & WATTS, INC. : COMPANY
WELL.                      HOWARD AB E 4E : WELL
FLD .             MONTAGUE COUNTY REGULAR : FIELD
CNTY.                            MONTAGUE : COUNTY
STAT.                                     : STATE
CTRY.                                 USA : COUNTRY
SEC .                                     : SECTION
TWP .                                     : TOWNSHIP
RGE .                                     : RANGE
LOC . 3250'FEL & 1590'FSL OF THE J.CHAMBLIS SURVEY A-123 : LOCATION
EKB .F                          : ELEVATION KELLY BUSHING
EDF .F                          : ELEVATION DERRICK FLOOR
EGL .F                          : ELEVATION GROUND LEVEL
PDAT.                        GL : PERMANENT DATUM
EPD .                           : ELEVATION PERMANENT DATUM
APD .                         8 : ABOVE PERMANENT DATUM
LMF .                        KB : LOG MEASURED FROM
DMF .                        KB : DRILLING MEASURED FROM
API .            42337348780000 : API NUMBER
UWI .                           : UWI NUMBER
DIGC.                     NthDS : DIGITIZING COMPANY
~Params ----------------------------------------------------
SRVC. PIONEER WIRELINE SERVICES : LOGGING COMPANY
LOG .                      CNFD : LOG
DATE.                2012-08-01 : RUN DATE
RUN .                         1 : RUN NUMBER
TDD .F                     1400 : TOTAL DEPTH DRILLER
TDL .F                     1396 : TOTAL DEPTH LOGGER
BOTL.F                     1368 : BOTTOM LOGGED INTERVAL
TOPL.F                       50 : TOP LOGGED INTERVAL
CSGS.IN                         : CASING SIZE
CSGD.F                          : CASING DRILLER
CSGL.F                          : CASING LOGGER
BS  .IN                   7.875 : BIT SIZE
MUD .                  CHEM-GEL : MUD TYPE
MUDD.                           : MUD DENSITY
MUDV.                           : MUD VISCOSITY
PH  .                           : MUD PH
FL  .                           : FLUID LOSS
MUDS.                  FLOWLINE : SOURCE OF SAMPLE
RM  .OHMM                   2.4 : MUD RESISTIVITY
RMT .DEGF                    73 : RM TEMPERATURE
RMF .OHMM                   1.8 : MUD FILTRATE RESISTIVITY
RMFT.DEGF                    73 : RMF TEMPERATURE
RMC .OHMM                   3.0 : MUD CAKE RESISTIVITY
RMCT.DEGF                    73 : RMC TEMPERATURE
RMFS.                      CALC : RMF SOURCE
RMCS.                      CALC : RMC SOURCE
RMBH.OHMM                   2.0 : MUD RESISTIVITY AT BHT
BHT .DEGF                    86 : BOTTOM HOLE TEMPERATURE
TIMC.           0200 2012-08-01 : TIME CIRCULATION STOPPED
TIML.           0430 2012-08-01 : TIME LOGGER ON BOTTOM
TMAX.DEGF                    86 : MAXIMUM RECORDED TEMPERATURE
UNIT.                       110 : EQUIPMENT NUMBER
BASE.                GRAHAM, TX : BASE LOCATION
ENG .                    WENDEL : RECORDED BY
WIT .           OVERBY/BURLESON : WITNESSED BY
~Curve Information -----------------------------------------
DEPT.F          :DEPTH
CALD.IN         :
DPHI.V/V        :
GRD.GAPI        :
NPHI.%          :
PEC.B/E         :
RLML.OHMM       :
RNML.OHMM       :
ZCOR.G/C3       :
~ASCII ------------------------------------------------------
# ...
1345.00000        7.75249        0.24326       79.46683       17.85446        2.26971       11.03249        8.44260        0.02166
1345.50000        7.75341        0.25321       81.67678       18.74027        2.26925       12.34656        8.37545        0.01733
1346.00000        7.75433        0.26169       80.93921       19.80367        2.21942       10.47942        6.46209        0.01372
1346.50000        7.75525        0.27410       77.80937       20.60299        2.12006        8.15884        5.42455        0.00939
1347.00000        7.75635        0.28651       72.09943       21.22470        2.03725       11.18122        9.80505        0.00578
1347.50000        7.75727        0.29031       66.85081       21.97098        1.93789       13.23682       15.06137        0.01538
1348.00000        7.75819        0.28957       64.36463       22.03285        1.99392       12.12996       16.49313        0.01816
1348.50000        7.75912        0.28716       62.70717       21.77544        2.06086       12.05776       13.48375        0.01545
1349.00000        7.76022        0.29118       60.77347       21.65904        2.11689       12.41877       13.66064        0.01318
1349.50000        7.76096        0.30002       57.45855       21.99096        2.18419       10.75812       14.65703        0.00747
1350.00000        7.76188        0.30003       53.86739       22.26755        2.30769       10.18050       13.21299        0.00144
1350.50000        7.74457        0.30003       51.65745       21.86282        2.30723       13.02021       17.65342       -0.00578
1351.00000        7.74549        0.30003       50.82872       20.97920        2.28479       12.88808       18.05053       -0.00765
1351.50000        7.74641        0.29795       50.93369       19.69049        2.26235       11.51624       17.34295       -0.00242
1352.00000        7.74751        0.28617        -999.25       20.26948        2.23991       12.74729       16.82310        0.00195
1352.50000        7.74843        0.27021        -999.25       21.09090        2.33945       15.18844       17.29530        0.00718
1353.00000        7.74936        0.24208        -999.25       21.60697        2.50016       12.15884       12.43537        0.01152
1353.50000        7.74825        0.21863        -999.25       21.42317        2.61216        7.00361        6.60361        0.01693
1354.00000        7.74696        0.19877        -999.25       20.44753        2.50188       10.75812        4.69891        0.02206
1354.50000        7.74567        0.20460        -999.25       19.63463        2.36955        4.23105        3.29892        0.02827
1355.00000        7.74420        0.22186        -999.25       19.25126        2.23723        5.53068        3.37906        0.02523
1355.50000        7.74273        0.23624        -999.25       19.49102        2.21222        7.07581        5.71841        0.01502
1356.00000        7.74162        0.25351        -999.25       19.86272        2.24107        6.96751        6.15812        0.00653
1356.50000        7.74015        0.26325        -999.25       20.52311        2.25233        7.84260        6.52924        0.00000
1357.00000        7.73867        0.26491        -999.25       21.31543        2.17495       12.40072        8.59205       -0.00242
1357.50000        7.73738        0.26627        -999.25        -999.25        2.09756       10.71696        6.98267       -0.00531
1358.00000        7.73591        0.26845        -999.25        -999.25        2.02018        9.00144        7.51696       -0.00314
1358.50000        7.73444        0.27038        -999.25        -999.25        2.13767       11.49458        8.98483        0.00079
1359.00000        7.73333        0.26695        -999.25        -999.25        2.26805       13.21299       11.31191        0.00408
1359.50000        7.73186        0.24813        -999.25        -999.25        2.42473       14.36822       12.15379        0.00801
1360.00000        7.72726        0.22554        -999.25        -999.25        2.57629       11.64043        7.58122        0.00866
1360.50000        7.72063        0.18093        -999.25        -999.25        2.70403        8.41877        5.19855        0.00866
1361.00000        7.71271        0.15057        -999.25        -999.25        2.82262        3.68231        2.87220        0.00928
1361.50000        7.65322        0.14439        -999.25        -999.25        2.77344        2.81588        2.39061        0.01289
1362.00000        7.60368        0.15983        -999.25        -999.25        2.51108        2.65559        2.26931        0.01588
1362.50000        7.52707        0.20084        -999.25        -999.25        2.17252        2.52707        2.31047        0.02310
1363.00000        7.44217        0.24185        -999.25        -999.25        1.99367        2.62816        2.52707        0.02913
1363.50000        7.35893        0.27518        -999.25        -999.25        -999.25        4.64476        6.93140        0.03635
1364.00000        7.23683        -999.25        -999.25        -999.25        -999.25        7.67509       10.98772        0.04332
1364.50000        7.11473        -999.25        -999.25        -999.25        -999.25        6.50541        9.76678        0.05632
1365.00000        7.01289        -999.25        -999.25        -999.25        -999.25        6.17328        8.93862        0.06715
1365.50000        6.89392        -999.25        -999.25        -999.25        -999.25        5.66787        8.57112        0.07520
1366.00000        6.77495        -999.25        -999.25        -999.25        -999.25        4.90975        7.79783        0.07776
1366.50000        6.72431        -999.25        -999.25        -999.25        -999.25        5.25632        8.15379        0.08087
1367.00000        6.67827        -999.25        -999.25        -999.25        -999.25        5.68953        8.74657        0.08047
1367.50000        6.66298        -999.25        -999.25        -999.25        -999.25        5.77617        9.45848        0.08004
1368.00000        -999.25        -999.25        -999.25        -999.25        -999.25        5.77545        9.49891        0.07964
