~Version ---------------------------------------------------
VERS. 2.0 : CWLS LOG ASCII STANDARD - VERSION 2.0
WRAP. NO  : One line per depth step
DLM . SPACE : Column Data Section Delimiter
~Well ------------------------------------------------------
STRT.F           11 : START DEPTH
STOP.F       1368.0 : STOP DEPTH
STEP.F          0.5 : STEP
NULL.       -999.25 : NULL VALUE
COMP.                 WALSH & WATTS, INC. : COMPANY
WELL.                      HOWARD AB E 4E : WELL
FLD .             MONTAGUE COUNTY REGULAR : FIELD
CNTY.                            MONTAGUE : COUNTY
STAT.                                     : STATE
CTRY.                                 USA : COUNTRY
SEC .                                     : SECTION
TWP .                                     : TOWNSHIP
RGE .                                     : RANGE
LOC . 3250'FEL & 1590'FSL OF THE J.CHAMBLIS SURVEY A-123 : LOCATION
EKB .F                          : ELEVATION KELLY BUSHING
EDF .F                          : ELEVATION DERRICK FLOOR
EGL .F                          : ELEVATION GROUND LEVEL
PDAT.                        GL : PERMANENT DATUM
EPD .                           : ELEVATION PERMANENT DATUM
APD .                         8 : ABOVE PERMANENT DATUM
LMF .                        KB : LOG MEASURED FROM
DMF .                        KB : DRILLING MEASURED FROM
API .            42337348780000 : API NUMBER
UWI .                           : UWI NUMBER
DIGC.                     NthDS : DIGITIZING COMPANY
~Params ----------------------------------------------------
SRVC. PIONEER WIRELINE SERVICES : LOGGING COMPANY
LOG .                      CNFD : LOG
DATE.                2012-08-01 : RUN DATE
RUN .                         1 : RUN NUMBER
TDD .F                     1400 : TOTAL DEPTH DRILLER
TDL .F                     1396 : TOTAL DEPTH LOGGER
BOTL.F                     1368 : BOTTOM LOGGED INTERVAL
TOPL.F                       50 : TOP LOGGED INTERVAL
CSGS.IN                         : CASING SIZE
CSGD.F                          : CASING DRILLER
CSGL.F                          : CASING LOGGER
BS  .IN                   7.875 : BIT SIZE
MUD .                  CHEM-GEL : MUD TYPE
MUDD.                           : MUD DENSITY
MUDV.                           : MUD VISCOSITY
PH  .                           : MUD PH
FL  .                           : FLUID LOSS
MUDS.                  FLOWLINE : SOURCE OF SAMPLE
RM  .OHMM                   2.4 : MUD RESISTIVITY
RMT .DEGF                    73 : RM TEMPERATURE
RMF .OHMM                   1.8 : MUD FILTRATE RESISTIVITY
RMFT.DEGF                    73 : RMF TEMPERATURE
RMC .OHMM                   3.0 : MUD CAKE RESISTIVITY
RMCT.DEGF                    73 : RMC TEMPERATURE
RMFS.                      CALC : RMF SOURCE
RMCS.                      CALC : RMC SOURCE
RMBH.OHMM                   2.0 : MUD RESISTIVITY AT BHT
BHT .DEGF                    86 : BOTTOM HOLE TEMPERATURE
TIMC.           0200 2012-08-01 : TIME CIRCULATION STOPPED
TIML.           0430 2012-08-01 : TIME LOGGER ON BOTTOM
TMAX.DEGF                    86 : MAXIMUM RECORDED TEMPERATURE
UNIT.                       110 : EQUIPMENT NUMBER
BASE.                GRAHAM, TX : BASE LOCATION
ENG .                    WENDEL : RECORDED BY
WIT .           OVERBY/BURLESON : WITNESSED BY
~Curve Information -----------------------------------------
DEPT.F          :DEPTH
CALD.IN         :
DPHI.V/V        :
GRD.GAPI        :
NPHI.%          :
PEC.B/E         :
RLML.OHMM       :
RNML.OHMM       :
ZCOR.G/C3       :
~ASCII ------------------------------------------------------
# ...
291.00000        8.02164        0.26202       57.95129       18.38682        1.96158       11.33574       14.26714        0.09635
291.50000        8.18334        0.25298       67.06045       19.52905        2.28456       10.25270       11.62454        0.12419
292.00000        8.38547        0.24213       80.86433       20.48115        2.68234        4.65704        7.47292        0.13094
292.50000        8.62802        0.24177       92.73589       23.07199        2.72584        3.14801        4.92419        0.13906
293.00000        8.65059        0.24941      104.33121       26.38733        2.72656        3.79567        4.42816        0.14585
293.50000        8.62942        0.25577      113.16278       28.43188        2.66309        2.91913        3.73646        0.14585
294.00000        8.57133        0.29366      117.85211       29.99782        2.61069        2.87942        3.72707        0.11794
294.50000        8.72677        0.29998      121.98760       29.99810        2.54723        3.17689        4.40433        0.09007
295.00000        8.85634        0.30001      122.25709       29.99845        2.49447        3.82671        4.98917        0.08191
295.50000        9.01178        0.30004      118.93412       29.99888        2.46287        3.10469        3.94224        0.10011
296.00000        8.79025        0.30007      115.88873       29.99923        2.48849        2.75235        3.10469        0.13863
296.50000        8.63069        0.30010      113.11823       29.99966        2.59279        3.10469        4.76534        0.13863
297.00000        8.55906        0.30013      115.04516       30.00001        2.67959        3.32130        4.19783        0.11906
297.50000        8.49950        0.30016      118.35194       30.00043        2.78389        3.80577        5.21299        0.09560
298.00000        8.68385        0.30019      120.00263       30.00079        2.82856        4.25993        6.76534        0.08159
298.50000        8.94436        0.30022      116.95589       30.00121        2.68158        4.25993        5.63177        0.06643
299.00000        9.36739        0.30024      113.08178       30.00156        2.55922        3.51697        4.76534        0.08047
299.50000        9.99308        0.30028      108.93009       30.00199        2.52726        2.70758        3.24910        0.09350
300.00000       11.00003        0.30065      106.78931       30.03690        2.65311        3.03249        3.50180        0.10433
300.50000       10.61494        0.30068      107.34322       30.03726        2.62114        3.39350        3.78339        0.10899
301.00000       10.29403        0.30071      108.17179       30.03761        2.61307        3.36967        3.93502        0.12325
301.50000       10.16417        0.30074      109.27617       30.03803        2.69173        3.20577        3.61011        0.14032
302.00000       10.05592        0.30002      109.27905       29.92803        2.75728        3.06137        3.79061        0.15458
302.50000        9.48731        0.29486      108.45682       29.44949        2.83594        2.88809        3.66642        0.15967
303.00000        9.45084        0.29917      107.35879       29.87084        2.90149        2.84476        3.59783        0.15895
303.50000        9.42039        0.29628      106.53656       30.03959        2.94059        3.01805        3.79061        0.15805
304.00000        9.41457        0.27753      105.71376       30.03994        2.95706        3.24910        4.08664        0.15729
304.50000        9.41476        0.25798      104.89153       30.04037        2.93169        3.11913        3.63393        0.15126
305.00000        9.44802        0.25400      103.79350       30.04072        2.89211        3.17689        4.11552        0.13773
305.50000        9.63283        0.28470      102.97127       30.04115        2.85246        3.32130        4.11552        0.11899
306.00000       10.03926        0.30078      102.97415       30.04150        2.85207        2.83971        3.47364        0.09289
306.50000       10.52701        0.30079      102.15192       29.40362        2.85161        2.78411        3.12563        0.07455
307.00000        9.82868        0.30042      100.77866       27.80766        2.85123        2.94224        3.53790        0.07942
307.50000        9.03382        0.27603       98.30506       26.97346        2.84234        3.22310        3.50180        0.07523
308.00000        8.95075        0.26065       96.65657       26.72814        2.80057        3.05848        3.32130        0.06960
308.50000        8.90970        0.28497       96.38480       26.85115        2.74992        3.03249        3.59206        0.06393
309.00000        8.95429        0.30044       96.38769       27.66189        2.69965        3.00000        3.82671        0.08989
309.50000        9.03159        0.30044       96.94160       28.60522        2.64835        2.86859        3.40577        0.11697
310.00000        8.49435        0.30045       97.77017       29.11165        2.54276        2.71985        3.16679        0.12574
310.50000        8.29124        0.30045       99.14977       27.04313        2.45483        2.88809        3.68231        0.12058
311.00000        8.31459        0.30045       98.60220       24.43214        2.34924        4.40433        5.81949        0.08119
311.50000        8.33423        0.27777       96.95428       23.11868        2.26131        5.63177        9.09747        0.04838
312.00000        8.38345        0.24374       95.03057       21.54268        2.30005        7.05776       10.52707        0.03032
312.50000        8.56148        0.24448       96.68540       20.78945        2.39783        7.22021        9.97833        0.03177
313.00000        8.70975        0.26029      100.26683       20.51651        2.51495        5.31191        8.12996        0.05498
313.50000        9.10667        0.27347      103.84768       20.81454        2.61274        3.53790        4.66426        0.09863
314.00000        9.47384        0.28252      107.70434       23.90888        2.73023        3.12852        3.75451        0.14368
314.50000        9.12214        0.28114      107.43200       26.94200        2.82288        3.09025        3.61011        0.14188
315.00000        8.69701        0.25935      104.68317       29.97484        2.91033        3.77545        4.47653        0.09639
315.50000        8.70385        0.23281      101.38331       29.98698        2.92460        4.62094        5.86931        0.07816
316.00000        8.87157        0.21271       97.53356       30.00176        2.83623        4.30108        5.77617        0.09170
316.50000        9.01620        0.21256       95.88507       30.01390        2.80654        3.03249        4.33213        0.11877
317.00000        8.64942        0.22536       96.43899       30.02869        2.80608        2.88809        3.66787        0.13502
317.50000        8.30598        0.23936       98.09324       30.04083        2.75075        3.24910        3.97112        0.13502
318.00000        8.18104        0.23992      101.67468       30.01400        2.64040        3.47581        4.40433        0.13271
318.50000        8.03118        0.22979      103.05370       27.10718        2.54845        3.10469        4.11552        0.12805
319.00000        7.90623        0.22022       98.92873       24.20036        2.32821        2.72924        4.14440        0.12419
319.50000        7.76980        0.21870       91.77567       21.79673        2.14467        4.92419        7.26353        0.10134
320.00000        7.76996        0.21744       79.94429       21.60040        2.10355        5.96390        9.53068        0.08227
320.50000        7.77019        0.21655       73.61691       21.36510        2.14383        6.59422        9.27797        0.05942
321.00000        7.77038        0.21997       70.31705       20.96472        2.31443        5.27076        9.45848        0.04758
321.50000        7.75226        0.23166       70.04528       20.32057        2.37778        6.66642       10.09169        0.03552
