~Version ---------------------------------------------------
VERS. 2.0 : CWLS LOG ASCII STANDARD - VERSION 2.0
WRAP. NO  : One line per depth step
DLM . SPACE : Column Data Section Delimiter
~Well ------------------------------------------------------
STRT.F           11 : START DEPTH
STOP.F       1399.0 : STOP DEPTH
STEP.F          0.5 : STEP
NULL.       -999.25 : NULL VALUE
COMP.                 WALSH & WATTS, INC. : COMPANY
WELL.                      HOWARD AB E 4E : WELL
FLD .             MONTAGUE COUNTY REGULAR : FIELD
CNTY.                            MONTAGUE : COUNTY
STAT.                                     : STATE
CTRY.                                 USA : COUNTRY
SEC .                                     : SECTION
TWP .                                     : TOWNSHIP
RGE .                                     : RANGE
LOC . 3250'FEL & 1590'FSL OF THE J.CHAMBLIS SURVEY A-123 : LOCATION
EKB .F                          : ELEVATION KELLY BUSHING
EDF .F                          : ELEVATION DERRICK FLOOR
EGL .F                          : ELEVATION GROUND LEVEL
PDAT.                        GL : PERMANENT DATUM
EPD .                           : ELEVATION PERMANENT DATUM
APD .                         8 : ABOVE PERMANENT DATUM
LMF .                        KB : LOG MEASURED FROM
DMF .                        KB : DRILLING MEASURED FROM
API .            42337348780000 : API NUMBER
UWI .                           : UWI NUMBER
DIGC.                     NthDS : DIGITIZING COMPANY
~Params ----------------------------------------------------
SRVC. PIONEER WIRELINE SERVICES : LOGGING COMPANY
LOG .                      DIFL : LOG
DATE.                2012-08-01 : RUN DATE
RUN .                         1 : RUN NUMBER
TDD .F                     1400 : TOTAL DEPTH DRILLER
TDL .F                     1396 : TOTAL DEPTH LOGGER
BOTL.F                     1394 : BOTTOM LOGGED INTERVAL
TOPL.F                       50 : TOP LOGGED INTERVAL
CSGS.IN                         : CASING SIZE
CSGD.F                          : CASING DRILLER
CSGL.F                          : CASING LOGGER
BS  .IN                   7.875 : BIT SIZE
MUD .                  CHEM-GEL : MUD TYPE
MUDD.                           : MUD DENSITY
MUDV.                           : MUD VISCOSITY
PH  .                           : MUD PH
FL  .                           : FLUID LOSS
MUDS.                  FLOWLINE : SOURCE OF SAMPLE
RM  .OHMM                   2.4 : MUD RESISTIVITY
RMT .DEGF                    73 : RM TEMPERATURE
RMF .OHMM                   1.8 : MUD FILTRATE RESISTIVITY
RMFT.DEGF                    73 : RMF TEMPERATURE
RMC .OHMM                   3.0 : MUD CAKE RESISTIVITY
RMCT.DEGF                    73 : RMC TEMPERATURE
RMFS.                      CALC : RMF SOURCE
RMCS.                      CALC : RMC SOURCE
RMBH.OHMM                   2.0 : MUD RESISTIVITY AT BHT
BHT .DEGF                    86 : BOTTOM HOLE TEMPERATURE
TIMC.           0200 2012-08-01 : TIME CIRCULATION STOPPED
TIML.           0430 2012-08-01 : TIME LOGGER ON BOTTOM
TMAX.DEGF                    86 : MAXIMUM RECORDED TEMPERATURE
UNIT.                       110 : EQUIPMENT NUMBER
BASE.                GRAHAM, TX : BASE LOCATION
ENG .                    WENDEL : RECORDED BY
WIT .           OVERBY/BURLESON : WITNESSED BY
~Curve Information -----------------------------------------
DEPT.F          :DEPTH
CILD.MMHO       :
GRR.GAPI        :
ILD.OHMM        :
ILM.OHMM        :
SFL.OHMM        :
SP.MV           :
~ASCII ------------------------------------------------------
# ...
332.50000      145.11534       45.86170        6.95192        6.73299        7.32932      135.23769
333.00000      144.26956       46.44968        7.01779        6.76690        7.23801      135.84833
333.50000      143.03737       46.63767        7.09395        6.88484        7.34931      136.62097
334.00000      141.04569       47.62713        7.21879        7.00485        7.54991      137.50360
334.50000      139.05401       53.34896        7.37478        7.11156        7.79752      139.35620
335.00000      137.06234       71.40394        7.66433        7.21253        7.82687      141.76412
335.50000      133.18526       85.92852        7.97241        7.37366        7.56098      144.12605
336.00000      125.53072      103.04953        8.27377        7.79797        7.16087      148.18192
336.50000      118.62902      115.77267        8.59583        8.18922        7.06043      150.76250
337.00000      113.23962      121.26050        9.12836        8.62080        7.07964      152.79710
337.50000      107.85023      116.50463        9.62162        9.22161        7.29114      154.06572
338.00000      102.46084      108.93834        9.93717       10.07369        7.70127      155.51634
338.50000      102.02145      100.90656        9.97501       10.70675        8.18474      157.02295
339.00000      103.88718       97.53464        9.79024       10.79715        8.87723      158.55290
339.50000      108.14463      100.77854        9.33975       10.29214        8.76664      161.15815
340.00000      112.39541      109.29179        8.83363        8.98077        7.89403      162.43477
340.50000      116.67951      116.28109        8.35544        8.20849        7.03344      162.64009
341.00000      122.39831      121.17044        7.96951        7.65175        6.48499      162.09276
341.50000      129.16074      123.55837        7.57462        7.25839        6.13206      161.01011
342.00000      137.16233      124.84632        7.35950        6.91974        6.10003      160.81277
342.50000      145.16393      124.59182        6.95983        6.52277        6.08182      161.39608
343.00000      147.45604      122.62387        6.70257        6.45267        5.94874      162.06272
343.50000      149.74814      120.39543        6.70056        6.41846        5.94696      162.64602
344.00000      150.89435      117.03751        6.71880        6.56439        5.95002      163.23800
344.50000      151.47428      113.78960        6.71679        6.65746        5.99171      163.73331
345.00000      152.21410      113.77909        6.66741        6.51020        5.97758      164.29861
345.50000      153.27370      113.76708        6.55621        6.38402        5.92095      164.79392
346.00000      154.32664      113.75508        6.51918        6.31194        5.79377      165.21257
346.50000      155.38624      113.74457        6.53452        6.24869        5.66908      165.39122
347.00000      156.44584      113.73256        6.50584        6.18635        5.61561      165.68920
347.50000      157.50544      112.92208        6.35454        6.11575        5.64400      166.02785
348.00000      158.56504      110.77613        6.22528        6.24626        5.68111      166.57382
348.50000      160.57068      108.16420        6.13844        6.11183        5.84664      167.33112
349.00000      162.57631      106.40774        6.08054        5.98055        5.85359      167.78377
349.50000      164.58194      107.07571        6.09224        5.83397        5.64091      168.57307
350.00000      165.58824      107.87495        6.21483        5.84494        5.56495      169.08473
350.50000      166.09488      109.64089        6.16247        5.84319        5.38064      170.52135
351.00000      166.60152      111.78032        6.13508        5.89882        5.34720      172.84061
351.50000      167.10816      115.23422        6.22805        6.01620        5.40829      175.02453
352.00000      164.85666      118.68161        6.41990        6.20685        5.55405      175.33051
352.50000      161.23275      119.84707        6.56736        6.45351        5.76840      174.19454
353.00000      157.60217      116.84915        6.72853        6.74176        6.19867      172.04725
353.50000      153.97826      112.32327        6.79176        6.91115        6.58008      169.57798
354.00000      152.84600      109.31285        6.75689        6.91290        6.67255      167.32403
354.50000      151.70708      108.90085        6.70173        6.77242        6.46900      165.24675
355.00000      150.66810      111.43227        6.64702        6.66826        6.05955      163.80878
355.50000      149.67574      114.18969        6.62548        6.66626        5.80660      163.17145
356.00000      151.64807      116.60161        6.62321        6.66398        5.74649      162.98678
356.50000      155.11272      116.25711        6.62123        6.55171        5.87813      162.87478
357.00000      158.57070      113.40119        6.50381        6.42566        6.02472      162.86077
357.50000      162.02869      110.73475        6.34422        6.23576        5.96151      162.04478
358.00000      163.53466      107.82283        6.25931        5.95946        5.72153      160.96413
358.50000      165.04063      108.01232        6.25743        5.92923        5.50089      159.61483
359.00000      166.26678      109.00028        6.21702        5.89492        5.39871      158.95284
359.50000      168.72111      110.58973        6.07117        5.88123        5.39709      158.78483
360.00000      171.72607      110.31173        5.93977        5.82928        5.39524      158.72549
360.50000      174.73103      109.12325        5.91363        5.74093        5.32783      157.76017
361.00000      175.65739      107.15530        5.95712        5.64190        5.15305      156.05021
361.50000      172.43986      107.94477        6.00745        5.62672        5.00752      152.37031
362.00000      169.21568      110.33270        6.12072        5.78086        5.00580      149.26038
362.50000      165.99816      115.12205        6.24137        6.09303        5.31349      146.81244
363.00000      162.77398      117.11149        6.48913        6.38133        5.77183      145.76380
363.50000      156.63176      116.09951        6.71027        6.56447        6.07680      145.19847
364.00000      150.48954      112.22311        6.93766        6.70838        6.26975      144.78447
364.50000      144.34732      106.32727        7.20687        6.88483        6.24101      145.53111
365.00000      138.20510      101.99939        7.41643        7.21577        6.28228      146.40507
365.50000      136.37998      102.05488        7.52711        7.36040        6.36849      148.92232
366.00000      136.72006      103.84282        7.47331        7.45774        6.45006      151.12425
366.50000      138.02617      105.83226        7.41230        7.38099        6.53857      152.44154
367.00000      139.80528      107.52170        7.35933        7.26065        6.39745      152.76085
367.50000      141.59106      109.65963        7.31225        7.12577        6.20495      151.74487
368.00000      142.85719      111.79907        7.27293        7.03157        6.02686      150.53089
368.50000      141.53173      112.90703        7.26597        6.94342        5.96509      149.33358
369.00000      140.20627      113.17651        7.29820        6.94134        6.00123      149.31424
369.50000      138.21459      112.62252        7.39122        7.05358        6.06271      149.49756
370.00000      136.22292      110.21208        7.55358        7.28322        6.23682      149.78554
370.50000      134.01139      107.57015        7.78244        7.76526        6.52539      150.19019
371.00000      131.68660      105.93169        7.83760        8.13154        7.13658      150.88616
371.50000      127.31652      106.09967        7.86719        8.23771        7.78030      151.49346
372.00000      121.92713      108.74909        8.17633        8.24333        7.68970      152.01077
