~Version ---------------------------------------------------
VERS. 2.0 : CWLS LOG ASCII STANDARD - VERSION 2.0
WRAP. NO  : One line per depth step
DLM . SPACE : Column Data Section Delimiter
~Well ------------------------------------------------------
STRT.F           48 : START DEPTH
STOP.F       1432.0 : STOP DEPTH
STEP.F          0.5 : STEP
NULL.       -999.25 : NULL VALUE
COMP.                 WALSH & WATTS, INC. : COMPANY
WELL.                         HOWARD F 25 : WELL
FLD .                            MONTAGUE : FIELD
CNTY.                            MONTAGUE : COUNTY
STAT.                               TEXAS : STATE
CTRY.                                 USA : COUNTRY
SEC .                                     : SECTION
TWP .                                     : TOWNSHIP
RGE .                                     : RANGE
LOC . 1115'FEL & 2300'FSL OF THE J.CHAMBLIS SURVEY A-123 : LOCATION
EKB .F                      512 : ELEVATION KELLY BUSHING
EDF .F                      511 : ELEVATION DERRICK FLOOR
EGL .F                      505 : ELEVATION GROUND LEVEL
PDAT.                        GL : PERMANENT DATUM
EPD .                       505 : ELEVATION PERMANENT DATUM
APD .                         7 : ABOVE PERMANENT DATUM
LMF .                        KB : LOG MEASURED FROM
DMF .                        KB : DRILLING MEASURED FROM
API .            42337343120000 : API NUMBER
UWI .                           : UWI NUMBER
DIGC.                     NthDS : DIGITIZING COMPANY
~Params ----------------------------------------------------
SRVC. PIONEER WIRELINE SERVICES : LOGGING COMPANY
LOG .                   CNFD/ML : LOG
DATE.                2010-10-07 : RUN DATE
RUN .                         1 : RUN NUMBER
TDD .F                     1450 : TOTAL DEPTH DRILLER
TDL .F                     1452 : TOTAL DEPTH LOGGER
BOTL.F                     1452 : BOTTOM LOGGED INTERVAL
TOPL.F                       50 : TOP LOGGED INTERVAL
CSGS.IN                         : CASING SIZE
CSGD.F                          : CASING DRILLER
CSGL.F                          : CASING LOGGER
BS  .IN                   7.875 : BIT SIZE
MUD .                  GEL-CHEM : MUD TYPE
MUDD.                           : MUD DENSITY
MUDV.                           : MUD VISCOSITY
PH  .                           : MUD PH
FL  .                           : FLUID LOSS
MUDS.                  FLOWLINE : SOURCE OF SAMPLE
RM  .OHMM                   4.0 : MUD RESISTIVITY
RMT .DEGF                    72 : RM TEMPERATURE
RMF .OHMM                   3.0 : MUD FILTRATE RESISTIVITY
RMFT.DEGF                    72 : RMF TEMPERATURE
RMC .OHMM                   5.0 : MUD CAKE RESISTIVITY
RMCT.DEGF                    72 : RMC TEMPERATURE
RMFS.                      CALC : RMF SOURCE
RMCS.                      CALC : RMC SOURCE
RMBH.OHMM                     3 : MUD RESISTIVITY AT BHT
BHT .DEGF                    88 : BOTTOM HOLE TEMPERATURE
TIMC.           0730 2010-10-07 : TIME CIRCULATION STOPPED
TIML.           1020 2010-10-07 : TIME LOGGER ON BOTTOM
TMAX.DEGF                    88 : MAXIMUM RECORDED TEMPERATURE
UNIT.                      M-19 : EQUIPMENT NUMBER
BASE.                GRAHAM, TX : BASE LOCATION
ENG .                    WENDEL : RECORDED BY
WIT .           WOMBLE/BURLESON : WITNESSED BY
~Curve Information -----------------------------------------
DEPT.F          :DEPTH
CALD.IN         :
DPHI.%          :
GRD.GAPI        :
MINV.OHMM       :
MNOR.OHMM       :
NPHI.%          :
RHOC.G/CC       :
~ASCII ------------------------------------------------------
# ...
783.50000        8.52285       15.84504       95.74221        5.86956        4.63768       23.14010        0.12446
784.00000        8.50603       16.60562       89.27877        5.70000        4.54637       21.67420        0.09568
784.50000        8.48903       17.70226       82.81534        5.50724        4.40869       20.20234        0.07770
785.00000        8.44973       19.08591       75.04660        5.65217        4.27101       18.73011        0.07410
785.50000        8.39488       20.08941       66.96525        8.11594        4.89855       18.47590        0.05971
786.00000        8.34918       20.76450       62.30346       13.76811       10.72463       18.97785        0.05611
786.50000        8.29433       21.10231       61.15172        8.26087        8.02898       19.18963        0.05611
787.00000        8.27989       20.74509       67.84276        8.30869        6.42463       18.45286        0.07050
787.50000        8.27441       20.02987       76.25318        7.37101        6.32898       18.04437        0.07050
788.00000        8.26801       19.43398       86.34459        4.24493        4.20290       19.15380        0.07050
788.50000        8.25320       19.31530       88.82905        5.36232        4.20290       20.87876        0.05971
789.00000        8.23272       20.78807       90.03563        5.07246        4.26811       22.60371        0.04173
789.50000        8.21207       23.92307       91.48627        5.00000        4.33478       23.37147        0.03093
790.00000        8.30347       26.22665       93.69925        4.32753        3.78985       22.92475        0.04892
790.50000        8.44168       26.89663       96.35647        3.84058        3.12174       21.80686        0.08489
791.00000        8.59397       25.33783       96.17822        4.23913        3.42029       22.41182        0.14604
791.50000        8.72084       23.46719       95.55299        5.21739        4.46377       25.66517        0.13885
792.00000        8.82834       22.98235       99.32630        3.66522        3.80000       28.25550        0.11007
792.50000        8.88062       23.91462      103.22301        3.12609        2.78261       27.68628        0.12806
793.00000        8.94333       24.73547      107.89851        3.18840        2.95652       25.61838        0.15683
793.50000        9.06673       24.95528      109.74403        3.42029        3.10145       24.40917        0.16763
794.00000        9.09287       25.08974      105.10692        3.72029        3.27536       22.90126        0.17482
794.50000        9.06307       24.98591       96.49358        4.25072        3.69565       21.57515        0.15683
795.00000        8.96161       24.20385       89.31716        4.34782        4.40145       19.98396        0.14964
795.50000        8.77879       21.96998       83.08956        6.01449        6.46666       18.80908        0.15324
796.00000        8.59598       18.81460       80.57219        4.92753        5.36232       18.12492        0.15324
796.50000        8.44369       16.28849       79.57402        4.84348        4.67246       16.75497        0.14245
797.00000        8.42230       15.03507       77.53655        5.20579        4.72319       16.33492        0.08849
797.50000        8.43144       15.95821       75.13709        5.50724        4.76522       16.22926        0.06651
798.00000        8.44241       17.69412       78.15355        4.73478        4.39565       17.04463        0.03295
798.50000        8.45338       19.20611       86.12795        3.89275        3.81594       18.33123        0.02478
799.00000        8.46252       20.27998       92.77237        4.51304        4.14493       19.40328        0.04263
799.50000        8.46362       19.88623       96.08773        4.43478        4.26087       19.66194        0.08489
800.00000        8.45631       18.95255       96.91040        4.57971        3.97101       19.86722        0.11367
800.50000        8.43862       17.87812       96.52730        5.65217        4.63768       20.08304        0.12780
801.00000        8.42987       17.74165       93.53277        5.21739        4.44493       22.00951        0.11336
801.50000        8.42259       18.42847       89.89069        4.37246        3.76811       23.93560        0.10614
802.00000        8.47723       19.25265       89.16118        2.86232        2.89855       25.66615        0.09170
802.50000        8.53188       19.93947       94.06282        3.18840        2.31884       27.35035        0.09892
803.00000        8.57741       20.15981       99.27867        3.76811        3.64203       27.10518        0.11336
803.50000        8.53443       19.54174      102.57921        3.24638        2.88116       26.45514        0.12058
804.00000        8.40929       19.02673      104.09834        3.96087        3.43913       23.76608        0.12780
804.50000        8.20073       18.06465       98.77047        4.92753        4.46666       21.52520        0.12780
805.00000        8.06375       17.26310       93.44260        5.16956        4.60145       19.73554        0.13141
805.50000        7.97942       16.81483       88.73769        5.14493        4.54782       19.10466        0.11336
806.00000        7.87814       16.72398       83.09015        5.48695        4.49275       19.16398        0.10975
806.50000        7.77705       16.96262       77.44261        8.15217        5.05652       19.21329        0.10975
807.00000        7.69271       17.55990       73.66119        6.23188        5.10145       18.73538        0.09892
807.50000        7.65392       18.25587       69.39889        7.05362        4.70000       17.98872        0.09531
808.00000        7.63206       19.09103       69.70217        8.11594        5.65217       17.09288        0.07726
808.50000        7.60583       19.92620       70.18031        7.78985        6.08695       17.09352        0.07004
809.00000        7.57960       20.67157       70.71037        7.74492        6.28985       17.61578        0.07004
809.50000        7.57486       21.60554       70.43714        8.36376        6.42463       17.60740        0.06643
810.00000        7.60018       23.15982       68.03277        7.43333        5.94203       17.40053        0.06643
810.50000        7.62532       24.97198       62.45900       11.55797       12.74057       18.28583        0.07004
811.00000        7.64627       26.57566       58.22403       10.57971       18.14782       19.43011        0.08448
811.50000        7.67158       27.76581       57.32239        9.13043       16.85941       20.61110        0.09531
812.00000        7.62113       28.22390       60.10928        8.91304       14.05796       19.44079        0.11336
812.50000        7.53916       27.51104       65.02731        9.27536       15.65217       18.78269        0.12931
813.00000        7.45719       26.52370       68.16938        7.60869       11.30434       19.51539        0.13834
813.50000        7.46175       25.94502       68.22676        7.46376       13.55072       21.71193        0.13993
814.00000        7.46721       26.26418       65.72949        6.52174       12.60869       23.54238        0.11025
814.50000        7.47177       27.48860       61.04643        6.37681        9.71014       24.20188        0.07469
815.00000        7.46084       28.95797       54.64480        6.27971       10.84927       24.48188        0.06643
815.50000        7.41712       29.77520       50.27321        6.27971       10.07246       24.41372        0.07365
816.00000        7.38069       28.77859       54.64480        5.19275        7.89855       24.26993        0.10253
816.50000        7.38069       27.24231       61.59835        4.34782        6.08695       24.69033        0.10975
817.00000        7.40255       25.96208       68.75408        3.33333        3.91304       25.36447        0.11697
817.50000        7.47086       25.15041       68.43441        4.46087        5.20145       25.92625        0.10253
818.00000        7.56648       25.79624       59.36884        5.39855        9.06666       25.35343        0.08087
