~Version ---------------------------------------------------
VERS. 2.0 : CWLS LOG ASCII STANDARD - VERSION 2.0
WRAP. NO  : One line per depth step
DLM . SPACE : Column Data Section Delimiter
~Well ------------------------------------------------------
STRT.F           48 : START DEPTH
STOP.F       1432.0 : STOP DEPTH
STEP.F          0.5 : STEP
NULL.       -999.25 : NULL VALUE
COMP.                 WALSH & WATTS, INC. : COMPANY
WELL.                         HOWARD F 25 : WELL
FLD .                            MONTAGUE : FIELD
CNTY.                            MONTAGUE : COUNTY
STAT.                               TEXAS : STATE
CTRY.                                 USA : COUNTRY
SEC .                                     : SECTION
TWP .                                     : TOWNSHIP
RGE .                                     : RANGE
LOC . 1115'FEL & 2300'FSL OF THE J.CHAMBLIS SURVEY A-123 : LOCATION
EKB .F                      512 : ELEVATION KELLY BUSHING
EDF .F                      511 : ELEVATION DERRICK FLOOR
EGL .F                      505 : ELEVATION GROUND LEVEL
PDAT.                        GL : PERMANENT DATUM
EPD .                       505 : ELEVATION PERMANENT DATUM
APD .                         7 : ABOVE PERMANENT DATUM
LMF .                        KB : LOG MEASURED FROM
DMF .                        KB : DRILLING MEASURED FROM
API .            42337343120000 : API NUMBER
UWI .                           : UWI NUMBER
DIGC.                     NthDS : DIGITIZING COMPANY
~Params ----------------------------------------------------
SRVC. PIONEER WIRELINE SERVICES : LOGGING COMPANY
LOG .                   CNFD/ML : LOG
DATE.                2010-10-07 : RUN DATE
RUN .                         1 : RUN NUMBER
TDD .F                     1450 : TOTAL DEPTH DRILLER
TDL .F                     1452 : TOTAL DEPTH LOGGER
BOTL.F                     1452 : BOTTOM LOGGED INTERVAL
TOPL.F                       50 : TOP LOGGED INTERVAL
CSGS.IN                         : CASING SIZE
CSGD.F                          : CASING DRILLER
CSGL.F                          : CASING LOGGER
BS  .IN                   7.875 : BIT SIZE
MUD .                  GEL-CHEM : MUD TYPE
MUDD.                           : MUD DENSITY
MUDV.                           : MUD VISCOSITY
PH  .                           : MUD PH
FL  .                           : FLUID LOSS
MUDS.                  FLOWLINE : SOURCE OF SAMPLE
RM  .OHMM                   4.0 : MUD RESISTIVITY
RMT .DEGF                    72 : RM TEMPERATURE
RMF .OHMM                   3.0 : MUD FILTRATE RESISTIVITY
RMFT.DEGF                    72 : RMF TEMPERATURE
RMC .OHMM                   5.0 : MUD CAKE RESISTIVITY
RMCT.DEGF                    72 : RMC TEMPERATURE
RMFS.                      CALC : RMF SOURCE
RMCS.                      CALC : RMC SOURCE
RMBH.OHMM                     3 : MUD RESISTIVITY AT BHT
BHT .DEGF                    88 : BOTTOM HOLE TEMPERATURE
TIMC.           0730 2010-10-07 : TIME CIRCULATION STOPPED
TIML.           1020 2010-10-07 : TIME LOGGER ON BOTTOM
TMAX.DEGF                    88 : MAXIMUM RECORDED TEMPERATURE
UNIT.                      M-19 : EQUIPMENT NUMBER
BASE.                GRAHAM, TX : BASE LOCATION
ENG .                    WENDEL : RECORDED BY
WIT .           WOMBLE/BURLESON : WITNESSED BY
~Curve Information -----------------------------------------
DEPT.F          :DEPTH
CALD.IN         :
DPHI.%          :
GRD.GAPI        :
MINV.OHMM       :
MNOR.OHMM       :
NPHI.%          :
RHOC.G/CC       :
~ASCII ------------------------------------------------------
48.00000        -999.25        -999.25       44.45454        -999.25        -999.25        -999.25        -999.25
48.50000        9.20309       26.71958       46.81908        9.05109       10.51094       19.13213        0.08645
49.00000        9.20909       26.55806       47.99999        8.41897        9.78102       21.54221        0.08645
49.50000        9.21418       26.49004       45.95454        9.63503       11.49635       23.15980        0.06447
50.00000        9.19691       27.17188       43.84090        9.63503       11.38686       21.87990        0.04982
50.50000        9.13327       27.73641       43.63635       10.07299       12.16496       20.57823        0.04249
51.00000        9.09291       28.62685       43.63635       11.97080       15.14014       21.15009        0.04249
51.50000        9.10454       29.74783       46.99908       14.45255       20.36495       23.92448        0.03516
52.00000        9.11618       29.92647       50.36453       11.09489       13.24233       25.65370        0.02418
52.50000        9.12600       29.91828       53.16544        4.52555        8.65547       24.69603        0.03150
53.00000        9.13764       29.90845       54.11726        7.27883        9.78102       24.19216        0.06447
53.50000        9.05618       29.19488       52.81908        4.81752        5.10949       25.15778        0.12674
54.00000        8.83309       27.74408       50.99999        7.00730        3.64963       26.31683        0.12674
54.50000        8.60454       27.66289       48.27272       10.94890        8.17518       24.21371        0.09744
55.00000        8.45454       28.31361       45.54544        7.00730        7.29927       22.11040        0.04249
55.50000        8.32945       28.95500       45.54544        9.27007        9.18102       21.88465        0.02051
56.00000        8.27436       29.72467       49.09090        9.69343       10.91240       22.50774        0.00952
56.50000        8.31400       29.43305       59.94271        9.48905        9.48905       23.72132        0.01319
57.00000        8.32927       28.80895       72.11726        7.29927        7.81897       25.40076        0.02418
57.50000        8.33309       27.59401       86.72725        3.79562        3.24379       27.10033        0.03150
58.00000        8.33709       26.58163       98.18180        3.79562        2.66423       28.30183        0.02418
58.50000        8.34018       26.34490      100.36361        4.40438        2.84671       27.42449        0.04615
59.00000        8.34418       27.17385       91.39362        5.01168        4.08759       26.10818        0.03883
59.50000        8.38909       28.18633       78.94089        5.81022        6.01460       25.64090        0.02784
60.00000        8.44364       29.40173       65.92635        6.83211        7.69343       26.06052        0.02418
60.50000        8.50909       29.83215       51.54544        9.27007       10.45255       26.70027        0.03883
61.00000        8.76127       29.86990       44.72726       10.80291       11.24087       26.70325        0.04982
61.50000        8.97164       29.84634       37.48090       10.43795       10.83503       25.78418        0.06447
62.00000        9.18018       29.32050       34.90908        9.48905       10.48467       25.12660        0.07179
62.50000        9.17054       28.91178       35.81726        9.48905       10.42043       25.64009        0.06813
63.00000        9.16254       28.93469       36.54545        9.63503       10.55912       25.23850        0.04615
63.50000        9.15291       29.26521       36.54545        9.70802       10.65693       23.82448        0.03516
64.00000        9.14327       29.59572       37.47272        9.05109       10.43795       23.06314        0.03516
64.50000        9.13527       29.56008       39.76363        9.41605       10.36496       24.95631        0.03150
65.00000        9.12854       29.55794       40.77272        9.39124       10.75912       27.87782        0.02418
65.50000        9.13654       29.75854       39.62999        8.90511        9.79562       28.10074        0.02051
66.00000        9.14309       29.89307       36.60817        9.34306       10.41313       26.90081        0.01685
66.50000        9.15091       29.89605       33.98181        9.39562       10.87591       25.90050        0.01685
67.00000        9.15891       29.89903       34.09090        9.71532       11.43503       23.94596        0.02051
67.50000        9.16545       29.90145       37.36363        9.84525       11.35036       21.06022        0.01685
68.00000        9.17345       29.90443       37.90908        9.35912       10.85839       19.32982        0.00952
68.50000        9.18127       29.90741       37.15090        9.12408       10.36496       19.89382        0.00952
69.00000        9.18782       29.90983       35.87999        9.08321       10.36496       22.00436        0.00586
69.50000        9.19582       29.91281       33.87817        9.27883       10.36496       25.31928        0.00952
70.00000        9.20364       29.91579       33.70090        8.88029        9.78102       26.93724        0.01685
70.50000        9.21036       29.91858       34.63636        8.75912        9.05109       26.41690        0.01685
71.00000        9.21818       29.92156       36.27272        8.46715        8.90511       25.30387        0.00952
71.50000        9.16891       29.92454       36.98999        8.17518        8.90511       23.42509        0.00952
72.00000        9.12782       29.92696       36.68181        8.67153        9.78102       21.85900        0.00952
72.50000        9.07854       29.92994       36.37636        8.84671        9.78102       20.76410        0.02051
73.00000        9.02927       29.93292       37.32545        9.02189        9.91532       20.17806        0.03516
73.50000        8.98818       29.93534       39.42817        9.63503       10.58394       19.47474        0.03516
74.00000        8.96909       29.93832       41.18181       10.21897       11.38686       18.88833        0.03516
74.50000        8.98000       29.94130       41.67272        9.64671       10.35620       18.32224        0.02418
75.00000        8.98909       29.94409       43.15908        8.69197        9.49781       18.57261        0.00952
75.50000        9.00000       29.94707       46.05817        7.71678        8.46715       19.90695        0.01319
76.00000        8.90654       29.95005       52.68817        7.59124        6.55620       21.01896        0.04982
76.50000        8.70182       29.33290       59.94817        6.04963        4.96350       19.84685        0.10110
77.00000        8.41818       26.23857       65.99999        5.36934        5.06131       18.82055        0.13773
77.50000        8.40364       22.52522       67.40180        5.71241        5.06131       18.53625        0.13773
78.00000        8.39145       21.84000       68.26089        5.98540        4.97956       18.53740        0.10476
78.50000        8.47073       21.01774       69.81817        7.25109        5.69343       19.60716        0.10842
79.00000        8.73745       20.01634       71.68907        7.29927        5.51825       21.74552        0.13773
79.50000        8.79636       18.72016       72.79635        7.73722        6.17518       23.88387        0.14872
80.00000        8.88182       18.47556       73.58998        8.26277        6.54598       22.08540        0.12308
80.50000        8.94854       19.78684       73.55453        7.18978        6.50073       20.28730        0.11209
81.00000        8.87273       21.72758       71.42726        6.97810        6.46131       19.51371        0.08278
81.50000        8.78182       24.22385       70.22726        7.18248        6.44963       20.02099        0.06813
82.00000        8.59800       26.54592       72.45544        7.09489        6.60876       21.70555        0.05714
82.50000        8.44491       27.51320       78.79907        6.86131        6.50803       22.52316        0.06813
83.00000        8.26127       26.88710       85.25453        5.62044        5.26715       23.06025        0.07912
