~Version ---------------------------------------------------
VERS. 2.0 : CWLS LOG ASCII STANDARD - VERSION 2.0
WRAP. NO  : One line per depth step
DLM . SPACE : Column Data Section Delimiter
~Well ------------------------------------------------------
STRT.F           11 : START DEPTH
STOP.F       1399.0 : STOP DEPTH
STEP.F          0.5 : STEP
NULL.       -999.25 : NULL VALUE
COMP.                 WALSH & WATTS, INC. : COMPANY
WELL.                      HOWARD AB E 4E : WELL
FLD .             MONTAGUE COUNTY REGULAR : FIELD
CNTY.                            MONTAGUE : COUNTY
STAT.                                     : STATE
CTRY.                                 USA : COUNTRY
SEC .                                     : SECTION
TWP .                                     : TOWNSHIP
RGE .                                     : RANGE
LOC . 3250'FEL & 1590'FSL OF THE J.CHAMBLIS SURVEY A-123 : LOCATION
EKB .F                          : ELEVATION KELLY BUSHING
EDF .F                          : ELEVATION DERRICK FLOOR
EGL .F                          : ELEVATION GROUND LEVEL
PDAT.                        GL : PERMANENT DATUM
EPD .                           : ELEVATION PERMANENT DATUM
APD .                         8 : ABOVE PERMANENT DATUM
LMF .                        KB : LOG MEASURED FROM
DMF .                        KB : DRILLING MEASURED FROM
API .            42337348780000 : API NUMBER
UWI .                           : UWI NUMBER
DIGC.                     NthDS : DIGITIZING COMPANY
~Params ----------------------------------------------------
SRVC. PIONEER WIRELINE SERVICES : LOGGING COMPANY
LOG .                      DIFL : LOG
DATE.                2012-08-01 : RUN DATE
RUN .                         1 : RUN NUMBER
TDD .F                     1400 : TOTAL DEPTH DRILLER
TDL .F                     1396 : TOTAL DEPTH LOGGER
BOTL.F                     1394 : BOTTOM LOGGED INTERVAL
TOPL.F                       50 : TOP LOGGED INTERVAL
CSGS.IN                         : CASING SIZE
CSGD.F                          : CASING DRILLER
CSGL.F                          : CASING LOGGER
BS  .IN                   7.875 : BIT SIZE
MUD .                  CHEM-GEL : MUD TYPE
MUDD.                           : MUD DENSITY
MUDV.                           : MUD VISCOSITY
PH  .                           : MUD PH
FL  .                           : FLUID LOSS
MUDS.                  FLOWLINE : SOURCE OF SAMPLE
RM  .OHMM                   2.4 : MUD RESISTIVITY
RMT .DEGF                    73 : RM TEMPERATURE
RMF .OHMM                   1.8 : MUD FILTRATE RESISTIVITY
RMFT.DEGF                    73 : RMF TEMPERATURE
RMC .OHMM                   3.0 : MUD CAKE RESISTIVITY
RMCT.DEGF                    73 : RMC TEMPERATURE
RMFS.                      CALC : RMF SOURCE
RMCS.                      CALC : RMC SOURCE
RMBH.OHMM                   2.0 : MUD RESISTIVITY AT BHT
BHT .DEGF                    86 : BOTTOM HOLE TEMPERATURE
TIMC.           0200 2012-08-01 : TIME CIRCULATION STOPPED
TIML.           0430 2012-08-01 : TIME LOGGER ON BOTTOM
TMAX.DEGF                    86 : MAXIMUM RECORDED TEMPERATURE
UNIT.                       110 : EQUIPMENT NUMBER
BASE.                GRAHAM, TX : BASE LOCATION
ENG .                    WENDEL : RECORDED BY
WIT .           OVERBY/BURLESON : WITNESSED BY
~Curve Information -----------------------------------------
DEPT.F          :DEPTH
CILD.MMHO       :
GRR.GAPI        :
ILD.OHMM        :
ILM.OHMM        :
SFL.OHMM        :
SP.MV           :
~ASCII ------------------------------------------------------
# ...
492.50000      303.40395       30.03850        3.31879        3.60079        8.22279      130.58496
493.00000      304.40691       30.22649        3.31822        3.62878        8.33023      130.34162
493.50000      305.40988       28.84402        3.35540        3.65348        8.24187      129.43497
494.00000      302.42880       27.33806        3.39854        3.68189        8.07594      128.67431
494.50000      295.68281       26.79206        3.47180        3.69718        7.48112      129.19162
495.00000      287.05768       27.06155        3.61357        3.82930        6.99220      129.89493
495.50000      277.01821       29.90346        3.79481        4.01250        6.70652      130.95622
496.00000      266.26826       33.15886        3.98507        4.23258        6.63186      132.56083
496.50000      255.51831       38.12621        4.18495        4.46812        6.94046      134.56343
497.00000      243.81882       43.67005        4.43077        4.76935        7.23910      136.76802
497.50000      230.21364       50.52535        4.58189        5.08693        7.26768      139.16794
498.00000      221.14131       55.11471        4.64280        5.25967        6.98246      140.55390
498.50000      215.67021       54.96070        4.71387        5.34772        6.79696      141.14854
499.00000      211.85913       48.89087        4.77624        5.39856        6.88366      141.23586
499.50000      211.86608       43.28052        4.70744        5.32995        7.31130      141.04118
500.00000      214.13945       37.73443        4.60074        5.13362        7.72725      141.46951
500.50000      217.57079       35.92248        4.51614        4.98203        8.27405      143.05346
501.00000      222.52777       36.00397        4.42268        4.82652        8.47317      145.99670
501.50000      233.19657       36.72594        4.34936        4.70879        8.60955      151.02321
502.00000      236.66788       37.55541        4.27952        4.57779        8.41812      152.45983
502.50000      237.87405       39.88933        4.23655        4.51324        7.98158      153.45179
503.00000      235.88237       41.93277        4.25955        4.54331        7.55577      151.98715
503.50000      233.29776       43.32222        4.31785        4.58632        7.04710      147.56327
504.00000      230.42001       44.11019        4.38547        4.63561        6.80511      143.68270
504.50000      227.53560       44.19968        4.47258        4.67950        6.89557      140.60011
505.00000      222.25280       44.68766        4.65378        4.93829        6.99769      139.15681
505.50000      215.76415       45.47713        4.83857        5.19872        7.17034      138.90347
506.00000      209.27550       45.79911        5.20741        5.52406        7.41991      139.82277
506.50000      197.55470       45.25462        5.55314        5.82539        7.92305      140.87340
507.00000      179.97351       44.04265        5.97645        6.21965        8.52092      142.01136
507.50000      170.98654       43.23216        6.26467        6.63258        9.54071      143.64330
508.00000      161.99957       44.55412        6.56665        7.07293       10.59789      145.49590
508.50000      155.34436       49.30948        6.52150        7.40478       11.86260      148.50114
509.00000      158.20942       59.93267        6.30013        7.41276       12.24539      152.04970
509.50000      161.06781       74.44575        6.20671        6.77346        9.27149      156.20090
510.00000      164.42586       93.97669        6.11906        6.11906        6.93137      160.94209
510.50000      168.03042      112.36566        6.04352        5.61449        5.22521      165.09330
511.00000      168.03740      117.15502        6.12536        5.59633        4.52859      168.33853
511.50000      166.71194      114.30309        6.19816        5.94340        4.41812      170.13780
512.00000      164.72026      105.33134        6.32503        6.51290        5.04560      170.44178
512.50000      161.72925       97.12106        6.61381        7.00308        5.96267      169.16114
513.00000      156.95944       88.48130        6.94256        7.44606        7.05421      166.94520
513.50000      149.63802       85.49738        7.30272        7.91253        7.87281      164.26460
514.00000      142.31659       86.95283        7.96639        8.28395        7.95662      162.11531
514.50000      133.77599       88.80877        8.39407        8.66889        7.63623      160.81867
515.00000      122.79036       88.53027        8.24781        8.73326        7.28540      159.33604
515.50000      125.99518       86.19833        7.81627        8.40838        6.90930      157.63674
516.00000      131.79826       83.29590        7.36440        8.02159        6.68419      155.62079
516.50000      146.46437       80.42997        6.86146        7.44218        6.61343      153.60483
517.00000      154.70580       78.11803        6.40464        6.96948        6.63954      151.84154
517.50000      161.56150       76.80756        6.07562        6.58337        6.82943      149.95892
518.00000      168.40388       77.75553        5.74009        6.28618        7.00711      148.37962
518.50000      175.20629       78.38500        5.71884        6.07032        7.18000      146.57433
519.00000      177.92477       74.49910        5.70314        6.12427        7.38490      144.99236
519.50000      178.15160       62.11145        5.70229        6.31646        7.84561      143.40306
520.00000      176.49303       47.17186        5.76711        6.50975        8.56124      142.20242
520.50000      174.00169       35.33819        5.83244        6.59440        9.48638      142.34641
521.00000      171.51035       31.72778        5.99765        6.69232        9.87092      143.61236
521.50000      168.85245       30.51581        6.12731        6.78060        9.71898      148.07622
522.00000      167.36044       30.96329        6.07162        6.87763        9.23556      154.40870
522.50000      167.98033       31.42327        6.00440        6.89039        8.34124      161.57316
523.00000      169.65286       31.82475        5.91996        6.82624        7.70574      170.74622
523.50000      173.76374       32.53672        5.84365        6.66367        7.12899      176.58538
524.00000      179.10046       33.26019        5.60972        6.40595        7.00650      179.77128
524.50000      187.71498       34.84814        5.29126        6.09517        6.85099      179.84593
525.00000      197.96840       35.83761        4.93625        5.61411        6.45241      177.65332
525.50000      208.21515       35.40961        4.59979        5.20679        5.95679      173.67742
526.00000      233.85155       33.89115        4.19176        4.77735        5.52958      168.43489
526.50000      259.48795       32.30318        3.87716        4.32649        5.28559      163.84768
527.00000      293.67425       31.65869        3.54648        3.82123        4.85470      158.88781
527.50000      319.31065       31.78068        3.02304        3.43585        4.58276      155.25257
528.00000      344.94705       32.54215        2.79077        3.09212        4.28237      153.04995
528.50000      372.51548       33.55812        2.57636        2.81979        4.05715      152.13530
529.00000      401.04327       33.54761        2.37846        2.57455        4.32961      151.33465
529.50000      429.57772       33.33561        2.26414        2.40742        4.84580      150.71599
530.00000      461.61214       33.28110        2.16862        2.32889        5.82424      150.64865
530.50000      472.11206       32.91311        2.09848        2.25647        6.95757      151.48595
531.00000      482.61197       31.85263        2.08635        2.23204        7.39677      152.40524
531.50000      479.00804       30.54066        2.12475        2.25575        7.26684      153.85586
532.00000      468.35553       29.24619        2.16962        2.30437        6.72639      156.43644
