~Version ---------------------------------------------------
VERS. 2.0 : CWLS LOG ASCII STANDARD - VERSION 2.0
WRAP. NO  : One line per depth step
DLM . SPACE : Column Data Section Delimiter
~Well ------------------------------------------------------
STRT.F           11 : START DEPTH
STOP.F       1368.0 : STOP DEPTH
STEP.F          0.5 : STEP
NULL.       -999.25 : NULL VALUE
COMP.                 WALSH & WATTS, INC. : COMPANY
WELL.                      HOWARD AB E 4E : WELL
FLD .             MONTAGUE COUNTY REGULAR : FIELD
CNTY.                            MONTAGUE : COUNTY
STAT.                                     : STATE
CTRY.                                 USA : COUNTRY
SEC .                                     : SECTION
TWP .                                     : TOWNSHIP
RGE .                                     : RANGE
LOC . 3250'FEL & 1590'FSL OF THE J.CHAMBLIS SURVEY A-123 : LOCATION
EKB .F                          : ELEVATION KELLY BUSHING
EDF .F                          : ELEVATION DERRICK FLOOR
EGL .F                          : ELEVATION GROUND LEVEL
PDAT.                        GL : PERMANENT DATUM
EPD .                           : ELEVATION PERMANENT DATUM
APD .                         8 : ABOVE PERMANENT DATUM
LMF .                        KB : LOG MEASURED FROM
DMF .                        KB : DRILLING MEASURED FROM
API .            42337348780000 : API NUMBER
UWI .                           : UWI NUMBER
DIGC.                     NthDS : DIGITIZING COMPANY
~Params ----------------------------------------------------
SRVC. PIONEER WIRELINE SERVICES : LOGGING COMPANY
LOG .                      CNFD : LOG
DATE.                2012-08-01 : RUN DATE
RUN .                         1 : RUN NUMBER
TDD .F                     1400 : TOTAL DEPTH DRILLER
TDL .F                     1396 : TOTAL DEPTH LOGGER
BOTL.F                     1368 : BOTTOM LOGGED INTERVAL
TOPL.F                       50 : TOP LOGGED INTERVAL
CSGS.IN                         : CASING SIZE
CSGD.F                          : CASING DRILLER
CSGL.F                          : CASING LOGGER
BS  .IN                   7.875 : BIT SIZE
MUD .                  CHEM-GEL : MUD TYPE
MUDD.                           : MUD DENSITY
MUDV.                           : MUD VISCOSITY
PH  .                           : MUD PH
FL  .                           : FLUID LOSS
MUDS.                  FLOWLINE : SOURCE OF SAMPLE
RM  .OHMM                   2.4 : MUD RESISTIVITY
RMT .DEGF                    73 : RM TEMPERATURE
RMF .OHMM                   1.8 : MUD FILTRATE RESISTIVITY
RMFT.DEGF                    73 : RMF TEMPERATURE
RMC .OHMM                   3.0 : MUD CAKE RESISTIVITY
RMCT.DEGF                    73 : RMC TEMPERATURE
RMFS.                      CALC : RMF SOURCE
RMCS.                      CALC : RMC SOURCE
RMBH.OHMM                   2.0 : MUD RESISTIVITY AT BHT
BHT .DEGF                    86 : BOTTOM HOLE TEMPERATURE
TIMC.           0200 2012-08-01 : TIME CIRCULATION STOPPED
TIML.           0430 2012-08-01 : TIME LOGGER ON BOTTOM
TMAX.DEGF                    86 : MAXIMUM RECORDED TEMPERATURE
UNIT.                       110 : EQUIPMENT NUMBER
BASE.                GRAHAM, TX : BASE LOCATION
ENG .                    WENDEL : RECORDED BY
WIT .           OVERBY/BURLESON : WITNESSED BY
~Curve Information -----------------------------------------
DEPT.F          :DEPTH
CALD.IN         :
DPHI.V/V        :
GRD.GAPI        :
NPHI.%          :
PEC.B/E         :
RLML.OHMM       :
RNML.OHMM       :
ZCOR.G/C3       :
~ASCII ------------------------------------------------------
# ...
632.00000        7.77956        0.19463       82.04418       19.86816        2.72398        7.50902       11.91335        0.08390
632.50000        7.92449        0.18846       85.91158       19.78571        2.72901        7.67148       13.37906        0.08321
633.00000        8.04530        0.18828       98.89501       20.18054        2.84292        4.94585        5.83393        0.08260
633.50000        8.11786        0.19050      116.02207       22.35518        2.95718        3.24910        2.96029        0.08191
634.00000        8.11786        0.18829      125.41434       25.37954        3.03694        3.42960        2.46931        0.08134
634.50000        8.06261        0.18424      130.93920       27.89996        3.00836        2.68375        2.33791        0.07632
635.00000        8.06261        0.17688      133.42538       29.95349        2.97420        2.96029        2.64404        0.06491
635.50000        8.08103        0.17633      135.08284       29.97845        2.94561        3.81227        2.59928        0.05123
636.00000        8.08103        0.18223      134.53036       30.01571        2.91145        3.18628        2.47870        0.03982
636.50000        8.06261        0.19144      133.14914       29.95462        2.94366        3.24043        2.81588        0.03455
637.00000        8.08103        0.19679      132.87290       29.12625        3.03112        3.62021        2.81588        0.03393
637.50000        8.06261        0.19569      134.25411       28.29787        3.15015        3.95307        3.32130        0.05971
638.00000        8.04420        0.18552      135.63533       27.67834        3.30646        3.61011        3.06859        0.08859
638.50000        8.00737        0.17558      136.18781       28.04635        3.39875        3.06859        2.38989        0.12058
639.00000        7.95212        0.17205      136.74030       28.81171        3.32503        3.10469        2.28159        0.13357
639.50000        7.93370        0.17936      138.39776       29.73036        3.26348        3.24910        2.81588        0.11397
640.00000        7.95212        0.19845      140.05522       29.88357        3.16045        3.01805        2.84476        0.07935
640.50000        7.95212        0.21256      138.95024       29.88400        3.07472        3.07725        2.67148        0.04386
641.00000        8.04420        0.21317      135.35909       29.88435        3.00906        3.75451        2.52707        0.03935
641.50000        8.06261        0.20297      130.38671       29.88477        3.01637        3.39350        2.00722        0.06643
642.00000        8.08103        0.18729      128.17677       29.88513        3.02580        3.24910        2.04549        0.10253
642.50000        8.04420        0.18320      126.24307       29.99612        3.03311        3.70036        2.63827        0.13231
643.00000        7.97053        0.18446      121.54693       29.39235        3.01763        3.24910        2.41588        0.14585
643.50000        7.63904        0.18844      104.41987       28.63764        2.90149        3.00144        2.31047        0.15487
644.00000        7.49171        0.19230       88.39777       26.38761        2.76221        3.28520        4.55812        0.15036
644.50000        7.38122        0.20298       62.43093       24.28852        2.64607       13.86281       17.17544        0.12780
645.00000        7.38122        0.23564       49.99999       20.66089        2.39799       15.18050       19.33573        0.10614
645.50000        7.38122        0.27077       44.75137       16.94751        2.18699        8.26714       14.33646        0.06115
646.00000        7.39963        0.29925       47.51380       16.51803        2.13158        7.59927       10.51768        0.02365
646.50000        7.39963        0.29925       51.93369       17.65510        2.08541        8.51985       11.33574        0.00000
647.00000        7.39963        0.29926       63.81214       19.76005        2.22239        7.34657       11.11913        0.02069
647.50000        7.39963        0.29963       80.93921       22.38625        2.38676        7.69964       15.49458        0.05498
648.00000        7.49171        0.27600      101.65744       23.54388        2.52374        5.40216       10.07220        0.06892
648.50000        7.82320        0.25237      112.43091       24.93362        2.68445        3.04693        3.37906        0.07393
649.00000        7.89687        0.23159      117.40329       26.09161        2.81227        2.88809        2.98411        0.07643
649.50000        7.93370        0.20895      118.78450       26.96276        2.96566        5.19855        4.04332        0.07141
650.00000        7.93370        0.19273      119.88948       26.78638        3.06226        3.97112        3.52202        0.06726
650.50000        7.97053        0.18145      125.13809       26.64868        3.03982        2.88809        2.69242        0.08087
651.00000        7.97053        0.16792      127.90052       26.64903        2.94787        2.88809        2.38267        0.08953
651.50000        7.95212        0.15796      129.55798       26.48740        2.83752        3.12852        2.54296        0.09487
652.00000        7.97053        0.15095      130.93920       25.84945        2.78658        3.05632        2.64115        0.09217
652.50000        7.95212        0.14937      133.14914       24.66461        2.79931        2.81588        2.56606        0.08989
653.00000        7.95212        0.15191      135.63533       23.92500        2.81028        2.81588        2.47581        0.08541
653.50000        7.95212        0.15491      136.18781       23.48343        2.82301        2.85198        2.40072        0.07877
654.00000        7.97053        0.15814      135.08284       22.67348        2.83361        2.88809        2.31047        0.07079
654.50000        7.97053        0.16084      135.63533       21.56893        2.84671        2.88809        2.50758        0.06415
655.00000        7.97053        0.16339      138.39776       21.14939        2.80156        3.21299        2.74368        0.05921
655.50000        7.97053        0.16413      139.77897       21.73766        2.71583        3.08087        2.71336        0.07480
656.00000        7.97053        0.16034      136.46406       22.98590        2.61280        3.10469        2.67726        0.09350
656.50000        7.98895        0.15609      130.38671       23.80989        2.62597        3.50180        2.85198        0.10910
657.00000        7.98895        0.15100      121.27069       24.21540        2.67203        3.97834        3.04837        0.12780
657.50000        7.97974        0.14868      114.91710       24.61914        2.71011        3.65343        3.08881        0.13007
658.00000        8.00055        0.15076      111.32594       24.72447        2.74042        4.29603        5.06859        0.12870
658.50000        8.15009        0.15746      112.98340       24.22065        2.74003        7.41877       12.59927        0.12419
659.00000        8.32965        0.16453      119.61323       23.60149        2.73957        3.28520        3.17689        0.11877
659.50000        8.41952        0.16401      125.96682       24.05200        2.73919        3.21299        2.73574        0.11913
660.00000        8.23996        0.15584      128.72925       25.42215        2.73873        3.53790        2.67148        0.13812
660.50000        8.03941        0.14627      125.96682       27.06640        2.75373        3.53790        3.22310        0.16004
661.00000        7.78343        0.14171      118.78450       26.60053        2.77159        3.35235        3.06498        0.18014
661.50000        7.57017        0.14705      110.22097       25.33348        2.68769        4.24188        3.06859        0.17112
662.00000        7.39116        0.16805       98.34252       24.06644        2.55719        4.72924        5.14873        0.15278
662.50000        7.36980        0.19807       91.43644       22.94163        2.44875        5.34296        7.12057        0.12502
