~Version ---------------------------------------------------
VERS. 2.0 : CWLS LOG ASCII STANDARD - VERSION 2.0
WRAP. NO  : One line per depth step
DLM . SPACE : Column Data Section Delimiter
~Well ------------------------------------------------------
STRT.F           11 : START DEPTH
STOP.F       1368.0 : STOP DEPTH
STEP.F          0.5 : STEP
NULL.       -999.25 : NULL VALUE
COMP.                 WALSH & WATTS, INC. : COMPANY
WELL.                      HOWARD AB E 4E : WELL
FLD .             MONTAGUE COUNTY REGULAR : FIELD
CNTY.                            MONTAGUE : COUNTY
STAT.                                     : STATE
CTRY.                                 USA : COUNTRY
SEC .                                     : SECTION
TWP .                                     : TOWNSHIP
RGE .                                     : RANGE
LOC . 3250'FEL & 1590'FSL OF THE J.CHAMBLIS SURVEY A-123 : LOCATION
EKB .F                          : ELEVATION KELLY BUSHING
EDF .F                          : ELEVATION DERRICK FLOOR
EGL .F                          : ELEVATION GROUND LEVEL
PDAT.                        GL : PERMANENT DATUM
EPD .                           : ELEVATION PERMANENT DATUM
APD .                         8 : ABOVE PERMANENT DATUM
LMF .                        KB : LOG MEASURED FROM
DMF .                        KB : DRILLING MEASURED FROM
API .            42337348780000 : API NUMBER
UWI .                           : UWI NUMBER
DIGC.                     NthDS : DIGITIZING COMPANY
~Params ----------------------------------------------------
SRVC. PIONEER WIRELINE SERVICES : LOGGING COMPANY
LOG .                      CNFD : LOG
DATE.                2012-08-01 : RUN DATE
RUN .                         1 : RUN NUMBER
TDD .F                     1400 : TOTAL DEPTH DRILLER
TDL .F                     1396 : TOTAL DEPTH LOGGER
BOTL.F                     1368 : BOTTOM LOGGED INTERVAL
TOPL.F                       50 : TOP LOGGED INTERVAL
CSGS.IN                         : CASING SIZE
CSGD.F                          : CASING DRILLER
CSGL.F                          : CASING LOGGER
BS  .IN                   7.875 : BIT SIZE
MUD .                  CHEM-GEL : MUD TYPE
MUDD.                           : MUD DENSITY
MUDV.                           : MUD VISCOSITY
PH  .                           : MUD PH
FL  .                           : FLUID LOSS
MUDS.                  FLOWLINE : SOURCE OF SAMPLE
RM  .OHMM                   2.4 : MUD RESISTIVITY
RMT .DEGF                    73 : RM TEMPERATURE
RMF .OHMM                   1.8 : MUD FILTRATE RESISTIVITY
RMFT.DEGF                    73 : RMF TEMPERATURE
RMC .OHMM                   3.0 : MUD CAKE RESISTIVITY
RMCT.DEGF                    73 : RMC TEMPERATURE
RMFS.                      CALC : RMF SOURCE
RMCS.                      CALC : RMC SOURCE
RMBH.OHMM                   2.0 : MUD RESISTIVITY AT BHT
BHT .DEGF                    86 : BOTTOM HOLE TEMPERATURE
TIMC.           0200 2012-08-01 : TIME CIRCULATION STOPPED
TIML.           0430 2012-08-01 : TIME LOGGER ON BOTTOM
TMAX.DEGF                    86 : MAXIMUM RECORDED TEMPERATURE
UNIT.                       110 : EQUIPMENT NUMBER
BASE.                GRAHAM, TX : BASE LOCATION
ENG .                    WENDEL : RECORDED BY
WIT .           OVERBY/BURLESON : WITNESSED BY
~Curve Information -----------------------------------------
DEPT.F          :DEPTH
CALD.IN         :
DPHI.V/V        :
GRD.GAPI        :
NPHI.%          :
PEC.B/E         :
RLML.OHMM       :
RNML.OHMM       :
ZCOR.G/C3       :
~ASCII ------------------------------------------------------
# ...
818.00000        7.77882        0.30009       38.12154       21.75154        2.10935        6.93140       15.37905        0.04993
818.50000        7.78066        0.30010       37.56905       21.21157        2.08141        5.55956        9.65415        0.04740
819.00000        7.78269        0.30011       37.01657       21.91181        2.05832        6.77256        8.56823        0.04051
819.50000        7.78435        0.30012       39.50275       22.83304        2.04541        7.43682        8.73646        0.03476
820.00000        7.78637        0.30014       48.61877       22.91221        2.09704        7.56029       10.30685        0.02787
820.50000        7.87072        0.30014       63.81214       22.61687        2.25225        7.58122       10.75812        0.04274
821.00000        7.97201        0.30016       87.84528       22.20802        2.39692        2.62310        4.47653        0.07004
821.50000        8.34494        0.30017      109.66848       22.70568        2.57046        2.38267        2.03610        0.10614
822.00000        8.55985        0.29546      130.93920       23.70051        2.71513        2.53718        1.84115        0.14119
822.50000        8.57827        0.27186      139.77897       25.08214        2.80148        2.66642        2.02166        0.15668
823.00000        8.43444        0.24355      143.64638       24.47484        2.80110        2.62022        2.23827        0.14801
823.50000        8.17551        0.22265      140.60770       23.46230        2.72445        2.47292        2.13502        0.13563
824.00000        7.86464        0.21483      130.66295       22.11201        2.64751        2.92419        2.28664        0.09592
824.50000        7.60221        0.20958      120.44196       20.49181        2.51078        3.32130        2.52707        0.06282
825.00000        7.35359        0.20047      111.87843       19.09254        2.37816        3.17689        2.76751        0.05765
825.50000        7.18785        0.18114      110.77346       17.60751        2.21910        3.24910        2.83971        0.06523
826.00000        7.04972        0.17076      115.19334       17.23954        2.17073        2.88809        2.53935        0.07726
826.50000        6.91271        0.16393      119.88948       17.71363        2.26441        2.69892        2.20722        0.07726
827.00000        6.81031        0.16872      119.33699       18.46065        2.34241        2.74368        2.05271        0.06949
827.50000        6.82726        0.17701      113.53589       18.68715        2.43609        2.62310        2.30253        0.04614
828.00000        6.84144        0.18582      107.18230       18.16529        2.42179        2.77978        2.51913        0.02671
828.50000        6.89632        0.18678      101.38119       17.47467        2.33085        2.56318        2.47076        0.03004
829.00000        7.08269        0.17721       97.79003       16.74213        2.25537        2.62310        2.61444        0.03560
829.50000        7.40626        0.16800       96.68506       17.05814        2.29740        2.78700        2.93357        0.04224
830.00000        7.67587        0.16469       98.34252       17.81620        2.44354        3.00072        3.20000        0.04765
830.50000        7.67587        0.16879      102.48616       20.31865        2.61890        3.24115        3.70036        0.04682
831.00000        7.65746        0.17570      105.52484       22.69469        2.64782        3.79061        6.02888        0.03393
831.50000        7.63904        0.17450      110.77346       23.33231        2.51220        4.38195        5.99278        0.04184
832.00000        7.62063        0.16716      115.46959       22.98276        2.39900        3.38267        4.13357        0.04975
832.50000        7.60221        0.16398      120.44196       23.49147        2.39524        2.41877        2.94224        0.05921
833.00000        7.63904        0.16575      122.92815       24.46427        2.44650        3.46570        2.74368        0.05921
833.50000        7.80479        0.16693      124.58561       24.47199        2.50575        2.90902        2.64260        0.05679
834.00000        7.82320        0.16015      125.41434       23.70372        2.53540        2.74368        2.38989        0.05480
834.50000        7.80479        0.15262      126.24307       23.07498        2.53494        3.30325        2.96823        0.05238
835.00000        7.73112        0.14634      125.41434       21.80469        2.51771        3.07725        2.80794        0.05040
835.50000        7.73112        0.13981      122.37566       20.74611        2.46633        3.27292        2.98772        0.04798
836.00000        7.73112        0.13932      118.50826       19.11523        2.42383        3.65848        3.29386        0.04596
836.50000        7.69429        0.14633      113.53589       18.90527        2.48600        3.90902        3.57401        0.04357
837.00000        7.62063        0.15823      108.28727       18.98268        2.53800        4.36823        3.93502        0.04155
837.50000        7.54696        0.17252      101.93368       19.26774        2.54157        4.37545        3.51408        0.03798
838.00000        7.52854        0.18283       97.51379       19.43281        2.49540        4.52780        3.89097        0.03321
838.50000        7.54696        0.18978       95.02760       19.27515        2.43999        4.81660        4.69314        0.02928
839.00000        7.54696        0.20021       94.19887       18.66158        2.39382        4.83754        4.50758        0.02451
839.50000        7.52854        0.21240       90.88396       18.19564        2.39739        5.68953        5.34296        0.02054
840.00000        7.54696        0.22704       85.91158       18.21448        2.40983        6.55595        4.96101        0.01581
840.50000        7.54696        0.24167       78.72926       19.05866        2.38336        6.80144        7.38556        0.01184
841.00000        7.52854        0.25539       73.75689       19.97695        2.29140        7.14801       10.29386        0.00866
841.50000        7.52854        0.27307       67.40330       19.51844        2.18105        6.78700        7.60505        0.00866
842.00000        7.54696        0.29075       62.70717       19.13610        2.13122        7.14801        7.96606        0.00866
842.50000        7.54696        0.29929       58.01104       19.19804        2.14797        7.19639        7.36462        0.00866
843.00000        7.52854        0.29966       55.52485       19.46616        2.16151        6.68592        8.08664        0.01610
843.50000        7.49171        0.29997       56.35358       20.16309        2.17790        6.67870        7.65343        0.02354
844.00000        7.51013        0.29724       58.28728       20.02016        2.19180        6.98556        7.22021        0.03245
844.50000        7.45488        0.28541       59.39225       19.84858        2.23346        6.32996        5.77617        0.05318
845.00000        7.45488        0.26199       58.83977       19.70602        2.27887        5.89675        5.45126        0.08206
845.50000        7.45488        0.24342       55.52485       19.62800        2.33335        6.13718        6.29603        0.10614
846.00000        7.43646        0.22393       51.65745       19.59674        2.34213        5.76967        6.57834        0.09964
846.50000        7.43646        0.21933       46.13259       19.46561        2.28159        4.91624        6.13718        0.08917
847.00000        7.47330        0.24421       41.98894       18.80305        2.20648        5.61733        7.76173        0.05235
847.50000        7.52854        0.27703       38.67402       18.51279        2.11591        5.77617       10.13718        0.03249
848.00000        7.54696        0.29966       38.67402       18.38946        2.04081        7.26137       11.09025        0.02816
848.50000        7.51013        0.29976       40.60773       18.91947        2.01031        8.23104       10.75812        0.02455
