~Version ---------------------------------------------------
VERS. 2.0 : CWLS LOG ASCII STANDARD - VERSION 2.0
WRAP. NO  : One line per depth step
DLM . SPACE : Column Data Section Delimiter
~Well ------------------------------------------------------
STRT.F           48 : START DEPTH
STOP.F       1439.0 : STOP DEPTH
STEP.F          0.5 : STEP
NULL.       -999.25 : NULL VALUE
COMP.                 WALSH & WATTS, INC. : COMPANY
WELL.                         HOWARD F 14 : WELL
FLD .             MONTAGUE COUNTY REGULAR : FIELD
CNTY.                            MONTAGUE : COUNTY
STAT.                               TEXAS : STATE
CTRY.                                 USA : COUNTRY
SEC .                                     : SECTION
TWP .                                     : TOWNSHIP
RGE .                                     : RANGE
LOC . 1430'FEL & 2600'FSL OF THE J.CHAMBLIS SURVEY A-123 : LOCATION
EKB .F                      849 : ELEVATION KELLY BUSHING
EDF .F                      848 : ELEVATION DERRICK FLOOR
EGL .F                      841 : ELEVATION GROUND LEVEL
PDAT.                        GL : PERMANENT DATUM
EPD .                       841 : ELEVATION PERMANENT DATUM
APD .                         8 : ABOVE PERMANENT DATUM
LMF .                        KB : LOG MEASURED FROM
DMF .                        KB : DRILLING MEASURED FROM
API .            42337351020000 : API NUMBER
UWI .                           : UWI NUMBER
DIGC.                     NthDS : DIGITIZING COMPANY
~Params ----------------------------------------------------
SRVC.                   PIONEER : LOGGING COMPANY
LOG .                      CNFD : LOG
DATE.                2013-08-01 : RUN DATE
RUN .                         1 : RUN NUMBER
TDD .F                     1450 : TOTAL DEPTH DRILLER
TDL .F                     1449 : TOTAL DEPTH LOGGER
BOTL.F                     1429 : BOTTOM LOGGED INTERVAL
TOPL.F                       50 : TOP LOGGED INTERVAL
CSGS.IN                         : CASING SIZE
CSGD.F                          : CASING DRILLER
CSGL.F                          : CASING LOGGER
BS  .IN                   7.875 : BIT SIZE
MUD .                       GEL : MUD TYPE
MUDD.                       9.2 : MUD DENSITY
MUDV.                        75 : MUD VISCOSITY
PH  .                           : MUD PH
FL  .                           : FLUID LOSS
MUDS.                  FLOWLINE : SOURCE OF SAMPLE
RM  .OHMM                   2.8 : MUD RESISTIVITY
RMT .DEGF                    72 : RM TEMPERATURE
RMF .OHMM                   2.1 : MUD FILTRATE RESISTIVITY
RMFT.DEGF                    72 : RMF TEMPERATURE
RMC .OHMM                   3.5 : MUD CAKE RESISTIVITY
RMCT.DEGF                    72 : RMC TEMPERATURE
RMFS.                      CALC : RMF SOURCE
RMCS.                      CALC : RMC SOURCE
RMBH.OHMM                   2.3 : MUD RESISTIVITY AT BHT
BHT .DEGF                    87 : BOTTOM HOLE TEMPERATURE
TIMC.           0130 2018-08-01 : TIME CIRCULATION STOPPED
TIML.           0400 2018-08-01 : TIME LOGGER ON BOTTOM
TMAX.DEGF                    87 : MAXIMUM RECORDED TEMPERATURE
UNIT.                     C-052 : EQUIPMENT NUMBER
BASE.                GRAHAM, TX : BASE LOCATION
ENG .                    WENDEL : RECORDED BY
WIT .                  BURLESON : WITNESSED BY
~Curve Information -----------------------------------------
DEPT.F          :DEPTH
CALD.IN         :
DPHI.%          :
GRD.GAPI        :
MINV.OHMM       :
MNOR.OHMM       :
NPHI.%          :
RHOC.G/CC       :
~ASCII ------------------------------------------------------
# ...
153.50000        9.02194       25.88991      115.91211        5.50706        4.19028       27.57431        0.11250
154.00000        9.01383       28.15303      113.16488        6.43294        5.44244       27.12550        0.06115
154.50000        9.08598       29.96330      112.34525        6.28830        5.97808       24.29982        0.04215
155.00000        9.22943       29.96330      113.72644        4.00252        4.44631       20.55670        0.04732
155.50000        9.07020       29.27743      118.13613        2.56784        3.15177       20.71817        0.06391
156.00000        9.07513       25.84771      120.06776        2.77355        2.64217       23.48367        0.08637
156.50000        9.08103       21.73174      118.42245        3.27900        3.15418       27.35523        0.11440
157.00000        9.08596       19.22569      115.39999        3.95843        4.34164       28.34862        0.13686
157.50000        9.08599       17.24991      113.20423        4.18651        4.41570       28.93578        0.17171
158.00000        9.08358       16.61762      113.20927        4.41458        4.38977       28.44037        0.19001
158.50000        9.08068       16.01835      117.06851        2.72104        3.98016       26.95413        0.19007
159.00000        9.07808       15.83486      122.30287        3.36444        3.88999       25.88991        0.19013
159.50000        9.07518       16.32881      124.23552        3.40958        4.84022       25.74312        0.19018
160.00000        9.07276       16.82275      118.73601        3.77561        4.84129       25.65505        0.17080
160.50000        9.05574       17.27340      112.96229        3.98497        4.45869       23.36514        0.16596
161.00000        9.03571       17.37615      109.66460        3.89507        4.15247       21.45688        0.14657
161.50000        9.03464       17.34569      105.81747        3.28274        3.84624       20.12844        0.13933
162.00000        9.03369       17.43743      102.79501        2.71109        3.46291       19.82275        0.10653
162.50000        9.03245       17.83303      101.97538        2.90997        3.51215       19.51670        0.08105
163.00000        9.03150       18.52661      103.63179        3.33247        3.80838       19.18899        0.06651
163.50000        9.03043       19.10459      105.56444        3.67076        4.32039       20.72294        0.06293
164.00000        9.02949       19.79817      107.77130        4.11198        6.09179       23.10092        0.05204
164.50000        9.02824       20.06716      110.25440        4.70601        8.86657       25.04587        0.05208
165.00000        9.02729       20.39009      113.01172        8.70367        9.28761       27.10826        0.03025
165.50000        9.02623       20.66422      114.94436        8.24854       11.39961       27.65505        0.02666
166.00000        9.02528       21.13945      117.15123        8.30581        9.17515       28.11743        0.01377
166.50000        9.02403       21.73982      118.80864        9.80057       10.66991       27.90826        0.01119
167.00000        9.02308       22.23853      116.61187       10.21551       11.86513       26.45505        0.00845
167.50000        9.02238       22.17431      112.48951        7.69132        9.52050       25.45321        0.00799
168.00000        9.02364       21.26606      108.64137        5.29824        7.46392       25.25505        0.00754
168.50000        9.02496       20.38532      107.27128        6.75916        7.21171       24.58349        0.00695
169.00000        9.02621       19.44954      105.62496        6.30794        6.84808       22.86606        0.00649
169.50000        9.02753       19.33945      101.50260        5.37471        7.10244       22.14679        0.00590
170.00000        9.02904       20.20184       99.58105        6.79502        7.95486       24.31193        0.00544
170.50000        9.03011       21.23450      101.23847        7.93185        7.84426       26.11633        0.00536
171.00000        9.03161       22.19560      103.72056        6.98402        7.03511       26.13028        0.00542
171.50000        9.03287       22.07340      103.45139        5.00435        5.83208       24.21174        0.01277
172.00000        9.03419       20.36697       99.87847        4.50469        4.86965       22.21284        0.03108
172.50000        9.03544       18.94496       96.85703        4.76150        5.07975       22.22018        0.04575
173.00000        9.03676       18.51376       95.48593        4.84286        5.89395       24.20184        0.05675
173.50000        9.03801       19.45725       93.84062        5.63982        6.56463       25.16807        0.05680
174.00000        9.03952       20.20184       92.19430        6.70730        8.93794       23.40440        0.05322
174.50000        9.04059       20.72771       89.17285        7.03319        8.06311       21.65321        0.05327
175.00000        9.04209       21.52294       87.80176        6.11774        7.50459       20.83303        0.04603
175.50000        9.04316       23.91340       89.73440        6.03560        6.50786       21.41908        0.04245
176.00000        9.04467       25.08771       92.21649        4.88950        6.79168       22.29358        0.04251
176.50000        9.04592       25.49358       95.52527        5.41247        6.15772       23.42312        0.04623
177.00000        9.04724       24.14936       98.28259        6.45102        6.73569       23.38239        0.07183
177.50000        9.04923       21.69578      102.96751        6.59808        6.94114       22.70716        0.13028
178.00000        9.05220       19.65138      105.72483        6.21594        7.14659       21.62312        0.16318
178.50000        9.05474       19.78899      104.62997        4.50561        6.27202       20.55046        0.15958
179.00000        9.05771       21.19633      101.60751        4.33880        4.74025       20.18569        0.15235
179.50000        9.06007       23.84881       98.03561        4.94597        5.22845       20.35670        0.11956
180.00000        9.06304       26.05945       99.41679        4.74266        5.54558       21.65321        0.11597
180.50000        9.06558       28.71193      106.02830        3.57586        6.86051       23.55450        0.11968
181.00000        9.06855       30.03670      113.19027       10.08591       10.64795       24.56881        0.11244
181.50000        9.10925       30.03670      115.39713       11.79745       12.04563       24.03046        0.10520
182.00000        9.16966       30.03670      114.57750        9.87518       12.63063       22.99083        0.08335
182.50000        9.16541       30.03670      114.03209        7.17554        7.74123       22.41431        0.09437
183.00000        9.14379       30.03670      115.41428        5.68419        5.73528       22.69101        0.12362
183.50000        9.14413       27.52477      116.52023        5.40789        4.94074       24.13284        0.18574
184.00000        9.14453       24.50532      115.42538        4.92210        4.38707       25.99083        0.17849
184.50000        9.14487       21.26275      113.50383        4.71687        3.65848       27.35780        0.17124
185.00000        9.14527       20.14496      111.30806        4.95516        5.58654       27.04220        0.16401
185.50000        9.14561       18.76330      110.76265        9.64625       10.59515       25.34385        0.13486
186.00000        9.14601       17.44220      111.31916       10.03637        9.35535       23.60587        0.10208
186.50000        9.14635       16.38532      112.97557       11.91141       10.97273       21.52073        0.10214
187.00000        9.14675       16.97248      115.18344       11.06577       11.47453       20.75963        0.11314
187.50000        9.14709       18.66055      114.91326        8.26394        8.26394       21.40367        0.11321
188.00000        9.14749       20.75229      113.26794        7.75434        7.20252       22.96734        0.11691
