~Version ---------------------------------------------------
VERS. 2.0 : CWLS LOG ASCII STANDARD - VERSION 2.0
WRAP. NO  : One line per depth step
DLM . SPACE : Column Data Section Delimiter
~Well ------------------------------------------------------
STRT.F         48.5 : START DEPTH
STOP.F       1455.5 : STOP DEPTH
STEP.F          0.5 : STEP
NULL.       -999.25 : NULL VALUE
COMP.                 WALSH & WATTS, INC. : COMPANY
WELL.                         HOWARD F 25 : WELL
FLD .                            MONTAGUE : FIELD
CNTY.                            MONTAGUE : COUNTY
STAT.                               TEXAS : STATE
CTRY.                                 USA : COUNTRY
SEC .                                     : SECTION
TWP .                                     : TOWNSHIP
RGE .                                     : RANGE
LOC . 1115'FEL & 2300'FSL OF THE J.CHAMBLIS SURVEY A-123 : LOCATION
EKB .F                      512 : ELEVATION KELLY BUSHING
EDF .F                      511 : ELEVATION DERRICK FLOOR
EGL .F                      505 : ELEVATION GROUND LEVEL
PDAT.                        GL : PERMANENT DATUM
EPD .                       505 : ELEVATION PERMANENT DATUM
APD .                         7 : ABOVE PERMANENT DATUM
LMF .                        KB : LOG MEASURED FROM
DMF .                        KB : DRILLING MEASURED FROM
API .            42337343120000 : API NUMBER
UWI .                           : UWI NUMBER
DIGC.                     NthDS : DIGITIZING COMPANY
~Params ----------------------------------------------------
SRVC. PIONEER WIRELINE SERVICES : LOGGING COMPANY
LOG .                      DIFL : LOG
DATE.                2010-10-07 : RUN DATE
RUN .                         1 : RUN NUMBER
TDD .F                     1450 : TOTAL DEPTH DRILLER
TDL .F                     1452 : TOTAL DEPTH LOGGER
BOTL.F                     1452 : BOTTOM LOGGED INTERVAL
TOPL.F                       50 : TOP LOGGED INTERVAL
CSGS.IN                         : CASING SIZE
CSGD.F                          : CASING DRILLER
CSGL.F                          : CASING LOGGER
BS  .IN                   7.875 : BIT SIZE
MUD .                  GEL-CHEM : MUD TYPE
MUDD.                           : MUD DENSITY
MUDV.                           : MUD VISCOSITY
PH  .                           : MUD PH
FL  .                           : FLUID LOSS
MUDS.                  FLOWLINE : SOURCE OF SAMPLE
RM  .OHMM                   4.0 : MUD RESISTIVITY
RMT .DEGF                    72 : RM TEMPERATURE
RMF .OHMM                   3.0 : MUD FILTRATE RESISTIVITY
RMFT.DEGF                    72 : RMF TEMPERATURE
RMC .OHMM                   5.0 : MUD CAKE RESISTIVITY
RMCT.DEGF                    72 : RMC TEMPERATURE
RMFS.                      CALC : RMF SOURCE
RMCS.                      CALC : RMC SOURCE
RMBH.OHMM                     3 : MUD RESISTIVITY AT BHT
BHT .DEGF                    88 : BOTTOM HOLE TEMPERATURE
TIMC.           0730 2010-10-07 : TIME CIRCULATION STOPPED
TIML.           1020 2010-10-07 : TIME LOGGER ON BOTTOM
TMAX.DEGF                    88 : MAXIMUM RECORDED TEMPERATURE
UNIT.                      M-19 : EQUIPMENT NUMBER
BASE.                GRAHAM, TX : BASE LOCATION
ENG .                    WENDEL : RECORDED BY
WIT .           WOMBLE/BURLESON : WITNESSED BY
~Curve Information -----------------------------------------
DEPT.F          :DEPTH
CILD.MMHO       :
GRR.GAPI        :
RILD.OHMM       :
RILM.OHMM       :
RSFL.OHMM       :
SP.MV           :
~ASCII ------------------------------------------------------
# ...
1049.50000     1000.86974       28.79341        0.63548        1.17625        6.66332      104.93599
1050.00000      999.79361       27.97074        0.59871        1.07143        6.68102      104.57036
1050.50000      999.78486       27.52293        0.57875        0.95598        6.03685      105.32108
1051.00000      999.78529       27.52293        0.56264        0.83585        5.14221      105.68805
1051.50000      999.77654       28.34862        0.54387        0.76353        4.12891      106.05502
1052.00000      999.77260       31.37614        0.53844        0.74572        3.73081      106.05502
1052.50000      999.76385       33.02752        0.53609        0.75968        4.12757      106.05502
1053.00000      999.76429       34.67889        0.55355        0.79226        4.76309      106.42199
1053.50000      999.75554       38.53210        0.56851        0.84245        3.85689      106.42199
1054.00000      999.75160       39.90825        0.61015        0.92614        2.94066      106.42199
1054.50000      999.74285       39.90825        0.64442        1.00216        3.07041      106.78897
1055.00000      999.74328       35.22935        0.65666        1.10013        4.41205      107.15594
1055.50000      999.73016       33.57797        0.67167        1.16785        6.07795      106.78897
1056.00000      999.73059       32.20183        0.68444        1.22041        6.55632      107.15594
1056.50000      999.72184       31.37614        0.68565        1.20780        6.78009      107.52291
1057.00000      999.71309       32.20183        0.67321        1.19204        7.07088      107.52291
1057.50000      999.70915       32.47706        0.66034        1.14339        7.37436      107.15594
1058.00000      999.70040       32.20183        0.64520        1.06859        7.06859      106.42199
1058.50000      999.70084       31.65137        0.63287        1.00999        6.60640      106.05502
1059.00000      999.68771       31.37614        0.62792        0.94392        5.44051      105.68805
1059.50000      999.68815       31.37614        0.62781        0.92628        4.48038      105.32108
1060.00000      999.67940       30.55045        0.62772        0.92330        4.22289      105.32108
1060.50000      999.67983       30.27522        0.62761        0.95885        4.67185      105.32108
1061.00000      999.66671       30.82568        0.63283        0.98952        5.12513      104.58713
1061.50000      999.66714       31.65137        0.64893        1.03719        4.95438      104.58713
1062.00000      999.65839       31.92660        0.66410        1.09548        5.12347      104.95410
1062.50000      999.65882       32.47706        0.67478        1.15730        5.96258      105.32108
1063.00000      999.64570       32.20183        0.68776        1.20054        6.93891      106.05502
1063.50000      999.64613       31.65137        0.68407        1.20037        7.17594      107.52291
1064.00000      999.63738       31.37614        0.67935        1.18897        7.42086      108.62383
1064.50000      999.63344       31.10091        0.66821        1.17000        8.00469      109.72475
1065.00000      999.62469       30.27522        0.64851        1.11206        8.34825      109.72475
1065.50000      999.61595       29.99999        0.62562        1.02194        7.93489      110.45869
1066.00000      999.61638       30.55045        0.61448        0.93914        6.58989      111.19264
1066.50000      999.60325       35.22935        0.62373        0.84859        4.78213      111.92658
1067.00000      999.60369       40.18348        0.63498        0.82955        2.95634      113.02750
1067.50000      999.59494       42.38531        0.64075        0.83532        1.57020      113.76144
1068.00000      999.59100       42.66054        0.64655        0.84695        1.76669      114.49539
1068.50000      999.58225       41.00917        0.67531        0.87714        2.64800      115.96328
1069.00000      999.58268       40.18348        0.70429        0.91476        3.13402      117.06419
1069.50000      999.57393       38.53210        0.75925        0.99433        3.08114      117.79814
1070.00000      999.56999       39.08256        0.81674        1.06591        2.97840      118.16511
1070.50000      999.56124       39.90825        0.89146        1.15873        3.00318      117.79814
1071.00000      999.56168       42.11008        0.92972        1.24215        3.89994      117.06419
1071.50000      981.03160       44.31192        0.97780        1.35020        4.85547      116.33025
1072.00000      928.24602       46.23852        1.02838        1.46764        4.22035      115.22933
1072.50000      893.05870       46.78898        1.07252        1.57331        2.46154      114.12841
1073.00000      891.84703       45.96329        1.10800        1.71030        3.74278      113.39447
1073.50000      896.86116       41.28439        1.10485        1.79352        8.11669      113.02750
1074.00000      908.10111       34.12843        1.10121        1.79577        8.97988      112.29355
1074.50000      924.97481       33.30274        1.09926        1.75020        7.12391      111.55961
1075.00000      936.21475       31.92660        1.09909        1.71859        5.59745      110.82566
1075.50000      947.46389       32.75229        1.08052        1.71005        5.59663      110.45869
1076.00000      964.32840       33.85320        1.05334        1.66905        6.56820      110.09172
1076.50000      975.56835       33.30274        1.03121        1.58266        6.73552      109.35777
1077.00000      986.82228       32.75229        1.01806        1.49342        5.36283      108.62383
1077.50000      986.83190       32.47706        1.01903        1.43638        4.09357      108.25686
1078.00000      986.84152       33.02752        1.02531        1.39435        4.12763      108.62383
1078.50000      963.82115       33.57797        1.03164        1.36817        4.41497      108.62383
1079.00000      940.80996       34.40366        1.04559        1.37487        3.54498      108.99080
1079.50000      906.27941       35.77981        1.07882        1.39213        2.67586      108.99080
1080.00000      883.25904       35.22935        1.10723        1.43399        3.01909      109.35777
1080.50000      860.24785       31.92660        1.14232        1.50118        4.88205      109.72475
1081.00000      837.22748       30.82568        1.17862        1.53605        5.26614      110.45869
1081.50000      830.25832       29.72476        1.20671        1.55993        4.71843      110.45869
1082.00000      823.28915       33.02752        1.22361        1.57299        4.29972      110.82566
1082.50000      819.81418       34.12843        1.22343        1.56535        3.78808      110.82566
1083.00000      826.25163       34.95412        1.22322        1.55639        3.63101      110.45869
1083.50000      833.87363       35.22935        1.20589        1.54734        3.94997      110.45869
1084.00000      845.29285       34.95412        1.18475        1.53983        4.05047      110.09172
1084.50000      852.91485       33.85320        1.17212        1.53787        4.01586      110.09172
1085.00000      872.97010       33.02752        1.15995        1.54193        3.91483      110.82566
1085.50000      903.05757       32.20183        1.12439        1.54686        4.51759      112.29355
1086.00000      923.12201       30.82568        1.08993        1.50464        5.72014      115.22933
1086.50000      953.20948       29.99999        1.06433        1.45366        6.38188      117.43117
1087.00000      973.26473       29.72476        1.04467        1.35399        6.06606      119.99997
1087.50000      957.96694       30.27522        1.03764        1.29025        5.62164      122.56878
1088.00000      927.37092       31.65137        1.05211        1.24198        5.38870      124.40364
1088.50000      896.77489       39.08256        1.09419        1.21073        4.99391      126.23850
1089.00000      850.87627       55.59632        1.14115        1.22700        3.74820      127.33942
