~Version ---------------------------------------------------
VERS. 2.0 : CWLS LOG ASCII STANDARD - VERSION 2.0
WRAP. NO  : One line per depth step
DLM . SPACE : Column Data Section Delimiter
~Well ------------------------------------------------------
STRT.F           40 : START DEPTH
STOP.F       1284.0 : STOP DEPTH
STEP.F          0.5 : STEP
NULL.       -999.25 : NULL VALUE
COMP.                 WALSH & WATTS, INC. : COMPANY
WELL.                         HOWARD G 17 : WELL
FLD .             MONTAGUE COUNTY REGULAR : FIELD
CNTY.                            MONTAGUE : COUNTY
STAT.                               TEXAS : STATE
CTRY.                                 USA : COUNTRY
SEC .                                     : SECTION
TWP .                                     : TOWNSHIP
RGE .                                     : RANGE
LOC . 520'FNL & 4250'FEL OF THE J.CHAMBLIS SURVEY, A-123 : LOCATION
EKB .F                      519 : ELEVATION KELLY BUSHING
EDF .F                      518 : ELEVATION DERRICK FLOOR
EGL .F                      512 : ELEVATION GROUND LEVEL
PDAT.                        GL : PERMANENT DATUM
EPD .                       512 : ELEVATION PERMANENT DATUM
APD .                         7 : ABOVE PERMANENT DATUM
LMF .                        KB : LOG MEASURED FROM
DMF .                        KB : DRILLING MEASURED FROM
API .            42337343900000 : API NUMBER
UWI .                           : UWI NUMBER
DIGC.                     NthDS : DIGITIZING COMPANY
~Params ----------------------------------------------------
SRVC. PIONEER WIRELINE SERVICES : LOGGING COMPANY
LOG .                      DIFL : LOG
DATE.                2010-10-13 : RUN DATE
RUN .                         1 : RUN NUMBER
TDD .F                     1298 : TOTAL DEPTH DRILLER
TDL .F                     1280 : TOTAL DEPTH LOGGER
BOTL.F                     1280 : BOTTOM LOGGED INTERVAL
TOPL.F                       50 : TOP LOGGED INTERVAL
CSGS.IN                         : CASING SIZE
CSGD.F                          : CASING DRILLER
CSGL.F                          : CASING LOGGER
BS  .IN                   7.875 : BIT SIZE
MUD .                  GEL-CHEM : MUD TYPE
MUDD.                           : MUD DENSITY
MUDV.                           : MUD VISCOSITY
PH  .                           : MUD PH
FL  .                           : FLUID LOSS
MUDS.                  FLOWLINE : SOURCE OF SAMPLE
RM  .OHMM                   3.6 : MUD RESISTIVITY
RMT .DEGF                    72 : RM TEMPERATURE
RMF .OHMM                   2.7 : MUD FILTRATE RESISTIVITY
RMFT.DEGF                    72 : RMF TEMPERATURE
RMC .OHMM                   4.5 : MUD CAKE RESISTIVITY
RMCT.DEGF                    72 : RMC TEMPERATURE
RMFS.                      CALC : RMF SOURCE
RMCS.                      CALC : RMC SOURCE
RMBH.OHMM                   3.0 : MUD RESISTIVITY AT BHT
BHT .DEGF                    85 : BOTTOM HOLE TEMPERATURE
TIMC.           0245 2010-10-13 : TIME CIRCULATION STOPPED
TIML.           0540 2010-10-13 : TIME LOGGER ON BOTTOM
TMAX.DEGF                    85 : MAXIMUM RECORDED TEMPERATURE
UNIT.                      M-19 : EQUIPMENT NUMBER
BASE.             GRAHAM, TEXAS : BASE LOCATION
ENG .                    WENDEL : RECORDED BY
WIT .           WOMBLE/BURLESON : WITNESSED BY
~Curve Information -----------------------------------------
DEPT.F          :DEPTH
CILD.MMHO       :
GRR.GAPI        :
RILD.OHMM       :
RILM.OHMM       :
RSFL.OHMM       :
SP.MV           :
~ASCII ------------------------------------------------------
# ...
521.00000      227.60905       52.64735        4.04661        4.23824        7.71678      141.46694
521.50000      216.90501       54.44933        4.23206        4.49525        8.19119      141.41672
522.00000      211.51330       54.09250        4.45438        4.82096        8.76920      141.37178
522.50000      206.12820       52.66519        4.63024        5.09527        8.86313      141.32156
523.00000      204.14352       48.70043        4.75537        5.32585        9.13262      141.88192
523.50000      202.15884       45.33039        4.88418        5.34014        9.54940      141.99029
524.00000      200.17416       42.15859        4.99971        5.32521        9.69999      142.11452
524.50000      200.45863       39.38326        5.08350        5.30773        9.83617      142.22289
525.00000      200.74310       37.32158        5.02289        5.29288        9.47239      142.34711
525.50000      205.09617       35.63061        4.95456        5.29063        9.09545      142.15152
526.00000      211.49345       35.58898        4.88715        5.25468        9.09545      141.88720
526.50000      217.89074       37.40088        4.82889        5.17121        9.43383      141.87927
527.00000      223.99032       39.71431        4.59933        5.02932       10.39902      141.90835
527.50000      229.94436       41.36563        4.44923        4.78732       10.28881      141.94271
528.00000      235.89839       39.87885        4.34537        4.52490        8.98537      141.97707
528.50000      242.29568       37.16299        4.24392        4.37084        7.85088      142.00615
529.00000      249.57284       33.89801        4.15698        4.26724        7.96498      142.03786
529.50000      256.84999       36.28282        4.05648        4.18517        8.21967      142.06958
530.00000      264.12715       41.76211        3.94830        4.11769        8.24573      142.10130
530.50000      270.29951       46.12334        3.82852        4.00251        8.27540      142.01143
531.00000      272.28418       48.93237        3.71215        3.89031        8.31277      141.80791
531.50000      272.21141       50.65704        3.62969        3.79857        8.39209      141.60174
532.00000      271.10661       52.16563        3.64874        3.72234        7.97663      141.42465
532.50000      270.00842       53.39272        3.66567        3.69412        7.93932      141.11540
533.00000      263.35313       52.04669        3.68491        3.69412        8.40334      140.75593
533.50000      253.76051       50.27444        3.70448        3.71057        8.91291      140.34359
534.00000      243.83711       48.50220        3.75969        3.82736        9.39200      139.93126
534.50000      233.91371       48.50220        3.93654        3.96540        9.76338      139.57178
535.00000      214.33154       48.28215        4.09843        4.10992        9.28342      139.15945
535.50000      205.20202       47.89559        4.36446        4.42546        9.23494      138.79734
536.00000      195.27862       47.09273        4.65880        4.76493        9.68878      138.38764
536.50000      184.95829       43.74449        4.93289        5.08350       10.21081      137.97531
537.00000      174.63795       40.17621        5.26588        5.51929        9.91131      137.61319
537.50000      166.30230       37.35726        5.57535        5.95643        9.31966      137.26165
538.00000      161.93600       37.76960        5.91812        6.48638        9.96516      137.03698
538.50000      162.46525       38.78854        6.03822        6.96823       10.18846      136.78060
539.00000      165.44227       39.80748        6.14502        7.41872       10.95132      136.52421
539.50000      170.40397       40.48744        6.08805        7.37010       12.02701      136.29954
540.00000      176.35801       39.18502        6.01620        7.16439       12.38215      136.73302
540.50000      184.29673       36.40969        5.87540        6.80183       11.81725      136.60086
541.00000      190.25077       33.23788        5.67950        6.29842       11.11927      136.45020
541.50000      194.74937       32.44493        5.51358        5.76134       11.39338      136.31804
542.00000      196.33712       32.44493        5.33007        5.39898       11.29324      137.39645
542.50000      194.55090       32.44493        5.17436        5.14640       11.43995      137.71628
543.00000      188.81518       31.73722        5.00184        4.93860       12.15065      137.99645
543.50000      178.56100       30.06608        5.02718        4.97269       13.02629      138.31892
544.00000      167.99589       30.06608        5.22469        5.07360       13.84397      138.59910
544.50000      156.79569       30.06608        5.45947        5.36621       14.18524      140.10571
545.00000      145.59548       30.23656        5.67362        5.80252       13.67643      140.52861
545.50000      134.39527       30.53392        6.06216        6.48638       13.26639      141.19469
546.00000      123.19506       32.14757        6.72196        7.27382       13.77671      142.79910
546.50000      115.78559       34.22907        7.35800        7.95529       15.04542      144.20262
547.00000      110.27480       38.33458        8.15884        8.76920       16.02201      145.80703
547.50000      104.76400       40.48744        8.93084        9.54940       14.04945      147.37443
548.00000      103.36811       41.64911        9.43785       12.07176       13.02629      148.71451
548.50000      104.02967       40.73127        9.87878       14.28317       19.78241      150.24491
549.00000      104.69123       39.21872        9.69999       15.17698       60.87180      151.58500
549.50000      105.35279       39.48237        9.51053       13.83555      103.09918      152.74006
550.00000      106.01435       42.91189        9.37657       12.18547       50.44238      153.55416
550.50000      116.91081       51.07929        9.22539       11.07536       13.72648      154.74887
551.00000      125.74171       63.23722        8.97936       10.06577        9.84456      155.70835
551.50000      134.57922       74.07488        8.61049        9.25859       10.40535      156.58852
552.00000      143.41012       83.73897        8.00387        8.38443       10.50081      157.59557
552.50000      147.07364       84.94228        7.50823        7.67882        9.97730      158.35945
553.00000      150.73055       84.43677        7.02916        7.24112        9.46951      158.89865
553.50000      154.39408       83.85990        6.91582        7.00140        9.15545      159.51451
554.00000      158.05760       85.52312        6.70970        6.79810        9.15099      160.01671
554.50000      161.71451       87.67201        6.48164        6.57304        9.30549      160.35240
555.00000      165.37804       91.30968        6.28884        6.38257        9.13096      159.82376
555.50000      167.92197       94.49338        6.07509        6.17127        8.13801      159.36121
556.00000      169.90942      102.70042        5.97714        5.96696        7.76390      159.47222
556.50000      171.89686      108.56827        5.90624        5.84258        7.79563      159.67310
557.00000      173.88431      109.53963        5.82624        5.77644        8.10833      159.85812
557.50000      173.83794      108.37003        5.75713        5.71940        8.04050      160.09601
558.00000      173.69219      106.18941        5.67915        5.65466        7.66994      160.15416
558.50000      173.55307      104.80175        5.60223        5.62273        7.91134      160.20438
559.00000      173.41395      100.99558        5.57433        5.62273        8.12909      160.26517
559.50000      173.26820       95.59558        5.65362        5.62273        8.33963      160.31539
560.00000      173.88431       93.30395        5.72428        5.62273        8.25125      160.15416
560.50000      174.87803       93.83325        5.80570        5.62273        8.64043      159.62553
