~Version ---------------------------------------------------
VERS. 2.0 : CWLS LOG ASCII STANDARD - VERSION 2.0
WRAP. NO  : One line per depth step
DLM . SPACE : Column Data Section Delimiter
~Well ------------------------------------------------------
STRT.F           48 : START DEPTH
STOP.F       1432.0 : STOP DEPTH
STEP.F          0.5 : STEP
NULL.       -999.25 : NULL VALUE
COMP.                 WALSH & WATTS, INC. : COMPANY
WELL.                         HOWARD F 25 : WELL
FLD .                            MONTAGUE : FIELD
CNTY.                            MONTAGUE : COUNTY
STAT.                               TEXAS : STATE
CTRY.                                 USA : COUNTRY
SEC .                                     : SECTION
TWP .                                     : TOWNSHIP
RGE .                                     : RANGE
LOC . 1115'FEL & 2300'FSL OF THE J.CHAMBLIS SURVEY A-123 : LOCATION
EKB .F                      512 : ELEVATION KELLY BUSHING
EDF .F                      511 : ELEVATION DERRICK FLOOR
EGL .F                      505 : ELEVATION GROUND LEVEL
PDAT.                        GL : PERMANENT DATUM
EPD .                       505 : ELEVATION PERMANENT DATUM
APD .                         7 : ABOVE PERMANENT DATUM
LMF .                        KB : LOG MEASURED FROM
DMF .                        KB : DRILLING MEASURED FROM
API .            42337343120000 : API NUMBER
UWI .                           : UWI NUMBER
DIGC.                     NthDS : DIGITIZING COMPANY
~Params ----------------------------------------------------
SRVC. PIONEER WIRELINE SERVICES : LOGGING COMPANY
LOG .                   CNFD/ML : LOG
DATE.                2010-10-07 : RUN DATE
RUN .                         1 : RUN NUMBER
TDD .F                     1450 : TOTAL DEPTH DRILLER
TDL .F                     1452 : TOTAL DEPTH LOGGER
BOTL.F                     1452 : BOTTOM LOGGED INTERVAL
TOPL.F                       50 : TOP LOGGED INTERVAL
CSGS.IN                         : CASING SIZE
CSGD.F                          : CASING DRILLER
CSGL.F                          : CASING LOGGER
BS  .IN                   7.875 : BIT SIZE
MUD .                  GEL-CHEM : MUD TYPE
MUDD.                           : MUD DENSITY
MUDV.                           : MUD VISCOSITY
PH  .                           : MUD PH
FL  .                           : FLUID LOSS
MUDS.                  FLOWLINE : SOURCE OF SAMPLE
RM  .OHMM                   4.0 : MUD RESISTIVITY
RMT .DEGF                    72 : RM TEMPERATURE
RMF .OHMM                   3.0 : MUD FILTRATE RESISTIVITY
RMFT.DEGF                    72 : RMF TEMPERATURE
RMC .OHMM                   5.0 : MUD CAKE RESISTIVITY
RMCT.DEGF                    72 : RMC TEMPERATURE
RMFS.                      CALC : RMF SOURCE
RMCS.                      CALC : RMC SOURCE
RMBH.OHMM                     3 : MUD RESISTIVITY AT BHT
BHT .DEGF                    88 : BOTTOM HOLE TEMPERATURE
TIMC.           0730 2010-10-07 : TIME CIRCULATION STOPPED
TIML.           1020 2010-10-07 : TIME LOGGER ON BOTTOM
TMAX.DEGF                    88 : MAXIMUM RECORDED TEMPERATURE
UNIT.                      M-19 : EQUIPMENT NUMBER
BASE.                GRAHAM, TX : BASE LOCATION
ENG .                    WENDEL : RECORDED BY
WIT .           WOMBLE/BURLESON : WITNESSED BY
~Curve Information -----------------------------------------
DEPT.F          :DEPTH
CALD.IN         :
DPHI.%          :
GRD.GAPI        :
MINV.OHMM       :
MNOR.OHMM       :
NPHI.%          :
RHOC.G/CC       :
~ASCII ------------------------------------------------------
# ...
503.50000        7.95623       23.70200       55.34339        5.67272        7.75709       17.43781        0.04364
504.00000        7.93974       23.34815       55.09614        7.56363        9.09091       17.35904        0.05091
504.50000        7.93645       23.05309       53.22801        8.58181       10.90909       17.23428        0.05455
505.00000        7.93370       23.57828       50.36537        8.10181       10.22981       17.76569        0.04364
505.50000        7.93022       24.80832       47.37087        8.02909       10.24000       18.35370        0.04000
506.00000        7.92692       26.03506       44.78021        7.54763        9.83272       18.69372        0.03273
506.50000        7.92418       27.09370       40.65933        7.15636        9.84872       19.14023        0.02909
507.00000        7.95238       27.81431       37.17856        7.75709       10.50181       19.68981        0.02909
507.50000        7.98901       27.55451       39.29944        7.38181       10.32727       20.34931        0.04364
508.00000        8.03297       27.16760       45.11263        7.12727        9.45454       21.00881        0.05455
508.50000        8.00989       26.70359       50.92581        7.24800        9.77454       21.55839        0.06182
509.00000        7.99048       26.31668       55.76922        6.10909        8.52654       21.81533        0.06182
509.50000        7.96740       26.28085       54.94504        6.83636        7.54327       20.28332        0.06545
510.00000        7.93223       26.47374       50.27471        6.27491        7.36000       19.25500        0.06909
510.50000        7.87729       26.92525       44.31318        6.51345        7.97818       19.98037        0.06909
511.00000        7.84066       27.50643       41.51098        5.62472        7.19418       20.43151        0.06545
511.50000        7.88645       27.90866       39.17582        5.52727        6.25454       20.23575        0.06182
512.00000        7.94139       27.76035       36.37362        5.79927        6.25454       20.07244        0.05818
512.50000        7.98718       27.24877       34.92582        5.52727        6.36800       19.87668        0.06182
513.00000        8.04212       26.82270       34.24999        5.96363        7.04582       19.84488        0.05567
513.50000        8.05385       26.55851       35.34889        5.96363        7.07927       19.76574        0.04342
514.00000        8.02766       26.41801       37.00823        6.69091        7.27272       19.52680        0.03320
514.50000        7.99634       26.23786       41.03296        6.61818        7.14181       19.61015        0.03636
515.00000        7.97015       25.71713       46.77746        6.55709        7.03272       20.21805        0.04545
515.50000        7.96978       25.58200       52.74724        5.52727        6.90182       20.82594        0.05636
516.00000        7.98461       25.64827       49.69230        6.83636        7.33963       20.50454        0.06727
516.50000        7.99725       26.40914       44.60164        6.93963        8.17891       18.62901        0.07065
517.00000        8.01209       27.04327       38.49450        6.44509        9.01818       17.33597        0.06440
517.50000        8.01465       27.41475       34.78021        5.63927        8.51927       16.42951        0.05818
518.00000        8.01465       27.35440       33.92856        5.48072        8.29091       17.22222        0.05909
518.50000        8.01465       26.58872       34.20329        6.21672        8.72727       18.03347        0.06018
519.00000        8.01465       25.67018       35.53021        6.82909        9.45454       18.70066        0.06109
519.50000        8.01465       24.90449       39.10164        7.56363       10.61818       18.75632        0.05818
520.00000        8.01465       24.82548       41.53845        7.16654       10.84363       18.16959        0.04727
520.50000        8.01465       24.75951       41.32966        6.83636       10.24727       17.46514        0.03818
521.00000        8.01465       25.23311       40.04944        6.43927        9.14327       16.87841        0.02727
521.50000        8.01465       25.70706       40.43406        6.17163        8.14545       16.41696        0.02909
522.00000        8.03132       25.74466       41.33241        6.48291        8.14545       16.23462        0.04120
522.50000        8.05238       25.51268       41.87087        7.31781        9.92290       16.76384        0.05575
523.00000        8.07747       25.31216       42.45329        8.09163       11.41818       17.54264        0.05527
523.50000        8.10256       25.31280       43.03570        9.01818       11.85454       17.67137        0.05091
524.00000        8.12344       25.45995       45.40384        9.08072       10.90909       17.97332        0.04655
524.50000        8.14853       25.64357       48.81043        9.13309       10.86400       18.43410        0.04291
525.00000        8.14597       25.76767       51.64834        8.78109       10.80872       17.92239        0.04153
525.50000        8.10018       25.70000       50.41208        8.55709       11.57818       17.58867        0.04611
526.00000        8.05440       25.24319       45.49450       10.61818       14.52072       18.65585        0.04996
526.50000        8.01612       24.69501       40.54944       10.03636       13.13890       18.86546        0.05455
527.00000        7.99322       24.13206       37.04120       10.90909       13.99999       18.15150        0.05913
527.50000        8.06960       23.37163       36.70329       10.00436       13.45454       17.15416        0.06298
528.00000        8.02692       22.61119       37.69230       10.68218       14.49745       16.59719        0.06756
528.50000        7.98407       22.68502       37.05494       10.47272       14.79999       16.36009        0.05891
529.00000        7.94853       23.70243       35.16483        9.87345       12.41745       16.58177        0.03855
529.50000        7.93168       25.43530       31.61538        9.41236       10.69090       17.18344        0.01818
530.00000        7.92216       26.89577       28.65659        9.02691       10.46545       17.78512        0.02029
530.50000        7.91062       27.78802       28.35164        8.98909       10.88145       18.46352        0.02280
531.00000        7.93004       28.50754       30.76922        9.16363       11.29745       20.12686        0.02531
531.50000        7.97198       28.66078       32.96703        9.30909       11.64363       20.53018        0.02742
532.00000        8.02234       28.66887       35.18131        9.01818       11.53890       20.85104        0.02993
532.50000        8.06429       28.87567       35.26922        8.87272       11.23636       21.62948        0.03204
533.00000        8.09707       29.24228       35.37087        8.87272       10.71563       22.80133        0.03455
533.50000        8.04212       29.90177       36.81318        8.26909       10.03636       23.54853        0.03705
534.00000        8.00733       29.90254       40.24724        7.76436        9.47054       23.50538        0.03916
534.50000        7.98535       29.90318       44.36812        7.85454        9.26109       21.93434        0.04611
535.00000        7.96703       29.90395       44.85164        8.29091        9.98836       20.20800        0.05531
535.50000        7.94505       29.90471       41.98900        8.91636       10.89018       18.48202        0.06298
536.00000        7.88407       29.55769       39.12636        9.87636       13.39927       17.08188        0.06909
536.50000        7.82692       29.21079       36.74175        9.64800       13.13890       17.59756        0.06418
537.00000        7.75824       30.01655       36.36263        9.06618       12.36363       19.16086        0.03473
537.50000        7.77344       30.01475       38.23626        9.45454       12.79999       23.41594        0.00527
538.00000        7.79176       30.01296       41.89559       10.18181       12.73309       24.93107       -0.01927
