~Version ---------------------------------------------------
VERS. 2.0 : CWLS LOG ASCII STANDARD - VERSION 2.0
WRAP. NO  : One line per depth step
DLM . SPACE : Column Data Section Delimiter
~Well ------------------------------------------------------
STRT.F           11 : START DEPTH
STOP.F       1368.0 : STOP DEPTH
STEP.F          0.5 : STEP
NULL.       -999.25 : NULL VALUE
COMP.                 WALSH & WATTS, INC. : COMPANY
WELL.                      HOWARD AB E 4E : WELL
FLD .             MONTAGUE COUNTY REGULAR : FIELD
CNTY.                            MONTAGUE : COUNTY
STAT.                                     : STATE
CTRY.                                 USA : COUNTRY
SEC .                                     : SECTION
TWP .                                     : TOWNSHIP
RGE .                                     : RANGE
LOC . 3250'FEL & 1590'FSL OF THE J.CHAMBLIS SURVEY A-123 : LOCATION
EKB .F                          : ELEVATION KELLY BUSHING
EDF .F                          : ELEVATION DERRICK FLOOR
EGL .F                          : ELEVATION GROUND LEVEL
PDAT.                        GL : PERMANENT DATUM
EPD .                           : ELEVATION PERMANENT DATUM
APD .                         8 : ABOVE PERMANENT DATUM
LMF .                        KB : LOG MEASURED FROM
DMF .                        KB : DRILLING MEASURED FROM
API .            42337348780000 : API NUMBER
UWI .                           : UWI NUMBER
DIGC.                     NthDS : DIGITIZING COMPANY
~Params ----------------------------------------------------
SRVC. PIONEER WIRELINE SERVICES : LOGGING COMPANY
LOG .                      CNFD : LOG
DATE.                2012-08-01 : RUN DATE
RUN .                         1 : RUN NUMBER
TDD .F                     1400 : TOTAL DEPTH DRILLER
TDL .F                     1396 : TOTAL DEPTH LOGGER
BOTL.F                     1368 : BOTTOM LOGGED INTERVAL
TOPL.F                       50 : TOP LOGGED INTERVAL
CSGS.IN                         : CASING SIZE
CSGD.F                          : CASING DRILLER
CSGL.F                          : CASING LOGGER
BS  .IN                   7.875 : BIT SIZE
MUD .                  CHEM-GEL : MUD TYPE
MUDD.                           : MUD DENSITY
MUDV.                           : MUD VISCOSITY
PH  .                           : MUD PH
FL  .                           : FLUID LOSS
MUDS.                  FLOWLINE : SOURCE OF SAMPLE
RM  .OHMM                   2.4 : MUD RESISTIVITY
RMT .DEGF                    73 : RM TEMPERATURE
RMF .OHMM                   1.8 : MUD FILTRATE RESISTIVITY
RMFT.DEGF                    73 : RMF TEMPERATURE
RMC .OHMM                   3.0 : MUD CAKE RESISTIVITY
RMCT.DEGF                    73 : RMC TEMPERATURE
RMFS.                      CALC : RMF SOURCE
RMCS.                      CALC : RMC SOURCE
RMBH.OHMM                   2.0 : MUD RESISTIVITY AT BHT
BHT .DEGF                    86 : BOTTOM HOLE TEMPERATURE
TIMC.           0200 2012-08-01 : TIME CIRCULATION STOPPED
TIML.           0430 2012-08-01 : TIME LOGGER ON BOTTOM
TMAX.DEGF                    86 : MAXIMUM RECORDED TEMPERATURE
UNIT.                       110 : EQUIPMENT NUMBER
BASE.                GRAHAM, TX : BASE LOCATION
ENG .                    WENDEL : RECORDED BY
WIT .           OVERBY/BURLESON : WITNESSED BY
~Curve Information -----------------------------------------
DEPT.F          :DEPTH
CALD.IN         :
DPHI.V/V        :
GRD.GAPI        :
NPHI.%          :
PEC.B/E         :
RLML.OHMM       :
RNML.OHMM       :
ZCOR.G/C3       :
~ASCII ------------------------------------------------------
# ...
1066.00000        7.54696        0.20829       35.63535       14.67951        2.24531        6.07942        8.15884        0.03152
1066.50000        7.52854        0.19861       38.67402       14.44193        2.17570        6.37184        8.64982        0.03635
1067.00000        7.51013        0.18698       39.77900       14.06961        2.12615        6.57039        8.66426        0.06162
1067.50000        7.51013        0.17834       40.33148       13.75910        2.18914        5.41516        7.43682        0.09289
1068.00000        7.51013        0.17196       39.77900       13.53595        2.34729        5.86642        7.69675        0.09892
1068.50000        7.51013        0.17013       38.12154       13.69026        2.47914        6.40216       11.43898        0.08787
1069.00000        7.52854        0.17418       37.29281       14.83985        2.59113        7.92635       13.30902        0.06866
1069.50000        7.56538        0.18563       37.01657       16.12934        2.60760        8.01444       11.86498        0.04567
1070.00000        7.56538        0.19937       37.01657       17.51098        2.64487        7.22021       11.33574        0.02913
1070.50000        7.58508        0.20712       38.67402       18.52422        2.70529       10.18050       12.68953        0.02191
1071.00000        7.59245        0.20477       42.54143       19.34711        2.67076        8.91696       11.74223        0.02892
1071.50000        7.59853        0.19877       51.10496       19.21745        2.58239        8.14079        9.53068        0.04776
1072.00000        7.65009        0.19115       66.57457       18.28970        2.50875        8.54368       10.25270        0.06343
1072.50000        7.72983        0.19262       82.32042       17.89963        2.44968        3.73357        6.84693        0.08227
1073.00000        7.82560        0.20658       98.34252       18.43633        2.52255        4.40433        3.29747        0.08736
1073.50000        7.85083        0.22311      107.18230       20.19801        2.64480        9.16967        5.46642        0.07437
1074.00000        7.86004        0.22124      115.46959       22.31150        2.80486        8.18772        5.99278        0.07004
1074.50000        7.86004        0.20280      124.86185       23.86809        2.99671        2.00722        1.28520        0.09892
1075.00000        7.89687        0.17570      133.42538       23.36863        3.10292        1.61227        0.72202        0.12780
1075.50000        7.91529        0.16069      136.46406       22.80073        3.11015        1.85343        0.99783        0.12386
1076.00000        7.91529        0.14267      135.08284       22.52853        3.01819        2.33429        1.45704        0.12058
1076.50000        7.82320        0.13115      132.87290       22.57720        2.90784        2.23827        1.71336        0.11440
1077.00000        7.82320        0.12953      132.59666       22.71162        2.81588        2.10397        1.68014        0.13191
1077.50000        7.61326        0.14009      132.59666       22.56914        2.70553        2.29097        1.70902        0.15451
1078.00000        7.33517        0.15516      131.49168       22.19049        2.65855        2.19206        1.78917        0.16895
1078.50000        7.17864        0.16772      129.83422       21.62996        2.67245        2.07004        1.71480        0.16646
1079.00000        7.14180        0.18280      129.55798       21.20747        2.68884        2.23827        1.62455        0.14740
1079.50000        7.14180        0.18700      132.87290       21.48856        2.70238        1.80505        1.40794        0.10870
1080.00000        7.14180        0.18036      136.18781       22.15595        2.71877        1.75668        1.28375        0.07650
1080.50000        7.14180        0.17030      140.60770       23.30554        2.73267        2.14224        1.62022        0.06884
1081.00000        7.14180        0.15824      140.88395       24.02044        2.74906        2.06281        1.70614        0.08087
1081.50000        7.14180        0.15402      140.05522       24.20503        2.80106        1.76895        1.55957        0.09531
1082.00000        7.14180        0.15987      139.77897       24.35897        2.81671        1.92852        1.17112        0.10072
1082.50000        7.14180        0.17990      137.84527       24.48205        2.73281        1.87726        1.26787        0.09531
1083.00000        7.14180        0.20399      129.83422       24.09566        2.60012        2.03177        1.48014        0.08004
1083.50000        7.12947        0.22810      116.29832       23.05741        2.43482        2.98123        2.61011        0.06170
1084.00000        7.11473        0.23470      100.27622       22.19221        2.35202        4.11552        4.19350        0.05899
1084.50000        7.14530        0.22764       90.05523       21.15396        2.43691        4.75090        6.30541        0.06574
1085.00000        7.38692        0.20985       87.56904       20.27881        2.57902        4.16029        4.38628        0.07141
1085.50000        7.62873        0.18131       91.71269       19.50937        2.74962        3.09386        2.46498        0.07845
1086.00000        7.75285        0.14706       97.23755       19.16246        2.84191        2.38267        1.97328        0.08448
1086.50000        7.76298        0.14101      102.20992       20.28841        2.71434        2.34657        1.73285        0.08538
1087.00000        7.78637        0.14080      103.59114       21.15219        2.60773        2.34657        1.73285        0.07415
1087.50000        7.80479        0.14712      104.14362       20.61596        2.48017        2.44476        1.73285        0.05870
1088.00000        7.78637        0.15470      104.69611       19.45868        2.44718        2.47437        1.66065        0.04758
1088.50000        7.78637        0.15938      105.80108       18.30139        2.42987        2.15957        1.22744        0.04274
1089.00000        7.82320        0.16108      104.97235       17.98616        2.45513        2.02166        0.98195        0.04173
1089.50000        7.86004        0.16062      103.86738       18.17068        2.55723        2.29603        1.23971        0.04285
1090.00000        7.91529        0.15727      105.52484       18.89854        2.65934        2.51263        1.54007        0.04383
1090.50000        7.98895        0.15214      112.15467       19.58950        2.76188        2.26209        1.46787        0.04567
1091.00000        8.06261        0.14599      118.78450       20.41865        2.89036        2.22383        1.48881        0.04476
1091.50000        8.09945        0.14445      122.09942       20.75057        2.99730        2.45487        1.75957        0.03393
1092.00000        8.13628        0.14810      123.48064       20.29052        3.12578        2.35162        1.76895        0.02671
1092.50000        8.19153        0.14758      125.41434       19.71997        3.23272        2.35884        1.75523        0.03054
1093.00000        8.20994        0.14078      129.83422       18.93770        3.26010        2.59928        1.81083        0.04011
1093.50000        8.20994        0.13409      133.14914       19.00067        3.19854        1.94946        1.87726        0.05155
1094.00000        8.20994        0.13374      133.42538       19.60404        3.09442        2.31047        1.45632        0.05679
1094.50000        8.20994        0.13896      131.76793       20.35246        3.00246        2.74368        1.97328        0.04235
1095.00000        8.22836        0.15192      130.38671       21.69358        2.89211        2.74368        2.45487        0.03032
1095.50000        8.24678        0.15137      132.59666       23.03470        2.82250        2.25415        2.10325        0.02704
1096.00000        8.26519        0.14640      135.35909       23.81112        2.84658        1.73285        1.51624        0.03361
1096.50000        8.20994        0.14235      137.01654       23.40638        2.91279        2.16606        1.60939        0.03321
