~Version ---------------------------------------------------
VERS. 2.0 : CWLS LOG ASCII STANDARD - VERSION 2.0
WRAP. NO  : One line per depth step
DLM . SPACE : Column Data Section Delimiter
~Well ------------------------------------------------------
STRT.F           40 : START DEPTH
STOP.F       1284.0 : STOP DEPTH
STEP.F          0.5 : STEP
NULL.       -999.25 : NULL VALUE
COMP.                 WALSH & WATTS, INC. : COMPANY
WELL.                         HOWARD G 17 : WELL
FLD .             MONTAGUE COUNTY REGULAR : FIELD
CNTY.                            MONTAGUE : COUNTY
STAT.                               TEXAS : STATE
CTRY.                                 USA : COUNTRY
SEC .                                     : SECTION
TWP .                                     : TOWNSHIP
RGE .                                     : RANGE
LOC . 520'FNL & 4250'FEL OF THE J.CHAMBLIS SURVEY, A-123 : LOCATION
EKB .F                      519 : ELEVATION KELLY BUSHING
EDF .F                      518 : ELEVATION DERRICK FLOOR
EGL .F                      512 : ELEVATION GROUND LEVEL
PDAT.                        GL : PERMANENT DATUM
EPD .                       512 : ELEVATION PERMANENT DATUM
APD .                         7 : ABOVE PERMANENT DATUM
LMF .                        KB : LOG MEASURED FROM
DMF .                        KB : DRILLING MEASURED FROM
API .            42337343900000 : API NUMBER
UWI .                           : UWI NUMBER
DIGC.                     NthDS : DIGITIZING COMPANY
~Params ----------------------------------------------------
SRVC. PIONEER WIRELINE SERVICES : LOGGING COMPANY
LOG .                      DIFL : LOG
DATE.                2010-10-13 : RUN DATE
RUN .                         1 : RUN NUMBER
TDD .F                     1298 : TOTAL DEPTH DRILLER
TDL .F                     1280 : TOTAL DEPTH LOGGER
BOTL.F                     1280 : BOTTOM LOGGED INTERVAL
TOPL.F                       50 : TOP LOGGED INTERVAL
CSGS.IN                         : CASING SIZE
CSGD.F                          : CASING DRILLER
CSGL.F                          : CASING LOGGER
BS  .IN                   7.875 : BIT SIZE
MUD .                  GEL-CHEM : MUD TYPE
MUDD.                           : MUD DENSITY
MUDV.                           : MUD VISCOSITY
PH  .                           : MUD PH
FL  .                           : FLUID LOSS
MUDS.                  FLOWLINE : SOURCE OF SAMPLE
RM  .OHMM                   3.6 : MUD RESISTIVITY
RMT .DEGF                    72 : RM TEMPERATURE
RMF .OHMM                   2.7 : MUD FILTRATE RESISTIVITY
RMFT.DEGF                    72 : RMF TEMPERATURE
RMC .OHMM                   4.5 : MUD CAKE RESISTIVITY
RMCT.DEGF                    72 : RMC TEMPERATURE
RMFS.                      CALC : RMF SOURCE
RMCS.                      CALC : RMC SOURCE
RMBH.OHMM                   3.0 : MUD RESISTIVITY AT BHT
BHT .DEGF                    85 : BOTTOM HOLE TEMPERATURE
TIMC.           0245 2010-10-13 : TIME CIRCULATION STOPPED
TIML.           0540 2010-10-13 : TIME LOGGER ON BOTTOM
TMAX.DEGF                    85 : MAXIMUM RECORDED TEMPERATURE
UNIT.                      M-19 : EQUIPMENT NUMBER
BASE.             GRAHAM, TEXAS : BASE LOCATION
ENG .                    WENDEL : RECORDED BY
WIT .           WOMBLE/BURLESON : WITNESSED BY
~Curve Information -----------------------------------------
DEPT.F          :DEPTH
CILD.MMHO       :
GRR.GAPI        :
RILD.OHMM       :
RILM.OHMM       :
RSFL.OHMM       :
SP.MV           :
~ASCII ------------------------------------------------------
# ...
1001.00000      404.42822       96.73148        2.40643        2.40599        3.53784      113.50219
1001.50000      398.13464       94.87201        2.45377        2.36244        3.60524      113.96474
1002.00000      391.84106       94.80065        2.50204        2.34710        3.21789      114.49338
1002.50000      391.34419       94.73721        2.50204        2.42702        3.08796      114.85549
1003.00000      394.77585       95.28633        2.50204        2.47929        3.14851      114.57267
1003.50000      400.16846       96.87223        2.46740        2.54041        3.35901      113.83258
1004.00000      408.84698       98.71386        2.42215        2.60304        3.30908      111.98236
1004.50000      429.93380      101.02730        2.38310        2.61097        3.31351      109.86783
1005.00000      455.17438      103.05131        2.22738        2.57655        3.28899      108.01761
1005.50000      476.63882      103.25549        2.08196        2.49125        3.17102      106.74360
1006.00000      507.11301       99.27289        1.96245        2.31658        2.78045      106.16739
1006.50000      537.58721       90.33038        1.83421        2.13198        2.65910      106.16739
1007.00000      566.40520       78.09713        1.72672        1.99339        3.62174      106.16739
1007.50000      595.22319       66.67466        1.68630        1.85510        6.17916      105.50395
1008.00000      624.04118       58.13656        1.64684        1.73040       12.25690      104.74536
1008.50000      639.94076       54.64757        1.61300        1.65790       14.89323      103.98413
1009.00000      643.58441       54.61982        1.57525        1.58419       10.05658      103.32069
1009.50000      627.51921       60.79294        1.63067        1.58275        4.31636      102.56210
1010.00000      607.39299       67.55484        1.68087        1.63923        2.47176      102.64404
1010.50000      587.27340       72.05682        1.74001        1.72998        3.19194      102.87928
1011.00000      560.24411       74.07488        1.80134        1.82586        4.23773      103.76474
1011.50000      535.33477       74.42180        1.85668        1.91407        4.12195      105.11012
1012.00000      514.66531       77.42312        1.96066        2.03608        2.81742      107.81672
1012.50000      468.90765       82.20263        2.05651        2.14931        2.73295      110.18501
1013.00000      430.73540       88.86342        2.17167        2.28632        2.89568      112.89161
1013.50000      412.00040       90.18963        2.29329        2.43190        3.31069      114.43258
1014.00000      401.51330       89.79316        2.40525        2.56684        3.68289      115.44756
1014.50000      395.15347       89.33919        2.48625        2.64698        3.85495      116.62377
1015.00000      388.52864       91.32157        2.51533        2.67941        3.74393      117.64932
1015.50000      381.90382       96.07928        2.54103        2.69577        3.61844      119.41760
1016.00000      383.89127      100.48214        2.57091        2.70399        3.61623      121.26782
1016.50000      386.27620      104.14954        2.60098        2.68823        3.64053      121.89425
1017.00000      388.85989      104.65703        2.62756        2.65376        3.60964      122.71364
1017.50000      391.44357      103.08302        2.63252        2.61479        3.60524      123.34800
1018.00000      392.81491       99.15197        2.61177        2.57655        3.62461      123.34800
1018.50000      391.75493       97.86342        2.59370        2.54490        3.56812      123.34800
1019.00000      390.69496      100.53963        2.57310        2.51962        3.49077      123.34800
1019.50000      389.63499      102.91849        2.55546        2.49778        3.42551      123.34800
1020.00000      388.57502      104.99998        2.53516        2.47296        3.52709      123.27663
1020.50000      385.05061      106.05659        2.58220        2.44839        3.53569      123.17884
1021.00000      376.60396      105.79294        2.63268        2.42702        3.44643      123.08368
1021.50000      364.28178      104.40527        2.69167        2.51732        3.47593      123.08368
1022.00000      348.44845      103.30307        2.75199        2.61097        3.51851      123.08368
1022.50000      325.59281      103.61232        2.96020        2.87986        3.58336      123.08368
1023.00000      317.64302       99.27884        3.09850        3.20167        3.90218      122.66606
1023.50000      321.61791       90.23126        3.09285        3.56791        5.00245      121.55593
1024.00000      331.55515       81.46717        3.02617        3.72801        6.97927      120.58588
1024.50000      343.87732       74.66959        2.89938        3.57965        6.06364      119.47575
1025.00000      356.80898       72.99845        2.79283        3.25731        4.95094      118.50307
1025.50000      375.68973       73.22444        2.67582        2.92848        4.06439      117.49866
1026.00000      389.85361       76.05726        2.56372        2.65279        3.63234      117.21584
1026.50000      429.60256       78.23787        2.35426        2.43279        3.60524      116.97003
1027.00000      457.42682       77.90682        2.13575        2.20377        3.80621      116.68721
1027.50000      490.76957       75.13743        2.00276        2.04117        4.02278      116.44139
1028.00000      525.16566       74.11651        1.94887        1.97143        4.77045      116.15857
1028.50000      539.57466       74.34448        1.88906        1.89471        6.04889      115.78324
1029.00000      541.34348       76.36453        1.84541        1.82097        4.57142      115.20439
1029.50000      543.10569       78.43611        1.84541        1.89471        3.81991      114.46694
1030.00000      544.87452       80.22025        1.83031        1.94876        3.59057      113.35681
1030.50000      554.14927       79.93479        1.81334        1.96699        3.30666      112.08809
1031.00000      570.04885       79.22906        1.79850        1.98298        3.26267      110.81937
1031.50000      598.40310       78.73942        1.72063        1.94804        3.64941      110.13214
1032.00000      632.98469       78.18039        1.60555        1.87372        3.50013      110.13214
1032.50000      663.98887       78.65814        1.50037        1.73641        3.13150      110.50219
1033.00000      697.77548       76.52510        1.42904        1.54985        3.49715      110.92509
1033.50000      737.12694       70.75836        1.36942        1.42774        3.94998      111.69426
1034.00000      763.49374       65.47532        1.31093        1.33461        3.79441      111.79470
1034.50000      778.89646       62.39272        1.30036        1.30432        3.79441      111.41672
1035.00000      785.35567       61.30241        1.29113        1.30155        3.91240      111.08633
1035.50000      778.39960       63.37004        1.28072        1.34357        3.47593      110.70835
1036.00000      757.86264       65.19581        1.32836        1.38696        3.52151      111.50131
1036.50000      730.03838       66.08788        1.37151        1.43314        3.12731      112.71452
1037.00000      701.22039       65.80836        1.45211        1.53922        2.90627      114.66518
1037.50000      671.73992       65.18391        1.53035        1.63465        4.17982      116.37531
1038.00000      624.86928       64.78744        1.62503        1.72262        5.13201      118.32597
1038.50000      576.67368       66.61717        1.72546        1.82975        4.30665      120.75769
1039.00000      535.43414       68.78788        1.81853        1.94224        3.80065      122.88544
1039.50000      494.92333       74.47135        1.93104        2.07930        3.44538      125.23522
1040.00000      454.77689       82.37906        2.05038        2.22142        3.26724      127.17531
1040.50000      445.83338       90.13215        2.18214        2.34111        3.40700      129.39029
