~Version ---------------------------------------------------
VERS. 2.0 : CWLS LOG ASCII STANDARD - VERSION 2.0
WRAP. NO  : One line per depth step
DLM . SPACE : Column Data Section Delimiter
~Well ------------------------------------------------------
STRT.F           40 : START DEPTH
STOP.F       1284.0 : STOP DEPTH
STEP.F          0.5 : STEP
NULL.       -999.25 : NULL VALUE
COMP.                 WALSH & WATTS, INC. : COMPANY
WELL.                         HOWARD G 17 : WELL
FLD .             MONTAGUE COUNTY REGULAR : FIELD
CNTY.                            MONTAGUE : COUNTY
STAT.                               TEXAS : STATE
CTRY.                                 USA : COUNTRY
SEC .                                     : SECTION
TWP .                                     : TOWNSHIP
RGE .                                     : RANGE
LOC . 520'FNL & 4250'FEL OF THE J.CHAMBLIS SURVEY, A-123 : LOCATION
EKB .F                      519 : ELEVATION KELLY BUSHING
EDF .F                      518 : ELEVATION DERRICK FLOOR
EGL .F                      512 : ELEVATION GROUND LEVEL
PDAT.                        GL : PERMANENT DATUM
EPD .                       512 : ELEVATION PERMANENT DATUM
APD .                         7 : ABOVE PERMANENT DATUM
LMF .                        KB : LOG MEASURED FROM
DMF .                        KB : DRILLING MEASURED FROM
API .            42337343900000 : API NUMBER
UWI .                           : UWI NUMBER
DIGC.                     NthDS : DIGITIZING COMPANY
~Params ----------------------------------------------------
SRVC. PIONEER WIRELINE SERVICES : LOGGING COMPANY
LOG .                      DIFL : LOG
DATE.                2010-10-13 : RUN DATE
RUN .                         1 : RUN NUMBER
TDD .F                     1298 : TOTAL DEPTH DRILLER
TDL .F                     1280 : TOTAL DEPTH LOGGER
BOTL.F                     1280 : BOTTOM LOGGED INTERVAL
TOPL.F                       50 : TOP LOGGED INTERVAL
CSGS.IN                         : CASING SIZE
CSGD.F                          : CASING DRILLER
CSGL.F                          : CASING LOGGER
BS  .IN                   7.875 : BIT SIZE
MUD .                  GEL-CHEM : MUD TYPE
MUDD.                           : MUD DENSITY
MUDV.                           : MUD VISCOSITY
PH  .                           : MUD PH
FL  .                           : FLUID LOSS
MUDS.                  FLOWLINE : SOURCE OF SAMPLE
RM  .OHMM                   3.6 : MUD RESISTIVITY
RMT .DEGF                    72 : RM TEMPERATURE
RMF .OHMM                   2.7 : MUD FILTRATE RESISTIVITY
RMFT.DEGF                    72 : RMF TEMPERATURE
RMC .OHMM                   4.5 : MUD CAKE RESISTIVITY
RMCT.DEGF                    72 : RMC TEMPERATURE
RMFS.                      CALC : RMF SOURCE
RMCS.                      CALC : RMC SOURCE
RMBH.OHMM                   3.0 : MUD RESISTIVITY AT BHT
BHT .DEGF                    85 : BOTTOM HOLE TEMPERATURE
TIMC.           0245 2010-10-13 : TIME CIRCULATION STOPPED
TIML.           0540 2010-10-13 : TIME LOGGER ON BOTTOM
TMAX.DEGF                    85 : MAXIMUM RECORDED TEMPERATURE
UNIT.                      M-19 : EQUIPMENT NUMBER
BASE.             GRAHAM, TEXAS : BASE LOCATION
ENG .                    WENDEL : RECORDED BY
WIT .           WOMBLE/BURLESON : WITNESSED BY
~Curve Information -----------------------------------------
DEPT.F          :DEPTH
CILD.MMHO       :
GRR.GAPI        :
RILD.OHMM       :
RILM.OHMM       :
RSFL.OHMM       :
SP.MV           :
~ASCII ------------------------------------------------------
# ...
1081.00000      311.46205       68.44492        3.27062        3.45483       10.46252      146.38059
1081.50000      324.48646       76.57268        3.14277        2.99647        4.04735      145.62200
1082.00000      341.04852       89.24800        3.02009        2.71471        2.75803      144.75769
1082.50000      357.61059      101.10065        2.90309        2.65376        2.75803      144.09689
1083.00000      378.42579      110.79844        2.68823        2.57373        2.86935      143.43610
1083.50000      409.28422      110.32465        2.51334        2.48897        2.98518      143.43610
1084.00000      412.21239      102.10571        2.45481        2.44184        3.29060      143.43610
1084.50000      411.71553       91.18082        2.47567        2.44184        3.29060      142.82024
1085.00000      402.27516       86.66298        2.49413        2.44184        3.29060      142.20174
1085.50000      398.24726       86.98215        2.51533        2.44184        3.29060      141.49866
1086.00000      396.92230       90.33038        2.53408        2.45496        3.37171      140.76914
1086.50000      395.59733       93.26034        2.55561        2.46995        3.32868      140.12685
1087.00000      391.70856       97.66518        2.57059        2.48307        3.21848      139.39205
1087.50000      386.54120      101.56452        2.58440        2.50967        3.07613      139.05901
1088.00000      381.37383      104.80175        2.59813        2.54041        3.09982      139.05372
1088.50000      376.74970      102.48831        2.61034        2.56762        3.14124      139.27575
1089.00000      373.21867       97.13589        2.62436        2.59908        3.27062      139.47134
1089.50000      369.68764       90.52862        2.63653        2.65376        3.41302      139.47134
1090.00000      367.99169       89.83479        2.65069        2.74129        3.55966      139.47134
1090.50000      369.97913       91.35527        2.66315        2.76424        3.67170      139.18852
1091.00000      371.96658       94.26144        2.67729        2.74312        3.68962      138.43258
1091.50000      379.41951       96.31717        2.69167        2.71438        3.55079      138.14976
1092.00000      398.90974       97.46695        2.60145        2.64360        3.38714      138.19734
1092.50000      415.90905       98.57708        2.50204        2.56497        3.18708      138.36650
1093.00000      432.91497      100.41672        2.41817        2.49808        3.02175      138.62289
1093.50000      435.39928      100.24228        2.36388        2.42378        2.84327      138.90042
1094.00000      437.17473       95.68280        2.33328        2.35168        2.96706      139.14359
1094.50000      438.59245       87.75329        2.30701        2.29036        3.17256      139.42377
1095.00000      437.55235       86.46474        2.27715        2.25604        3.07277      139.66694
1095.50000      431.59001       89.89426        2.29175        2.25604        2.94188      139.52949
1096.00000      423.64022       97.49470        2.32732        2.27382        2.88512      139.25196
1096.50000      414.69670      101.62994        2.35885        2.35526        2.89727      139.01143
1097.00000      405.97181      104.80175        2.39532        2.51625        3.02967      138.70482
1097.50000      399.65835      104.44492        2.43250        2.63220        3.43386      138.42729
1098.00000      394.49099      102.81937        2.46545        2.64296        3.70380      138.21584
1098.50000      387.62767       96.03567        2.50372        2.64296        3.62726      138.74447
1099.00000      380.75772       90.06673        2.53747        2.66558        3.25533      139.20703
1099.50000      373.89441       84.12752        2.57639        2.69167        2.95498      139.73566
1100.00000      370.09176       78.30924        2.61097        2.72614        3.18553      139.73566
1100.50000      372.41044       72.54250        2.66720        2.81657        4.17245      139.73566
1101.00000      373.15905       70.91893        2.70811        2.90115        4.62517      139.64315
1101.50000      370.77411       70.70484        2.74446        2.96453        5.95317      139.53478
1102.00000      364.48715       74.40594        2.78655        2.94457        6.16826      139.47134
1102.50000      356.25912       82.99558        2.82395        2.92723        4.39967      139.47134
1103.00000      351.92649       89.38875        2.86726        2.90751        3.68065      139.47134
1103.50000      355.40452       95.78192        2.86168        2.89022        3.76381      140.18764
1104.00000      362.69183       99.25109        2.83566        2.86534        3.77689      141.02289
1104.50000      369.97913      101.89360        2.80989        2.83152        3.65608      141.97707
1105.00000      373.12593      106.86342        2.78757        2.80237        3.37171      142.81496
1105.50000      376.27272      113.80769        2.75735        2.76947        3.39230      143.56033
1106.00000      379.41951      120.90857        2.72697        2.74078        3.50248      144.18148
1106.50000      382.56630      125.57707        2.69266        2.70498        3.49715      144.54888
1107.00000      386.04433      128.39205        2.66315        2.67110        3.37808      144.70218
1107.50000      391.55619      124.94668        2.62964        2.63284        3.24701      144.87927
1108.00000      398.08827      120.67663        2.59655        2.59512        3.26307      145.12244
1108.50000      402.85152      117.03500        2.56793        2.54242        3.29060      145.36826
1109.00000      404.09698      114.17641        2.53562        2.48352        3.18844      145.66429
1109.50000      405.33583      111.27818        2.50783        2.43309        2.96219      146.40703
1110.00000      403.36825      109.27399        2.47628        2.42437        2.93115      146.62377
1110.50000      399.79085      106.98236        2.46740        2.48761        2.94242      146.87222
1111.00000      393.60988      107.29954        2.51013        2.56200        2.98754      146.98324
1111.50000      387.42230      106.97047        2.55359        2.63878        3.08120      147.08103
1112.00000      381.24134      106.31827        2.59228        2.70761        3.29862      147.19205
1112.50000      381.57258      105.54514        2.63733        2.76879        3.56877      147.28984
1113.00000      381.90382      105.02575        2.62916        2.79419        3.82386      147.40086
1113.50000      380.71135      106.26474        2.61097        2.76744        4.09394      147.99293
1114.00000      380.31386      108.29470        2.59512        2.69626        4.07207      148.51099
1114.50000      381.50633      111.42884        2.57718        2.62180        3.42634      149.10306
1115.00000      385.75947      112.49139        2.55919        2.58189        3.10171      149.44932
1115.50000      391.54294      112.74117        2.54366        2.54738        3.05170      149.76650
1116.00000      397.31979      112.38038        2.52607        2.50844        3.04020      149.91187
1116.50000      403.10326      110.45945        2.51074        2.47492        3.00798      148.98676
1117.00000      405.75319      109.02223        2.49337        2.44839        2.91177      147.92949
1117.50000      402.57327      108.42752        2.47824        2.49459        2.88688      147.00438
1118.00000      399.26749      109.95593        2.49854        2.54847        2.95804      146.23522
1118.50000      395.72320      111.64095        2.54211        2.60367        3.03096      145.50570
1119.00000      392.17230      111.40901        2.58094        2.65279        3.13627      144.86606
1119.50000      388.62139      106.68501        2.62596        2.71009        3.35125      144.15504
1120.00000      385.07711       94.79073        2.64071        2.74129        3.35125      143.64227
1120.50000      384.02376       82.30175        2.63605        2.76812        3.69412      143.05548
