~Version ---------------------------------------------------
VERS. 2.0 : CWLS LOG ASCII STANDARD - VERSION 2.0
WRAP. NO  : One line per depth step
DLM . SPACE : Column Data Section Delimiter
~Well ------------------------------------------------------
STRT.F           48 : START DEPTH
STOP.F       1439.0 : STOP DEPTH
STEP.F          0.5 : STEP
NULL.       -999.25 : NULL VALUE
COMP.                 WALSH & WATTS, INC. : COMPANY
WELL.                         HOWARD F 14 : WELL
FLD .             MONTAGUE COUNTY REGULAR : FIELD
CNTY.                            MONTAGUE : COUNTY
STAT.                               TEXAS : STATE
CTRY.                                 USA : COUNTRY
SEC .                                     : SECTION
TWP .                                     : TOWNSHIP
RGE .                                     : RANGE
LOC . 1430'FEL & 2600'FSL OF THE J.CHAMBLIS SURVEY A-123 : LOCATION
EKB .F                      849 : ELEVATION KELLY BUSHING
EDF .F                      848 : ELEVATION DERRICK FLOOR
EGL .F                      841 : ELEVATION GROUND LEVEL
PDAT.                        GL : PERMANENT DATUM
EPD .                       841 : ELEVATION PERMANENT DATUM
APD .                         8 : ABOVE PERMANENT DATUM
LMF .                        KB : LOG MEASURED FROM
DMF .                        KB : DRILLING MEASURED FROM
API .            42337351020000 : API NUMBER
UWI .                           : UWI NUMBER
DIGC.                     NthDS : DIGITIZING COMPANY
~Params ----------------------------------------------------
SRVC.                   PIONEER : LOGGING COMPANY
LOG .                      CNFD : LOG
DATE.                2013-08-01 : RUN DATE
RUN .                         1 : RUN NUMBER
TDD .F                     1450 : TOTAL DEPTH DRILLER
TDL .F                     1449 : TOTAL DEPTH LOGGER
BOTL.F                     1429 : BOTTOM LOGGED INTERVAL
TOPL.F                       50 : TOP LOGGED INTERVAL
CSGS.IN                         : CASING SIZE
CSGD.F                          : CASING DRILLER
CSGL.F                          : CASING LOGGER
BS  .IN                   7.875 : BIT SIZE
MUD .                       GEL : MUD TYPE
MUDD.                       9.2 : MUD DENSITY
MUDV.                        75 : MUD VISCOSITY
PH  .                           : MUD PH
FL  .                           : FLUID LOSS
MUDS.                  FLOWLINE : SOURCE OF SAMPLE
RM  .OHMM                   2.8 : MUD RESISTIVITY
RMT .DEGF                    72 : RM TEMPERATURE
RMF .OHMM                   2.1 : MUD FILTRATE RESISTIVITY
RMFT.DEGF                    72 : RMF TEMPERATURE
RMC .OHMM                   3.5 : MUD CAKE RESISTIVITY
RMCT.DEGF                    72 : RMC TEMPERATURE
RMFS.                      CALC : RMF SOURCE
RMCS.                      CALC : RMC SOURCE
RMBH.OHMM                   2.3 : MUD RESISTIVITY AT BHT
BHT .DEGF                    87 : BOTTOM HOLE TEMPERATURE
TIMC.           0130 2018-08-01 : TIME CIRCULATION STOPPED
TIML.           0400 2018-08-01 : TIME LOGGER ON BOTTOM
TMAX.DEGF                    87 : MAXIMUM RECORDED TEMPERATURE
UNIT.                     C-052 : EQUIPMENT NUMBER
BASE.                GRAHAM, TX : BASE LOCATION
ENG .                    WENDEL : RECORDED BY
WIT .                  BURLESON : WITNESSED BY
~Curve Information -----------------------------------------
DEPT.F          :DEPTH
CALD.IN         :
DPHI.%          :
GRD.GAPI        :
MINV.OHMM       :
MNOR.OHMM       :
NPHI.%          :
RHOC.G/CC       :
~ASCII ------------------------------------------------------
# ...
223.50000        9.37214       23.78552       96.59189        5.24650        4.88868       24.76150       -0.00312
224.00000        9.38789       24.50046       95.49703        5.53927        3.86656       27.16774       -0.00668
224.50000        9.39325       23.93217       94.12593        3.66598        3.19907       28.15472        0.00796
225.00000        9.39230       22.78644       94.13199        4.74274        3.34275       27.72686        0.02259
225.50000        9.39123       21.63336       95.51317        3.10799        2.80472       25.02438        0.04086
226.00000        9.39010       21.82402       97.17059        3.00077        3.08804       23.08891        0.06641
226.50000        9.38904       22.74867       98.27654        3.26418        2.90564       23.61503        0.09922
227.00000        9.38809       23.79468      101.03487        3.57150        3.19041       25.57764        0.09567
227.50000        9.38684       23.66453      103.79218        3.87882        3.47446       27.21357        0.05939
228.00000        9.38589       23.02658      107.10097        3.66224        3.15315       27.65353        0.03403
228.50000        9.38465       22.79560      108.75738        3.09174        3.00302       27.62750        0.03412
229.00000        9.38370       22.83226      108.21297        3.14789        2.97480       27.09551        0.06329
229.50000        9.38263       22.92392      107.66756        3.37666        3.23121       26.44363        0.08520
230.00000        9.38169       23.58900      107.12316        3.50580        3.37853       26.21962        0.05256
230.50000        9.38044       24.89863      106.85298        2.96195        2.94377       26.38240        0.03083
231.00000        9.38077       28.61742      107.95994        2.94563        3.24454       26.54446        0.06002
231.50000        9.38118       30.00000      107.96498        3.43232        3.87668       26.65151        0.08919
232.00000        9.37418       30.00000      107.14535        3.34909        3.76509       27.10358        0.08201
232.50000        9.24430       30.00000      105.77426        3.42369        3.48914       27.86141        0.10754
233.00000        9.12538       30.00000      103.30326        3.24347        3.31620       27.21357        0.12582
233.50000        9.43770       30.00000      100.83126        3.18497        3.15443       26.05243        0.14046
234.00000        9.48208       30.00000      102.21345        2.91457        2.76694       25.79432        0.14054
234.50000        8.94303       30.00000      106.34691        2.95789        2.40517       25.95490        0.11881
235.00000        8.93640       28.70614      111.85751        3.51757        2.64485       26.29698        0.08980
235.50000        8.92818       22.23795      111.58732        3.56136        2.41591       25.49038        0.04989
236.00000        8.90209       20.18625      107.18974        2.59959        2.23596       24.43043        0.04635
236.50000        8.87112       21.53291      104.71774        3.32846        2.89210       23.54721        0.10607
237.00000        8.87146       24.03043      106.65038        3.94850        3.22123       22.67938        0.19198
237.50000        8.87186       26.11146      109.13247        4.29218        4.64127       22.57782        0.19206
238.00000        8.87220       27.55270      107.21193        3.84288        4.84287       23.80385        0.14852
238.50000        8.87260       26.92026      103.08856        5.34073        6.73272       25.47828        0.10134
239.00000        8.87293       23.50284       98.96620        5.93168        6.86477       26.64161        0.07596
239.50000        8.82618       19.40165       97.87034        6.26274        6.85400       26.65151        0.07606
240.00000        8.82340       17.22897      100.07821        4.47334        4.92643       25.93364        0.08704
240.50000        8.83096       19.12411      101.45939        2.91641        2.76077       24.69368        0.15321
241.00000        8.83717       20.99065      101.74067        4.21717        4.23826       24.17049        0.19268
241.50000        8.84454       22.89643      101.74572        3.96423        3.92787       23.81852        0.18095
242.00000        8.85093       23.92777      101.75177        3.95882        4.18427       22.77727        0.10922
242.50000        8.85721       26.12722      100.93113        3.71342        3.88287       21.22530        0.11657
243.00000        8.85755       29.05885      100.93718        3.65174        3.26629       20.79743        0.15303
243.50000        8.85795       30.00000      100.66700        3.62961        4.21361       21.38405        0.16040
244.00000        8.85829       30.00000       98.47123        4.39438        4.59147       20.87993        0.12775
244.50000        8.94438       28.16132       95.99923        5.26361        5.91233       19.83501        0.09875
245.00000        8.98746       23.56407       96.28051        8.94254        8.82327       19.94097        0.12065
245.50000        8.98787       18.04766       98.21214        8.83895        9.46949       20.36077        0.17285
246.00000        8.98820       16.39780      100.69524        8.30746        8.36565       19.99084        0.16229
246.50000        8.98861       15.78369      102.35165        6.81843        7.47297       19.33089        0.10274
247.00000        8.98894       16.55656      105.38521        7.00185        7.32039       19.36755        0.07374
247.50000        8.98935       17.72979      107.86730        6.71281        7.00371       19.41155        0.06291
248.00000        8.98968       18.29368      108.42381        7.87803       10.08119       19.35839        0.03391
248.50000        8.99009       18.41430      105.12612        8.53444        9.85952       18.23098        0.02673
249.00000        8.99042       18.13932       99.07717       10.80538       12.07592       16.76444        0.05227
249.50000        8.99083       18.04033       97.15562        8.90154        9.55608       16.17782        0.04509
250.00000        8.95418       18.52429       96.33162       10.29619       11.27291       16.59579        0.02910
250.50000        8.95458       19.37729       94.96053       11.20179       11.56542       17.71758        0.02554
251.00000        8.95491       20.25641       91.66385        9.72095       10.05185       18.80257        0.02197
251.50000        8.95532       21.31136       89.74231        7.40448        7.93175       19.67033        0.01842
252.00000        8.95565       22.06960       91.95018        4.86064        5.38791       19.58645        0.02212
252.50000        8.95606       21.36813       96.90932        4.89470        6.91651       19.43846        0.05493
253.00000        8.95639       19.56923      102.41992        5.72539        6.84538       19.74359        0.09136
253.50000        8.95680       17.40989      104.62678        5.07000        5.67508       20.74322        0.11689
254.00000        8.95713       15.97070      106.55943        5.05414        5.28978       22.10366        0.10605
254.50000        8.95754       16.78865      109.04152        7.12819        6.66783       23.73626        0.06976
255.00000        8.95787       18.86447      112.90075        8.08760        8.32105       24.10659        0.04438
255.50000        8.95821       21.35531      114.28193        5.85549        7.03803       24.79048        0.02264
256.00000        8.95861       22.67399      112.08617        3.41466        4.69855       25.27473        0.02998
256.50000        8.95895       22.41209      109.06371        4.94861        5.31225       25.00916        0.09188
257.00000        8.95935       21.79194      105.76703        6.03311        6.71165       24.13919        0.11740
257.50000        8.95969       21.16300      105.49685        4.13846        5.94935       23.82528        0.12111
258.00000        8.96009       21.16813      108.80563        4.25470        4.93979       24.82308        0.12482
