~Version ---------------------------------------------------
VERS. 2.0 : CWLS LOG ASCII STANDARD - VERSION 2.0
WRAP. NO  : One line per depth step
DLM . SPACE : Column Data Section Delimiter
~Well ------------------------------------------------------
STRT.F         48.5 : START DEPTH
STOP.F       1455.5 : STOP DEPTH
STEP.F          0.5 : STEP
NULL.       -999.25 : NULL VALUE
COMP.                 WALSH & WATTS, INC. : COMPANY
WELL.                         HOWARD F 25 : WELL
FLD .                            MONTAGUE : FIELD
CNTY.                            MONTAGUE : COUNTY
STAT.                               TEXAS : STATE
CTRY.                                 USA : COUNTRY
SEC .                                     : SECTION
TWP .                                     : TOWNSHIP
RGE .                                     : RANGE
LOC . 1115'FEL & 2300'FSL OF THE J.CHAMBLIS SURVEY A-123 : LOCATION
EKB .F                      512 : ELEVATION KELLY BUSHING
EDF .F                      511 : ELEVATION DERRICK FLOOR
EGL .F                      505 : ELEVATION GROUND LEVEL
PDAT.                        GL : PERMANENT DATUM
EPD .                       505 : ELEVATION PERMANENT DATUM
APD .                         7 : ABOVE PERMANENT DATUM
LMF .                        KB : LOG MEASURED FROM
DMF .                        KB : DRILLING MEASURED FROM
API .            42337343120000 : API NUMBER
UWI .                           : UWI NUMBER
DIGC.                     NthDS : DIGITIZING COMPANY
~Params ----------------------------------------------------
SRVC. PIONEER WIRELINE SERVICES : LOGGING COMPANY
LOG .                      DIFL : LOG
DATE.                2010-10-07 : RUN DATE
RUN .                         1 : RUN NUMBER
TDD .F                     1450 : TOTAL DEPTH DRILLER
TDL .F                     1452 : TOTAL DEPTH LOGGER
BOTL.F                     1452 : BOTTOM LOGGED INTERVAL
TOPL.F                       50 : TOP LOGGED INTERVAL
CSGS.IN                         : CASING SIZE
CSGD.F                          : CASING DRILLER
CSGL.F                          : CASING LOGGER
BS  .IN                   7.875 : BIT SIZE
MUD .                  GEL-CHEM : MUD TYPE
MUDD.                           : MUD DENSITY
MUDV.                           : MUD VISCOSITY
PH  .                           : MUD PH
FL  .                           : FLUID LOSS
MUDS.                  FLOWLINE : SOURCE OF SAMPLE
RM  .OHMM                   4.0 : MUD RESISTIVITY
RMT .DEGF                    72 : RM TEMPERATURE
RMF .OHMM                   3.0 : MUD FILTRATE RESISTIVITY
RMFT.DEGF                    72 : RMF TEMPERATURE
RMC .OHMM                   5.0 : MUD CAKE RESISTIVITY
RMCT.DEGF                    72 : RMC TEMPERATURE
RMFS.                      CALC : RMF SOURCE
RMCS.                      CALC : RMC SOURCE
RMBH.OHMM                     3 : MUD RESISTIVITY AT BHT
BHT .DEGF                    88 : BOTTOM HOLE TEMPERATURE
TIMC.           0730 2010-10-07 : TIME CIRCULATION STOPPED
TIML.           1020 2010-10-07 : TIME LOGGER ON BOTTOM
TMAX.DEGF                    88 : MAXIMUM RECORDED TEMPERATURE
UNIT.                      M-19 : EQUIPMENT NUMBER
BASE.                GRAHAM, TX : BASE LOCATION
ENG .                    WENDEL : RECORDED BY
WIT .           WOMBLE/BURLESON : WITNESSED BY
~Curve Information -----------------------------------------
DEPT.F          :DEPTH
CILD.MMHO       :
GRR.GAPI        :
RILD.OHMM       :
RILM.OHMM       :
RSFL.OHMM       :
SP.MV           :
~ASCII ------------------------------------------------------
# ...
1329.50000      297.59927       70.47530        3.40884        3.70692        5.24002      130.53014
1330.00000      318.46101       77.33088        3.18378        3.44178        4.03286      130.53014
1330.50000      349.74904       83.91223        2.92560        3.23532        3.46371      130.53014
1331.00000      370.61077       89.67091        2.72369        3.09112        3.55193      130.89577
1331.50000      382.42589       91.31625        2.63064        3.01134        3.55140      130.89577
1332.00000      386.56489       87.20291        2.57177        2.93576        3.55078      131.26140
1332.50000      386.20786       85.28334        2.56200        2.89586        3.55015      131.62703
1333.00000      385.85082       79.25044        2.55385        2.86286        3.54962      131.62703
1333.50000      385.87875       77.33088        2.55340        2.86453        3.60943      131.62703
1334.00000      386.50726       75.95976        2.55295        2.88636        3.60890      131.62703
1334.50000      386.92015       75.95976        2.55257        2.89961        3.54785      130.89577
1335.00000      387.34221       78.15355        2.55212        2.90596        3.63820      130.89577
1335.50000      387.42513       78.97622        2.55174        2.91142        3.82667      130.16450
1336.00000      387.04540       79.25044        2.55129        2.91780        3.60645      130.16450
1336.50000      386.78920       77.87932        2.56271        2.92246        3.76127      130.53014
1337.00000      386.75296       77.87932        2.57209        2.92523        3.85718      130.53014
1337.50000      386.92755       78.42777        2.58360        2.92842        3.69710      130.53014
1338.00000      387.10213       79.25044        2.59101        2.93186        3.69656      131.26140
1338.50000      387.37317       78.15355        2.58058        2.93465        3.69590      131.62703
1339.00000      387.54775       77.87932        2.56839        2.93810        3.69525      131.62703
1339.50000      387.33737       82.63161        2.55806        2.94089        3.69471      131.99266
1340.00000      386.73286       87.66086        2.54963        2.95730        3.72537      131.91222
1340.50000      380.45954       93.69376        2.55996        2.97631        3.75629      132.39851
1341.00000      376.28038       98.99449        2.56868        2.99250        3.81969      132.88480
1341.50000      372.10122       98.72027        2.61924        3.01174        3.88404      133.29430
1342.00000      363.86162       94.26415        2.67103        3.04864        3.88347      133.45518
1342.50000      355.62202       87.75135        2.71473        3.10000        3.98237      133.45518
1343.00000      335.99415       85.28334        2.84805        3.19698        4.11842      133.08955
1343.50000      313.21763       84.18645        2.97844        3.29932        4.22343      131.99266
1344.00000      290.45028       85.00912        3.14244        3.50695        4.69939      130.89577
1344.50000      267.67376       85.55757        3.48449        3.76189        4.97338      130.16450
1345.00000      248.04110       82.34642        3.79792        4.34717        5.16940      129.06761
1345.50000      228.40844       74.27603        4.21132        5.08410        6.40617      127.97072
1346.00000      208.77578       65.65721        4.59012        5.79253        9.49020      126.87383
1346.50000      192.81859       55.44789        5.08030        6.75790       14.96904      126.50820
1347.00000      180.51856       46.70840        5.52700        7.60461       19.11793      126.14257
1347.50000      162.06391       43.60145        6.06837        8.57160       19.77162      125.77694
1348.00000      152.94440       41.62705        6.65265        9.12050       18.63378      125.41131
1348.50000      146.99624       40.58500        6.84132        9.77663       19.43372      125.41131
1349.00000      143.29370       41.68189        6.92026        9.59828       20.78848      125.41131
1349.50000      141.83678       45.52101        6.96143        9.31430       19.92573      124.68005
1350.00000      140.10259       51.00547        7.11730        9.17968       16.47335      124.68005
1350.50000      141.94366       57.77055        7.02658        8.85489       13.45260      124.68005
1351.00000      143.78473       65.72302        6.95597        8.66958       11.95220      125.41131
1351.50000      145.01225       72.30437        6.89110        8.51300       11.36039      126.14257
1352.00000      145.37461       75.95976        6.85935        8.38421       10.52840      127.23946
1352.50000      144.86223       75.95976        6.92791        8.54333       10.09185      128.33635
1353.00000      144.34985       75.13709        6.95244        8.67860       11.07133      129.43324
1353.50000      143.83747       72.94331        6.93618        8.80609       12.35213      129.79887
1354.00000      142.93612       67.18463        6.91627        8.75344       12.45455      130.16450
1354.50000      142.33216       65.26507        6.90010        8.71018       12.45272      130.16450
1355.00000      141.73736       66.63618        7.01624        8.65737       11.93638      130.53014
1355.50000      140.83601       67.45885        7.13434        8.61458       10.34041      130.16450
1356.00000      140.23206       69.10419        7.15498        8.74114        9.50236      129.79887
1356.50000      140.97424       69.65264        7.17971        9.05473       10.96542      129.06761
1357.00000      141.71642       68.82997        7.14302        9.05569       11.34001      128.33635
1357.50000      142.82969       68.28152        6.99865        8.90790       12.23217      127.60509
1358.00000      143.57187       68.28152        6.96582        8.75761       12.12765      126.50820
1358.50000      143.71882       69.65264        6.99520        8.58060       11.23914      126.14257
1359.00000      143.27054       67.45885        7.02471        8.57908       10.24180      125.04568
1359.50000      143.05599       65.81351        7.04979        8.57782        9.90028      124.31441
1360.00000      143.06558       63.07128        7.06998        8.50141       10.23818      124.31441
1360.50000      143.07517       60.87750        7.07908        8.40675       11.51969      123.21752
1361.00000      143.08955       59.23216        7.08978        8.29540       13.07099      122.85189
1361.50000      143.09914       58.13527        7.10049        8.18483       12.85046      122.12063
1362.00000      143.10873       58.68372        7.10903        8.12928       13.17744      121.02374
1362.50000      143.73187       63.34551        7.10598        8.09023       13.39924      119.92685
1363.00000      144.66199       65.53929        7.04526        8.19755       12.31364      118.82995
1363.50000      145.27596       68.28152        6.97308        8.44380       10.40040      117.73306
1364.00000      145.89910       69.65264        6.90164        8.65525       10.31153      117.36743
1364.50000      150.78957       68.00730        6.70555        8.70276        9.55608      117.00180
1365.00000      158.12986       63.52924        6.30828        8.54270        8.70783      117.36743
1365.50000      170.65760       53.38299        5.74317        8.04768       10.30637      118.82995
1366.00000      200.89134       45.89670        5.15105        7.23076       14.56168      120.65811
1366.50000      221.04717       41.57769        4.63754        5.97531       14.68285      122.48626
1367.00000      241.20301       40.03655        4.24889        5.09752       15.44228      124.31441
1367.50000      260.08160       44.22394        3.98437        4.21246       15.18174      125.41131
1368.00000      268.88228       55.14350        3.73633        3.89628       10.65123      126.87383
1368.50000      277.68295       65.49267        3.57758        3.65105        6.92645      128.33635
1369.00000      290.88397       80.16360        3.45829        3.50586        4.50425      130.16450
