~Version ---------------------------------------------------
VERS. 2.0 : CWLS LOG ASCII STANDARD - VERSION 2.0
WRAP. NO  : One line per depth step
DLM . SPACE : Column Data Section Delimiter
~Well ------------------------------------------------------
STRT.F         48.5 : START DEPTH
STOP.F       1455.5 : STOP DEPTH
STEP.F          0.5 : STEP
NULL.       -999.25 : NULL VALUE
COMP.                 WALSH & WATTS, INC. : COMPANY
WELL.                         HOWARD F 25 : WELL
FLD .                            MONTAGUE : FIELD
CNTY.                            MONTAGUE : COUNTY
STAT.                               TEXAS : STATE
CTRY.                                 USA : COUNTRY
SEC .                                     : SECTION
TWP .                                     : TOWNSHIP
RGE .                                     : RANGE
LOC . 1115'FEL & 2300'FSL OF THE J.CHAMBLIS SURVEY A-123 : LOCATION
EKB .F                      512 : ELEVATION KELLY BUSHING
EDF .F                      511 : ELEVATION DERRICK FLOOR
EGL .F                      505 : ELEVATION GROUND LEVEL
PDAT.                        GL : PERMANENT DATUM
EPD .                       505 : ELEVATION PERMANENT DATUM
APD .                         7 : ABOVE PERMANENT DATUM
LMF .                        KB : LOG MEASURED FROM
DMF .                        KB : DRILLING MEASURED FROM
API .            42337343120000 : API NUMBER
UWI .                           : UWI NUMBER
DIGC.                     NthDS : DIGITIZING COMPANY
~Params ----------------------------------------------------
SRVC. PIONEER WIRELINE SERVICES : LOGGING COMPANY
LOG .                      DIFL : LOG
DATE.                2010-10-07 : RUN DATE
RUN .                         1 : RUN NUMBER
TDD .F                     1450 : TOTAL DEPTH DRILLER
TDL .F                     1452 : TOTAL DEPTH LOGGER
BOTL.F                     1452 : BOTTOM LOGGED INTERVAL
TOPL.F                       50 : TOP LOGGED INTERVAL
CSGS.IN                         : CASING SIZE
CSGD.F                          : CASING DRILLER
CSGL.F                          : CASING LOGGER
BS  .IN                   7.875 : BIT SIZE
MUD .                  GEL-CHEM : MUD TYPE
MUDD.                           : MUD DENSITY
MUDV.                           : MUD VISCOSITY
PH  .                           : MUD PH
FL  .                           : FLUID LOSS
MUDS.                  FLOWLINE : SOURCE OF SAMPLE
RM  .OHMM                   4.0 : MUD RESISTIVITY
RMT .DEGF                    72 : RM TEMPERATURE
RMF .OHMM                   3.0 : MUD FILTRATE RESISTIVITY
RMFT.DEGF                    72 : RMF TEMPERATURE
RMC .OHMM                   5.0 : MUD CAKE RESISTIVITY
RMCT.DEGF                    72 : RMC TEMPERATURE
RMFS.                      CALC : RMF SOURCE
RMCS.                      CALC : RMC SOURCE
RMBH.OHMM                     3 : MUD RESISTIVITY AT BHT
BHT .DEGF                    88 : BOTTOM HOLE TEMPERATURE
TIMC.           0730 2010-10-07 : TIME CIRCULATION STOPPED
TIML.           1020 2010-10-07 : TIME LOGGER ON BOTTOM
TMAX.DEGF                    88 : MAXIMUM RECORDED TEMPERATURE
UNIT.                      M-19 : EQUIPMENT NUMBER
BASE.                GRAHAM, TX : BASE LOCATION
ENG .                    WENDEL : RECORDED BY
WIT .           WOMBLE/BURLESON : WITNESSED BY
~Curve Information -----------------------------------------
DEPT.F          :DEPTH
CILD.MMHO       :
GRR.GAPI        :
RILD.OHMM       :
RILM.OHMM       :
RSFL.OHMM       :
SP.MV           :
~ASCII ------------------------------------------------------
# ...
409.50000       89.25157       81.44422       11.37905       13.16398       13.09084      156.48991
410.00000       90.40583       82.26689       11.16519       13.60145       14.62320      156.12428
410.50000       91.56009       82.26689       10.84095       13.27464       15.40625      156.12428
411.00000       92.71436       82.26689       10.52523       12.79265       15.27403      156.12428
411.50000       99.78908       83.08956       10.27003       12.04257       14.39546      156.12428
412.00000      104.51473       84.46068        9.76106       11.20010       13.56701      156.12428
412.50000      109.23121       90.76780        9.27731       10.35344       12.36169      156.12428
413.00000      113.94769       92.41314        8.93017        9.64895       11.55269      156.48991
413.50000      121.03158       92.96159        8.53070        8.86625       10.79632      156.48991
414.00000      125.74806       92.68736        8.14910        8.37932        9.97681      156.85554
414.50000      127.75396       92.96159        7.89733        8.03180        8.74741      156.85554
415.00000      129.75986       94.05848        7.69847        7.89593        8.51923      157.22117
415.50000      132.77787       95.15537        7.53191        7.92793        8.66302      157.22117
416.00000      134.78377       95.42959        7.39597        7.98250        9.11151      157.22117
416.50000      136.78966       95.42959        7.34861        7.84747        9.66447      157.22117
417.00000      135.98425       94.88115        7.40357        7.89681        9.26365      157.58680
417.50000      134.78070       93.78426        7.43671        8.00549        9.03039      157.22117
418.00000      133.97528       93.23581        7.43539        8.15343        8.95289      157.22117
418.50000      133.16987       93.51003        7.39237        8.28614        9.41667      157.58680
419.00000      136.02740       94.05848        7.26732        8.14391       10.24434      157.22117
419.50000      140.31828       95.15537        7.14438        7.71747       10.95849      157.22117
420.00000      143.17582       96.25226        7.06357        7.37931        9.90097      156.85554
420.50000      146.03335       93.23581        6.97346        7.14870        8.79574      157.22117
421.00000      146.04294       92.13892        6.90798        7.09115        8.50243      156.85554
421.50000      146.05733       90.21936        6.83714        7.02259        7.87897      156.85554
422.00000      147.89839       91.31625        6.92130        7.08864        7.74546      156.85554
422.50000      149.73946       92.68736        6.81591        7.20038        8.28565      156.85554
423.00000      151.58053       94.33270        6.63308        7.33716        9.64370      156.48991
423.50000      152.90878       94.88115        6.48902        7.20574        9.40087      156.13159
424.00000      154.15025       91.59047        6.51331        7.05421        9.24211      156.17912
424.50000      154.97485       89.94514        6.52096        6.87658        9.00939      156.21934
425.00000      155.79945       88.02557        6.42636        6.70343        8.49116      156.26688
425.50000      157.29253       89.94514        6.34831        6.56247        7.86852      156.31441
426.00000      160.55779       90.76780        6.25464        6.58906        7.73542      156.35463
426.50000      162.72852       91.86470        6.17711        6.64394        7.79985      156.40216
427.00000      164.89925       93.23581        6.08545        6.61144        7.99850      156.44238
427.50000      167.07914       97.62338        5.99514        6.42431        8.41259      156.48991
428.00000      165.32615       98.17182        5.95894        6.27279        7.99591      156.53744
428.50000      163.30280       98.17182        5.98309        6.20165        7.59964      156.57766
429.00000      161.27030       97.62338        6.05468        6.34726        7.66271      156.62519
429.50000      159.24695       97.34916        6.19598        6.47130        7.85810      156.66541
430.00000      157.22360       96.52649        6.36989        6.83800        8.26492      156.71294
430.50000      149.74724       94.60693        6.51854        7.15891        9.30044      156.76048
431.00000      144.75690       93.23581        6.73895        7.25498       10.64359      156.80070
431.50000      139.77572       92.68736        7.03656        7.35234       10.28835      156.84823
432.00000      134.78538       90.76780        7.33886        7.65526        9.29578      156.44969
432.50000      129.80419       85.83179        7.71880        8.46992        9.26828      156.48991
433.00000      127.07136       83.91223        7.94886        9.11484       10.19706      156.48991
433.50000      125.24948       84.46068        8.00358        9.44454       11.09332      156.48991
434.00000      123.42759       85.83179        8.07000        9.78700       11.86630      156.85554
434.50000      122.97931       85.83179        8.10089       10.06370       11.56784      156.48991
435.00000      124.36730       85.83179        8.01782       10.00770       12.47879      156.48991
435.50000      125.29263       86.10601        7.93560        9.38967       14.60693      156.48991
436.00000      126.21796       88.02557        7.78975        8.50818       13.68868      156.48991
436.50000      129.13044       89.94514        7.55842        8.02125       10.27139      156.48991
437.00000      133.49458       96.25226        7.33335        7.79884        8.97204      156.12428
437.50000      136.39790       97.89760        7.15131        7.62389        9.51681      156.12428
438.00000      139.31038       98.44605        6.93836        7.41938       10.00951      155.39302
438.50000      142.22286       98.72027        7.05585        7.30065        9.75775      155.39302
439.00000      140.32335       97.34916        7.21137        7.21563        9.28278      155.75865
439.50000      136.98134       96.52649        7.40253        7.79043        8.62609      156.12428
440.00000      133.63017       95.97804        7.56569        8.59284        9.03930      156.12428
440.50000      130.27900       90.27694        7.75052        9.64226       12.24747      156.48991
441.00000      126.93699       83.10876        7.90776        9.86782       14.01664      156.48991
441.50000      123.13274       79.52466        8.04122        9.74798       14.25278      156.12428
442.00000      122.22660       81.99267        8.20435        9.26488       14.37107      156.12428
442.50000      121.32045       86.92868        8.26965        8.93327       13.09470      155.39302
443.00000      121.38498       86.92868        8.27612        8.79699       11.15214      155.02739
443.50000      122.41104       84.73490        8.13612        8.66572       10.24751      155.02739
444.00000      123.94555       85.55757        8.02103        8.56047       10.77835      154.66176
444.50000      124.97161       91.59047        7.96564        8.43629       10.50694      154.66176
445.00000      124.57827       92.68736        7.91062        8.49626        9.73649      154.66176
445.50000      122.75639       92.41314        7.89145        8.79716        9.90082      154.66176
446.00000      122.22133       87.20291        7.91474        9.25260       11.71983      154.66176
446.50000      122.59721       83.91223        7.93876        9.40876       13.07735      154.29613
447.00000      121.87421       81.17000        8.06390        9.24960       13.87098      154.29613
447.50000      120.05233       80.62155        8.30425        8.94089       13.07272      153.93050
448.00000      117.31950       81.17000        8.51025        8.86442       11.32333      153.93050
448.50000      115.49761       83.08956        8.76390        9.33043        9.16725      153.56486
449.00000      113.67572       85.83179        8.86802        9.95029        9.48042      153.56486
