~Version ---------------------------------------------------
VERS. 2.0 : CWLS LOG ASCII STANDARD - VERSION 2.0
WRAP. NO  : One line per depth step
DLM . SPACE : Column Data Section Delimiter
~Well ------------------------------------------------------
STRT.F           11 : START DEPTH
STOP.F       1399.0 : STOP DEPTH
STEP.F          0.5 : STEP
NULL.       -999.25 : NULL VALUE
COMP.                 WALSH & WATTS, INC. : COMPANY
WELL.                      HOWARD AB E 4E : WELL
FLD .             MONTAGUE COUNTY REGULAR : FIELD
CNTY.                            MONTAGUE : COUNTY
STAT.                                     : STATE
CTRY.                                 USA : COUNTRY
SEC .                                     : SECTION
TWP .                                     : TOWNSHIP
RGE .                                     : RANGE
LOC . 3250'FEL & 1590'FSL OF THE J.CHAMBLIS SURVEY A-123 : LOCATION
EKB .F                          : ELEVATION KELLY BUSHING
EDF .F                          : ELEVATION DERRICK FLOOR
EGL .F                          : ELEVATION GROUND LEVEL
PDAT.                        GL : PERMANENT DATUM
EPD .                           : ELEVATION PERMANENT DATUM
APD .                         8 : ABOVE PERMANENT DATUM
LMF .                        KB : LOG MEASURED FROM
DMF .                        KB : DRILLING MEASURED FROM
API .            42337348780000 : API NUMBER
UWI .                           : UWI NUMBER
DIGC.                     NthDS : DIGITIZING COMPANY
~Params ----------------------------------------------------
SRVC. PIONEER WIRELINE SERVICES : LOGGING COMPANY
LOG .                      DIFL : LOG
DATE.                2012-08-01 : RUN DATE
RUN .                         1 : RUN NUMBER
TDD .F                     1400 : TOTAL DEPTH DRILLER
TDL .F                     1396 : TOTAL DEPTH LOGGER
BOTL.F                     1394 : BOTTOM LOGGED INTERVAL
TOPL.F                       50 : TOP LOGGED INTERVAL
CSGS.IN                         : CASING SIZE
CSGD.F                          : CASING DRILLER
CSGL.F                          : CASING LOGGER
BS  .IN                   7.875 : BIT SIZE
MUD .                  CHEM-GEL : MUD TYPE
MUDD.                           : MUD DENSITY
MUDV.                           : MUD VISCOSITY
PH  .                           : MUD PH
FL  .                           : FLUID LOSS
MUDS.                  FLOWLINE : SOURCE OF SAMPLE
RM  .OHMM                   2.4 : MUD RESISTIVITY
RMT .DEGF                    73 : RM TEMPERATURE
RMF .OHMM                   1.8 : MUD FILTRATE RESISTIVITY
RMFT.DEGF                    73 : RMF TEMPERATURE
RMC .OHMM                   3.0 : MUD CAKE RESISTIVITY
RMCT.DEGF                    73 : RMC TEMPERATURE
RMFS.                      CALC : RMF SOURCE
RMCS.                      CALC : RMC SOURCE
RMBH.OHMM                   2.0 : MUD RESISTIVITY AT BHT
BHT .DEGF                    86 : BOTTOM HOLE TEMPERATURE
TIMC.           0200 2012-08-01 : TIME CIRCULATION STOPPED
TIML.           0430 2012-08-01 : TIME LOGGER ON BOTTOM
TMAX.DEGF                    86 : MAXIMUM RECORDED TEMPERATURE
UNIT.                       110 : EQUIPMENT NUMBER
BASE.                GRAHAM, TX : BASE LOCATION
ENG .                    WENDEL : RECORDED BY
WIT .           OVERBY/BURLESON : WITNESSED BY
~Curve Information -----------------------------------------
DEPT.F          :DEPTH
CILD.MMHO       :
GRR.GAPI        :
ILD.OHMM        :
ILM.OHMM        :
SFL.OHMM        :
SP.MV           :
~ASCII ------------------------------------------------------
# ...
1092.50000      395.93566      126.47998        2.47172        2.59672        2.60007      190.97864
1093.00000      386.13591      130.59998        2.57688        2.64253        2.64302      192.39997
1093.50000      376.32948      133.88598        2.66337        2.68404        2.68108      193.61864
1094.00000      374.59097      134.79998        2.73089        2.71419        2.71419      194.98931
1094.50000      376.87641      132.19998        2.73408        2.71419        2.71419      195.71464
1095.00000      378.07592      130.99998        2.69824        2.65374        2.67008      195.74397
1095.50000      377.08357      132.44398        2.66713        2.58511        2.61174      195.59997
1096.00000      379.08920      135.79998        2.63218        2.52538        2.55076      195.75197
1096.50000      381.09483      137.86598        2.64659        2.50608        2.53423      195.75464
1097.00000      381.76803      136.99998        2.65929        2.50608        2.56410      195.36264
1097.50000      381.77500      134.33398        2.68421        2.56835        2.61014      194.91197
1098.00000      376.89860      131.15998        2.71186        2.61784        2.62991      194.03731
1098.50000      372.01553      126.25398        2.74366        2.63218        2.63218      192.81864
1099.00000      367.13913      122.99998        2.75699        2.65749        2.63929      192.66664
1099.50000      364.74772      122.69998        2.76461        2.70421        2.66631      192.86664
1100.00000      367.59003      124.67198        2.76461        2.75108        2.67779      194.05597
1100.50000      375.28976      127.89998        2.68882        2.75327        2.64838      195.58664
1101.00000      382.98950      131.89998        2.64756        2.66468        2.65114      197.54397
1101.50000      394.71846      135.39998        2.57324        2.58940        2.66059      199.37064
1102.00000      406.44078      137.88598        2.45916        2.50608        2.62411      200.13331
1102.50000      414.59264      139.62198        2.42738        2.45193        2.53703      199.53331
1103.00000      415.59693      142.59998        2.40366        2.40558        2.39865      198.31997
1103.50000      415.60622      146.05398        2.38310        2.37624        2.26477      197.99997
1104.00000      418.10651      148.71998        2.38310        2.41549        2.19768      198.59997
1104.50000      418.18662      148.99998        2.40558        2.45283        2.22906      198.98931
1105.00000      417.04997      145.05398        2.44157        2.47187        2.32104      198.77597
1105.50000      416.96385      141.59998        2.40957        2.44682        2.45434      198.53331
1106.00000      416.41895      141.49998        2.38603        2.41831        2.51116      198.35464
1106.50000      410.77435      143.89998        2.41060        2.40071        2.53189      197.64531
1107.00000      406.59916      146.19998        2.45027        2.41090        2.44697      197.13331
1107.50000      405.35613      146.46598        2.47111        2.43499        2.33963      196.64264
1108.00000      404.11975      144.77798        2.45735        2.45479        2.31393      196.47197
1108.50000      405.03761      139.79998        2.43528        2.46793        2.33777      195.81597
1109.00000      401.34114      135.13398        2.44157        2.48312        2.38281      194.99997
1109.50000      391.27935      129.79998        2.53500        2.52988        2.43200      193.54397
1110.00000      379.12549      125.39998        2.64610        2.63719        2.49994      191.81064
1110.50000      361.84532      120.59998        2.74433        2.78539        2.56520      189.73331
1111.00000      344.56516      115.58598        2.85075        2.94553        2.73811      187.86664
1111.50000      339.84476      108.61398        2.92159        3.01022        2.93237      186.90131
1112.00000      336.74669      103.02798        2.96985        3.01798        3.13194      187.19464
1112.50000      333.65526       99.39998        2.99419        2.99952        3.10648      187.70664
1113.00000      335.13828       99.79998        2.97058        2.97843        2.94643      188.21864
1113.50000      338.90852      105.99998        2.92410        2.96366        2.72253      188.66664
1114.00000      342.68540      115.39998        2.88401        2.95168        2.63072      189.37864
1114.50000      349.26812      123.39998        2.83888        2.92643        2.59481      189.99997
1115.00000      357.25376      132.88598        2.77141        2.83557        2.55782      191.06664
1115.50000      365.23940      137.99998        2.73089        2.74939        2.53703      191.85597
1116.00000      378.01456      137.05798        2.71752        2.76122        2.55782      191.77064
1116.50000      389.19167      131.93398        2.61880        2.77737        2.63218      191.69597
1117.00000      400.36877      124.12798        2.52925        2.72503        2.63864      191.61064
1117.50000      410.48206      119.14998        2.46037        2.57214        2.54748      191.72797
1118.00000      418.46769      118.93398        2.41860        2.44532        2.45193      191.89864
1118.50000      426.45333      123.28598        2.37667        2.38208        2.34869      192.04797
1119.00000      429.25283      129.75598        2.35216        2.32817        2.29132      192.30131
1119.50000      429.92468      137.39998        2.32817        2.31294        2.26894      192.63731
1120.00000      426.34124      140.79998        2.34250        2.29978        2.29555      192.93331
1120.50000      416.60092      140.12398        2.40558        2.38603        2.39659      193.25331
1121.00000      403.78882      136.77398        2.46536        2.46415        2.47217      193.53331
1121.50000      393.80249      133.79998        2.52925        2.55656        2.56143      193.76531
1122.00000      389.48767      134.22798        2.55264        2.60198        2.62041      193.83997
1122.50000      387.94544      135.86598        2.55264        2.64740        2.66828      193.92531
1123.00000      391.94174      136.99998        2.54748        2.63428        2.68108      193.99997
1123.50000      400.32631      137.39998        2.50608        2.57467        2.62105      194.35464
1124.00000      408.71088      139.98798        2.45992        2.52352        2.55813      194.66664
1124.50000      417.09545      143.48798        2.40809        2.46641        2.45675      195.19197
1125.00000      422.40823      146.23998        2.36373        2.40410        2.37143      195.74131
1125.50000      426.17847      146.03998        2.31393        2.32375        2.31393      196.21331
1126.00000      429.95536      142.99998        2.29372        2.30048        2.28571      196.53331
1126.50000      436.29872      140.19998        2.27619        2.28697        2.36054      197.46664
1127.00000      443.91866      137.99998        2.25630        2.27172        2.48312      198.47997
1127.50000      451.54526      138.14998        2.22837        2.24884        2.51641      199.35197
1128.00000      459.16521      139.78798        2.16675        2.22305        2.50193      200.39997
1128.50000      464.15884      142.49998        2.12723        2.18665        2.36881      201.19997
1129.00000      469.15248      145.59998        2.10244        2.13940        2.27368      201.24531
1129.50000      464.77117      148.22598        2.08101        2.11045        2.19917      200.46664
1130.00000      456.61994      148.13398        2.12775        2.13363        2.18062      199.46664
1130.50000      435.13102      145.63998        2.20850        2.20606        2.21855      198.53331
1131.00000      410.80303      136.99998        2.36925        2.29189        2.33289      196.13331
1131.50000      385.70376      118.07998        2.55625        2.46990        2.52151      194.34397
1132.00000      360.22551      102.59998        2.71702        2.81598        2.81166      193.73331
