~Version ---------------------------------------------------
VERS. 2.0 : CWLS LOG ASCII STANDARD - VERSION 2.0
WRAP. NO  : One line per depth step
DLM . SPACE : Column Data Section Delimiter
~Well ------------------------------------------------------
STRT.F         48.5 : START DEPTH
STOP.F       1449.0 : STOP DEPTH
STEP.F          0.5 : STEP
NULL.       -999.25 : NULL VALUE
COMP.                 WALSH & WATTS, INC. : COMPANY
WELL.                         HOWARD F 14 : WELL
FLD .             MONTAGUE COUNTY REGULAR : FIELD
CNTY.                            MONTAGUE : COUNTY
STAT.                               TEXAS : STATE
CTRY.                                 USA : COUNTRY
SEC .                                     : SECTION
TWP .                                     : TOWNSHIP
RGE .                                     : RANGE
LOC . 1430'FEL & 2600'FSL OF THE J.CHAMBLIS SURVEY A-123 : LOCATION
EKB .F                      849 : ELEVATION KELLY BUSHING
EDF .F                      848 : ELEVATION DERRICK FLOOR
EGL .F                      841 : ELEVATION GROUND LEVEL
PDAT.                        GL : PERMANENT DATUM
EPD .                       841 : ELEVATION PERMANENT DATUM
APD .                         8 : ABOVE PERMANENT DATUM
LMF .                        KB : LOG MEASURED FROM
DMF .                        KB : DRILLING MEASURED FROM
API .            42337351020000 : API NUMBER
UWI .                           : UWI NUMBER
DIGC.                     NthDS : DIGITIZING COMPANY
~Params ----------------------------------------------------
SRVC. PIONEER WIRELINE SERVICES : LOGGING COMPANY
LOG .                      DIFL : LOG
DATE.                2013-08-01 : RUN DATE
RUN .                         1 : RUN NUMBER
TDD .F                     1450 : TOTAL DEPTH DRILLER
TDL .F                     1449 : TOTAL DEPTH LOGGER
BOTL.F                     1449 : BOTTOM LOGGED INTERVAL
TOPL.F                       50 : TOP LOGGED INTERVAL
CSGS.IN                         : CASING SIZE
CSGD.F                          : CASING DRILLER
CSGL.F                          : CASING LOGGER
BS  .IN                   7.875 : BIT SIZE
MUD .                       GEL : MUD TYPE
MUDD.                       9.2 : MUD DENSITY
MUDV.                        75 : MUD VISCOSITY
PH  .                           : MUD PH
FL  .                           : FLUID LOSS
MUDS.                  FLOWLINE : SOURCE OF SAMPLE
RM  .OHMM                   2.8 : MUD RESISTIVITY
RMT .DEGF                    72 : RM TEMPERATURE
RMF .OHMM                   2.1 : MUD FILTRATE RESISTIVITY
RMFT.DEGF                    72 : RMF TEMPERATURE
RMC .OHMM                   3.5 : MUD CAKE RESISTIVITY
RMCT.DEGF                    72 : RMC TEMPERATURE
RMFS.                      CALC : RMF SOURCE
RMCS.                      CALC : RMC SOURCE
RMBH.OHMM                   2.3 : MUD RESISTIVITY AT BHT
BHT .DEGF                    87 : BOTTOM HOLE TEMPERATURE
TIMC.           0130 2018-08-01 : TIME CIRCULATION STOPPED
TIML.           0400 2018-08-01 : TIME LOGGER ON BOTTOM
TMAX.DEGF                    87 : MAXIMUM RECORDED TEMPERATURE
UNIT.                     C-052 : EQUIPMENT NUMBER
BASE.                GRAHAM, TX : BASE LOCATION
ENG .                    WENDEL : RECORDED BY
WIT .                  BURLESON : WITNESSED BY
~Curve Information -----------------------------------------
DEPT.F          :DEPTH
CILD.MMHO       :
GRR.GAPI        :
RILD.OHMM       :
RILM.OHMM       :
RSFL.OHMM       :
SP.MV           :
~ASCII ------------------------------------------------------
# ...
489.50000      119.57259      119.78019        8.55046        8.50165       11.13585      156.34795
490.00000      120.49398      118.68129        8.46184        8.39585       11.22835      156.31132
490.50000      120.49878      115.65931        8.32960        8.29671       10.76361      156.27103
491.00000      120.50358      115.65931        8.17599        8.32953        9.56519      156.22707
491.50000      120.51077      116.20877        8.11103        8.35640        8.57231      156.19044
492.00000      120.51557      116.20877        8.09460        8.38947        8.08030      156.15015
492.50000      120.52037      115.38459        8.12252        8.41653        8.19602      156.11352
493.00000      119.60858      110.71426        8.14598        8.44983        8.67472      156.07322
493.50000      118.69680      104.94503        8.32408        8.48327        9.28684      155.71425
494.00000      115.95423      104.39558        8.47631        8.59126        9.71818      155.78018
494.50000      113.20927      104.39558        8.66164        8.78945       10.13420      155.85344
495.00000      110.46431      103.29668        8.85176        8.99222       10.47944      155.91938
495.50000      109.55252      102.74723        9.01288        9.16438       10.65582      155.99264
496.00000      108.64074      103.29668        9.20994        9.31129       10.83485      155.91205
496.50000      107.73135      101.92305        9.34133        9.40841       10.27797      155.58605
497.00000      106.81956      101.37360        9.43451        9.52630        9.64736      155.19410
497.50000      106.82436      100.82415        9.52863        9.64566        9.91991      154.86810
498.00000      105.91257      100.27470        9.60778        9.74627       10.30923      154.47249
498.50000      105.00078       98.90108        9.70362        9.86839       10.55594      154.94502
499.00000      102.25822       98.07690        9.80042        9.99204       10.91554      154.57872
499.50000      101.34643       99.17580        9.88017       10.09287       11.19310      154.21242
500.00000      100.73099      100.54943       10.03564       10.28240       11.55944      153.47982
500.50000      100.73578      102.48616       10.10891       10.38284       11.75435      153.76143
501.00000       98.90908      103.31489       10.19360       10.43279       11.85182      153.39446
501.50000       98.91628      101.38119       10.25647       10.40898       12.36013      153.39446
502.00000      100.75257       99.99998       10.21181       10.38903       12.46299      153.02749
502.50000      100.75736       99.17125       10.13108       10.36532       11.64774      153.02749
503.00000      100.76216       96.96130       10.05638       10.28368       10.88614      153.02749
503.50000      103.51659       95.02760        9.95335        9.89894       10.79280      152.29354
504.00000      106.26863       94.19887        9.77029        9.52859       11.06742      151.92657
504.50000      109.02067       95.85633        9.58764        9.23057       10.88069      152.20180
505.00000      113.60420      100.82871        9.05774        8.87249        9.69981      151.91556
505.50000      121.85312      107.63533        8.63860        8.57906       10.34041      151.15960
506.00000      126.43665      115.46959        8.16115        8.24000       10.42615      150.40731
506.50000      130.10444      118.78450        7.71009        7.91434        8.80619      149.77611
507.00000      134.68797      115.67677        7.41309        7.65324        7.82424      149.02382
507.50000      137.44001      110.77346        7.11771        7.49981        6.77789      148.39263
508.00000      142.02594      107.73478        6.88057        7.49871        6.60757      147.52290
508.50000      144.77798      104.14362        6.86544        7.52526        6.89097      146.42199
509.00000      146.61427       99.44749        6.90254        7.60945        6.94810      144.95410
509.50000      147.53481       94.19887        6.93420        7.67989        8.08604      144.22015
510.00000      152.12074       84.80661        6.75349        7.76516       11.23351      143.11923
510.50000      152.12554       75.13810        6.65805        7.83704       12.53344      141.65134
511.00000      152.13033       66.29833        6.65687        7.78428       12.21813      140.18345
511.50000      153.96662       61.60220        6.58867        7.59549       11.41923      139.44951
512.00000      159.46830       51.93369        6.52136        7.44093       10.94575      137.98162
512.50000      161.30459       46.40883        6.38955        7.25986       11.31933      136.88070
513.00000      163.14088       41.43645        6.30138        7.11273       11.51019      136.14676
513.50000      163.14568       37.01657        6.23262        7.02622       11.80307      135.41281
514.00000      161.32137       35.91159        6.16408        7.11442       11.60393      134.67887
514.50000      159.49467       35.08286        6.26274        7.18876       11.31200      133.94492
515.00000      155.83648       34.80662        6.38267        7.31470       11.12081      133.57795
515.50000      153.09403       34.53038        6.48483        7.45248       11.11918      132.47703
516.00000      151.26733       37.01657        6.60901        7.62022       11.89323      132.11006
516.50000      148.52728       38.39778        6.73614        7.76376       12.50875      132.11006
517.00000      148.53207       40.33148        6.75677        7.94320       12.93567      131.74309
517.50000      148.53687       41.16021        6.75558        8.09873       13.83658      131.74309
518.00000      151.28891       42.26518        6.75459        8.18336       13.60273      131.37612
518.50000      155.87484       45.30386        6.63035        7.96538       12.50028      131.37612
519.00000      158.62687       46.68507        6.52839        7.73711       11.68293      131.37612
519.50000      161.37891       46.13259        6.34432        7.47218       11.01119      131.37612
520.00000      165.96244       45.30386        6.16492        7.21571       10.55493      131.00914
520.50000      168.71688       45.02761        6.03897        7.00951       10.28939      131.74309
521.00000      170.55317       45.58010        5.98366        6.76892        9.94629      131.74309
521.50000      171.47371       46.13259        5.93803        6.69017       10.02906      131.74309
522.00000      171.47851       46.13259        5.88365        6.68899       10.54779      131.74309
522.50000      170.56755       46.13259        5.82926        6.66753       10.90811      132.11006
523.00000      168.74325       46.13259        5.81417        6.64073       11.09171      132.47703
523.50000      165.08506       45.30386        5.93852        6.71729       10.72186      133.21098
524.00000      163.25836       44.75137        6.04375        6.82710        9.85318      132.84401
524.50000      163.26315       42.54143        6.17301        6.96137        9.93488      132.98346
525.00000      163.27034       43.37016        6.17921        7.05887       10.62680      133.07887
525.50000      163.27514       43.09391        6.16373        7.10741       11.75659      133.19630
526.00000      163.27993       43.09391        6.14551        7.16634       12.68190      133.31740
526.50000      164.20047       42.54143        6.13891        7.18465       12.57317      133.41281
527.00000      166.03916       42.26518        6.13783        7.05727       11.07703      133.53391
527.50000      167.87545       43.64640        6.11195        6.95285       10.35274      133.62933
528.00000      169.71174       44.47513        6.04951        6.82958       10.17777      133.74676
528.50000      171.54803       44.19889        5.97542        6.73911        9.67382      133.86786
529.00000      172.46858       45.02761        5.91438        6.67759        9.43073      133.94492
