~Version ---------------------------------------------------
VERS. 2.0 : CWLS LOG ASCII STANDARD - VERSION 2.0
WRAP. NO  : One line per depth step
DLM . SPACE : Column Data Section Delimiter
~Well ------------------------------------------------------
STRT.F           40 : START DEPTH
STOP.F       1271.0 : STOP DEPTH
STEP.F          0.5 : STEP
NULL.       -999.25 : NULL VALUE
COMP.                 WALSH & WATTS, INC. : COMPANY
WELL.                         HOWARD G 17 : WELL
FLD .             MONTAGUE COUNTY REGULAR : FIELD
CNTY.                            MONTAGUE : COUNTY
STAT.                               TEXAS : STATE
CTRY.                                 USA : COUNTRY
SEC .                                     : SECTION
TWP .                                     : TOWNSHIP
RGE .                                     : RANGE
LOC . 520'FNL & 4250'FEL OF THE J.CHAMBLIS SURVEY, A-123 : LOCATION
EKB .F                      519 : ELEVATION KELLY BUSHING
EDF .F                      518 : ELEVATION DERRICK FLOOR
EGL .F                      512 : ELEVATION GROUND LEVEL
PDAT.                        GL : PERMANENT DATUM
EPD .                       512 : ELEVATION PERMANENT DATUM
APD .                         7 : ABOVE PERMANENT DATUM
LMF .                        KB : LOG MEASURED FROM
DMF .                        KB : DRILLING MEASURED FROM
API .            42337343900000 : API NUMBER
UWI .                           : UWI NUMBER
DIGC.                     NthDS : DIGITIZING COMPANY
~Params ----------------------------------------------------
SRVC. PIONEER WIRELINE SERVICES : LOGGING COMPANY
LOG .                      CNFD : LOG
DATE.                2010-10-13 : RUN DATE
RUN .                         1 : RUN NUMBER
TDD .F                     1298 : TOTAL DEPTH DRILLER
TDL .F                     1280 : TOTAL DEPTH LOGGER
BOTL.F                     1280 : BOTTOM LOGGED INTERVAL
TOPL.F                       50 : TOP LOGGED INTERVAL
CSGS.IN                         : CASING SIZE
CSGD.F                          : CASING DRILLER
CSGL.F                          : CASING LOGGER
BS  .IN                   7.875 : BIT SIZE
MUD .                  GEL-CHEM : MUD TYPE
MUDD.                           : MUD DENSITY
MUDV.                           : MUD VISCOSITY
PH  .                           : MUD PH
FL  .                           : FLUID LOSS
MUDS.                  FLOWLINE : SOURCE OF SAMPLE
RM  .OHMM                   3.6 : MUD RESISTIVITY
RMT .DEGF                    72 : RM TEMPERATURE
RMF .OHMM                   2.7 : MUD FILTRATE RESISTIVITY
RMFT.DEGF                    72 : RMF TEMPERATURE
RMC .OHMM                   4.5 : MUD CAKE RESISTIVITY
RMCT.DEGF                    72 : RMC TEMPERATURE
RMFS.                      CALC : RMF SOURCE
RMCS.                      CALC : RMC SOURCE
RMBH.OHMM                   3.0 : MUD RESISTIVITY AT BHT
BHT .DEGF                    85 : BOTTOM HOLE TEMPERATURE
TIMC.           0245 2010-10-13 : TIME CIRCULATION STOPPED
TIML.           0540 2010-10-13 : TIME LOGGER ON BOTTOM
TMAX.DEGF                    85 : MAXIMUM RECORDED TEMPERATURE
UNIT.                      M-19 : EQUIPMENT NUMBER
BASE.             GRAHAM, TEXAS : BASE LOCATION
ENG .                    WENDEL : RECORDED BY
WIT .           WOMBLE/BURLESON : WITNESSED BY
~Curve Information -----------------------------------------
DEPT.F          :DEPTH
CALI.IN         :
DPHI.PU         :
GRD.GAPI        :
MINV.OHMM       :
MNOR.OHMM       :
NPHI.PU         :
RHOC.G/CC       :
~ASCII ------------------------------------------------------
# ...
845.50000        7.37736       26.61062       38.57263        7.32272        7.42424       14.73875        0.05114
846.00000        7.27358       25.77336       40.38961        6.06060        7.06060       14.52330        0.05682
846.50000        7.22170       24.81042       43.18018        7.22878        7.87878       14.19494        0.06231
847.00000        7.19811       24.03771       43.66697        5.80151        7.15151       13.57799        0.06008
847.50000        7.16981       23.74518       41.79339        6.01666        7.22272       13.48610        0.05784
848.00000        7.15434       23.78337       39.25471        7.68333       10.69090       13.77917        0.05303
848.50000        7.17094       23.89686       38.83018        9.89242       13.63636       14.52837        0.04545
849.00000        7.19094       23.82226       37.85376       11.06060       14.34393       14.84287        0.04712
849.50000        7.20755       23.59741       36.26037       10.30303        9.77272       14.87854        0.05742
850.00000        7.13208       23.33712       35.26414        8.23181        9.37272       14.70794        0.06364
850.50000        7.18321       23.61978       35.98301        9.58801       10.67415       15.32160        0.06142
851.00000        7.32075       24.19626       37.23112        9.25093        9.88764       16.10454        0.05071
851.50000        7.51887       24.29300       39.23773        7.61048        6.32959       16.42700        0.05476
852.00000        7.68396       23.88044       40.63301        6.35206        6.09288       16.18095        0.06517
852.50000        7.75811       23.46801       41.65188        4.60674        3.62547       15.92539        0.08079
853.00000        7.81981       23.67517       41.64056        5.91760        6.19176       15.61887        0.07127
853.50000        7.76226       24.08902       40.40093        8.19026        9.13857       15.01853        0.04551
854.00000        7.70283       24.31121       38.09433       10.98576       11.83520       13.97987        0.02622
854.50000        7.69660       24.19086       37.41509        9.98801       12.28464       13.17934        0.02771
855.00000        7.71849       23.76152       38.20754        9.36329       12.02247       13.02981        0.03240
855.50000        7.73264       23.56831       41.76508        9.64794       11.46067       13.56561        0.03052
856.00000        7.72491       23.62261       42.57452       10.38052       11.08614       15.00293        0.02273
856.50000        7.70189       24.10219       41.52169       11.31086        9.88764       15.36033        0.01434
857.00000        7.62641       24.50202       39.90565       11.89513       11.21048       14.98533        0.00899
857.50000        7.56434       24.95418       38.66037       11.83520       11.83520       14.70060        0.00363
858.00000        7.55396       25.13205       39.44433       11.43520        9.58801       14.53217        0.00150
858.50000        7.55038       24.96851       41.03773       10.72209        8.98876       14.48131        0.00618
859.00000        7.56924       24.52791       41.37735       11.23595        8.98876       14.45535        0.01554
859.50000        7.58491       24.05901       41.55282       10.11235       10.71161       14.43416        0.02165
860.00000        7.60057       23.59012       41.29527        8.98876       13.03370       14.12538        0.02513
860.50000        7.61943       23.03985       40.84810        8.11985       10.22471       14.11658        0.02936
861.00000        7.61472       22.76513       39.90565        8.71460        9.77528       14.35191        0.03011
861.50000        7.60283       22.85662       38.45093        8.08988       10.43745       14.89346        0.02670
862.00000        7.59283       23.40192       38.39716        9.25093       10.58726       15.44241        0.02262
862.50000        7.58811       23.85622       39.76414       11.40374       11.46067       16.96686        0.01921
863.00000        7.60698       23.93204       46.32169       11.33632       11.46067       18.89909        0.02075
863.50000        7.62264       23.45451       54.66225        8.00449        8.19625       21.96457        0.03146
864.00000        7.60849       22.97736       63.05659        4.31460        2.84644       22.78769        0.04217
864.50000        7.59679       22.78840       65.37734        3.09663        1.94756       22.47854        0.05502
865.00000        7.58491       22.96551       59.36319        6.64120        2.69663       22.33190        0.06783
865.50000        7.58491       23.40178       50.01225        9.73782        9.36329       22.25437        0.08277
866.00000        7.67924       24.16868       42.45282        8.68913        9.36329       21.68719        0.07715
866.50000        7.77358       24.95049       38.20754        8.48988        8.89887       20.81905        0.06768
867.00000        7.77358       26.00283       38.81320        8.53932        8.63970       19.98810        0.03771
867.50000        7.77358       26.22877       40.75471        8.46442        8.05992       20.63256        0.02547
868.00000        7.77132       25.62843       44.15093        5.99251        5.18352       22.21061        0.02771
868.50000        7.76528       24.43816       45.33112        5.09363        3.52060       23.11272        0.03382
869.00000        7.75830       23.30110       44.71697        5.69288        6.08239       22.37453        0.04551
869.50000        7.76736       23.28667       40.47169        9.46816       10.48689       20.74771        0.04202
870.00000        7.76736       24.64361       37.21697        8.86891       10.09737       19.13329        0.02172
870.50000        7.72321       25.77809       33.96226        8.51835        9.62546       19.26282        0.00899
871.00000        7.73113       26.97316       33.72735        9.28839        9.69438       20.14866        0.00790
871.50000        7.74057       27.31215       36.15565        9.33782        9.73782       20.93810        0.02131
872.00000        7.74849       27.52244       37.86792        9.45618       10.93632       20.44555        0.03734
872.50000        7.74811       27.75364       37.79150        8.80149       10.03745       19.49441        0.03989
873.00000        7.70887       28.21019       36.54622        8.76404        9.61797       18.35333        0.03521
873.50000        7.67604       28.75812       35.51037        9.13857        9.63745       17.45515        0.01873
874.00000        7.63660       29.16660       35.44810        9.13857        9.86966       17.30100        0.00498
874.50000        7.60377       29.07341       35.80188        9.94756       10.21722       17.68293       -0.00599
875.00000        7.60377       28.60452       35.66037        9.73782        9.94756       17.78755        0.00150
875.50000        7.60377       28.12323       33.82075       10.26217       10.88689       17.34908        0.01397
876.00000        7.60377       27.57934       31.29339        9.81273       11.65543       16.91637        0.01648
876.50000        7.60377       27.51721       28.58490       11.03670       12.58426       16.72278        0.01648
877.00000        7.60377       27.61733       28.65565       10.78651       10.22471       16.77971        0.01554
877.50000        7.60509       27.73710       29.71697       10.56179        8.53932       17.24238        0.01322
878.00000        7.60774       27.83722       31.41509       10.93632        8.62322       17.95659        0.01086
878.50000        7.60981       27.62147       33.17829       10.43745        8.48988       18.77945        0.01150
879.00000        7.61245       27.08134       35.39999        8.98876        8.01498       19.23600        0.01771
879.50000        7.61453       26.47498       36.63395        9.96254       10.08089       19.50476        0.02521
880.00000        7.61679       25.86900       36.95093       10.56179       11.98501       18.94434        0.02959
