~Version ---------------------------------------------------
VERS. 2.0 : CWLS LOG ASCII STANDARD - VERSION 2.0
WRAP. NO  : One line per depth step
DLM . SPACE : Column Data Section Delimiter
~Well ------------------------------------------------------
STRT.F         48.5 : START DEPTH
STOP.F       1449.0 : STOP DEPTH
STEP.F          0.5 : STEP
NULL.       -999.25 : NULL VALUE
COMP.                 WALSH & WATTS, INC. : COMPANY
WELL.                         HOWARD F 14 : WELL
FLD .             MONTAGUE COUNTY REGULAR : FIELD
CNTY.                            MONTAGUE : COUNTY
STAT.                               TEXAS : STATE
CTRY.                                 USA : COUNTRY
SEC .                                     : SECTION
TWP .                                     : TOWNSHIP
RGE .                                     : RANGE
LOC . 1430'FEL & 2600'FSL OF THE J.CHAMBLIS SURVEY A-123 : LOCATION
EKB .F                      849 : ELEVATION KELLY BUSHING
EDF .F                      848 : ELEVATION DERRICK FLOOR
EGL .F                      841 : ELEVATION GROUND LEVEL
PDAT.                        GL : PERMANENT DATUM
EPD .                       841 : ELEVATION PERMANENT DATUM
APD .                         8 : ABOVE PERMANENT DATUM
LMF .                        KB : LOG MEASURED FROM
DMF .                        KB : DRILLING MEASURED FROM
API .            42337351020000 : API NUMBER
UWI .                           : UWI NUMBER
DIGC.                     NthDS : DIGITIZING COMPANY
~Params ----------------------------------------------------
SRVC. PIONEER WIRELINE SERVICES : LOGGING COMPANY
LOG .                      DIFL : LOG
DATE.                2013-08-01 : RUN DATE
RUN .                         1 : RUN NUMBER
TDD .F                     1450 : TOTAL DEPTH DRILLER
TDL .F                     1449 : TOTAL DEPTH LOGGER
BOTL.F                     1449 : BOTTOM LOGGED INTERVAL
TOPL.F                       50 : TOP LOGGED INTERVAL
CSGS.IN                         : CASING SIZE
CSGD.F                          : CASING DRILLER
CSGL.F                          : CASING LOGGER
BS  .IN                   7.875 : BIT SIZE
MUD .                       GEL : MUD TYPE
MUDD.                       9.2 : MUD DENSITY
MUDV.                        75 : MUD VISCOSITY
PH  .                           : MUD PH
FL  .                           : FLUID LOSS
MUDS.                  FLOWLINE : SOURCE OF SAMPLE
RM  .OHMM                   2.8 : MUD RESISTIVITY
RMT .DEGF                    72 : RM TEMPERATURE
RMF .OHMM                   2.1 : MUD FILTRATE RESISTIVITY
RMFT.DEGF                    72 : RMF TEMPERATURE
RMC .OHMM                   3.5 : MUD CAKE RESISTIVITY
RMCT.DEGF                    72 : RMC TEMPERATURE
RMFS.                      CALC : RMF SOURCE
RMCS.                      CALC : RMC SOURCE
RMBH.OHMM                   2.3 : MUD RESISTIVITY AT BHT
BHT .DEGF                    87 : BOTTOM HOLE TEMPERATURE
TIMC.           0130 2018-08-01 : TIME CIRCULATION STOPPED
TIML.           0400 2018-08-01 : TIME LOGGER ON BOTTOM
TMAX.DEGF                    87 : MAXIMUM RECORDED TEMPERATURE
UNIT.                     C-052 : EQUIPMENT NUMBER
BASE.                GRAHAM, TX : BASE LOCATION
ENG .                    WENDEL : RECORDED BY
WIT .                  BURLESON : WITNESSED BY
~Curve Information -----------------------------------------
DEPT.F          :DEPTH
CILD.MMHO       :
GRR.GAPI        :
RILD.OHMM       :
RILM.OHMM       :
RSFL.OHMM       :
SP.MV           :
~ASCII ------------------------------------------------------
# ...
609.50000      121.20250       97.05351        8.27963        8.69331       10.48968      157.66139
610.00000      121.20731      100.62571        8.27816        8.70206       10.57714      157.65498
610.50000      119.37966      101.72181        8.37261        8.70739       10.13778      158.01426
611.00000      119.38446      106.39492        8.48794        8.70585        9.79912      159.10749
611.50000      120.30669      107.21580        8.33601        8.60947        9.79767      159.10108
612.00000      122.14635      106.38435        8.15825        8.42161       10.30539      159.53743
612.50000      124.90584      102.80063        7.98361        8.23715       10.93139      159.60809
613.00000      126.74550      103.62151        7.84071        8.08698       10.38946      159.69215
613.50000      129.50259      109.23039        7.69169        7.91052        9.54595      159.77620
614.00000      131.34225      113.93197        7.58321        7.73726        8.77092      159.84686
614.50000      134.10174      117.80692        7.49356        7.59620        8.41324      159.93092
615.00000      135.94140      119.78279        7.38725        7.49730        8.14457      160.01498
615.50000      138.69848      119.80276        7.28307        7.39906        8.05621      160.08197
616.00000      140.53814      119.33737        7.19697        7.31839        8.26182      160.16235
616.50000      143.29763      118.95000        7.09487        7.22310        8.83805      160.22200
617.00000      144.21986      119.70661        7.04662        7.14435        9.53498      160.29138
617.50000      145.14210      121.68249        6.98905        7.05074        9.69577      160.36076
618.00000      146.06433      122.00796        6.93253        6.95894        8.98417      160.41674
618.50000      148.82382      122.00219        6.80557        6.84999        8.25500      160.48612
619.00000      150.66348      121.44597        6.59548        6.66438        7.91210      160.55549
619.50000      153.42056      120.52466        6.44448        6.50961        7.71269      160.61514
620.00000      154.34280      119.41799        6.40823        6.48943        7.71155      160.68452
620.50000      158.93714      118.98107        6.36447        6.46529        7.90813      160.74050
621.00000      158.94194      120.79181        6.32155        6.44125        7.84043      160.77318
621.50000      159.86418      120.55210        6.29290        6.42182        7.77309      160.60036
622.00000      159.87138      118.63997        6.29179        6.39794        8.31523      160.45818
622.50000      158.95876      116.67459        6.29086        6.37811        8.67279      160.28902
623.00000      157.12870      117.32937        6.28975        6.35439        8.67125      160.14684
623.50000      157.13351      119.74657        6.28863        6.33396        8.10303      159.81255
624.00000      157.14071      124.14445        6.28771        6.31967        7.70132      159.15900
624.50000      157.14552      126.34146        6.28659        6.30255        8.30837      158.61315
625.00000      156.23289      125.37240        6.31743        6.28548        9.03959      157.95592
625.50000      151.65056      124.43912        6.39707        6.39166        8.96194      157.30237
626.00000      139.73120      124.60496        6.69454        6.60352        8.81020      156.75652
626.50000      131.47915      122.46618        7.13147        7.14655        8.61748      156.23508
627.00000      125.06196      112.27700        7.73270        7.85785        8.35781      156.03051
627.50000      121.39705      102.63922        8.27203        8.51313        9.95357      155.78429
628.00000      120.48683       84.79871        8.43170        8.87920       28.98224      155.53440
628.50000      119.57420       69.71047        8.40531        9.18281       63.18266      155.32984
629.00000      118.66158       69.13499        8.38350        9.25937       43.09898      155.08362
629.50000      117.74896       78.58150        8.34457        8.99098       19.80512      154.83740
630.00000      123.26073       91.60226        8.21091        8.47883       10.07220      154.62916
630.50000      130.60496      106.73497        7.81177        8.06735        8.13924      154.43799
631.00000      137.94918      114.16036        7.35808        7.57062        8.03735      154.51232
631.50000      145.29341      115.80692        6.93542        7.10447        8.01355      154.60005
632.00000      153.55747      115.80115        6.61950        6.73801        7.81181      154.68777
632.50000      156.31456      116.67708        6.34454        6.46031        7.94354      154.76210
633.00000      158.15421      118.26763        6.24767        6.26088        7.87531      155.01497
633.50000      157.24399      117.03711        6.24463        6.17328        7.80789      155.26416
634.00000      157.24880      114.52773        6.30343        6.20251        7.67569      155.47427
634.50000      157.25360      111.52199        6.36224        6.23241        7.35707      155.40787
635.00000      157.25840      108.51349        6.38230        6.25682        7.48114      155.35009
635.50000      158.18304      108.47015        6.39737        6.28697        8.13931      155.28368
636.00000      158.18784      110.84236        6.40995        6.31213        8.56134      155.21728
636.50000      159.11007      113.19625        6.40773        6.34202        8.85409      155.15950
637.00000      159.11488      116.02258        6.31843        6.35162        8.06678      155.09310
637.50000      161.87436      117.77827        6.24901        6.27494        7.53839      154.99000
638.00000      163.71402      119.24043        6.18487        6.18331        7.73056      154.87718
638.50000      164.63626      121.46126        6.12139        6.09353        8.13140      154.74105
639.00000      164.64106      124.08213        6.10500        6.05158        7.66303      154.62456
639.50000      162.81341      125.95892        6.11476        6.06023        7.28291      154.48843
640.00000      161.90079      122.84584        6.12264        6.06754        7.53217      154.35230
640.50000      161.90559      118.21170        6.13243        6.07570        7.65918      154.16608
641.00000      160.99296      117.35549        6.14224        6.08438        7.85443      153.81345
641.50000      158.24789      120.35341        6.17933        6.09171        8.05489      153.52081
642.00000      156.41783      123.95038        6.27822        6.17354        7.98571      153.16817
642.50000      155.50521      120.09143        6.37816        6.29411        7.98429      152.81553
643.00000      153.67516      115.68298        6.46294        6.39611        7.98311      152.52289
643.50000      152.76493      110.99835        6.48093        6.52103        7.91454      151.88034
644.00000      152.76974      110.16690        6.49642        6.62671        7.91338      151.09468
644.50000      152.77454      109.33642        6.51451        6.71799        8.18396      150.43874
645.00000      153.69677      109.05542        6.46401        6.78755        8.60806      149.64941
645.50000      156.45626      107.67352        6.42223        6.75052        8.90266      148.99346
646.00000      160.13078      104.91644        6.37245        6.57149        8.97662      148.20780
646.50000      164.72272      102.98408        6.34714        6.27462        8.45956      147.41847
647.00000      173.90421       98.84991        6.12390        6.03707        8.10840      146.76253
647.50000      180.33101       97.46896        5.80343        5.76434        8.31510      146.06861
648.00000      184.92295       99.75585        5.50021        5.55016        8.59968      145.84074
648.50000      187.68004      104.75193        5.34997        5.45450        7.63888      145.65085
649.00000      190.43953      113.82867        5.24563        5.34135        6.20671      145.42298
