~Version ---------------------------------------------------
VERS. 2.0 : CWLS LOG ASCII STANDARD - VERSION 2.0
WRAP. NO  : One line per depth step
DLM . SPACE : Column Data Section Delimiter
~Well ------------------------------------------------------
STRT.F         48.5 : START DEPTH
STOP.F       1449.0 : STOP DEPTH
STEP.F          0.5 : STEP
NULL.       -999.25 : NULL VALUE
COMP.                 WALSH & WATTS, INC. : COMPANY
WELL.                         HOWARD F 14 : WELL
FLD .             MONTAGUE COUNTY REGULAR : FIELD
CNTY.                            MONTAGUE : COUNTY
STAT.                               TEXAS : STATE
CTRY.                                 USA : COUNTRY
SEC .                                     : SECTION
TWP .                                     : TOWNSHIP
RGE .                                     : RANGE
LOC . 1430'FEL & 2600'FSL OF THE J.CHAMBLIS SURVEY A-123 : LOCATION
EKB .F                      849 : ELEVATION KELLY BUSHING
EDF .F                      848 : ELEVATION DERRICK FLOOR
EGL .F                      841 : ELEVATION GROUND LEVEL
PDAT.                        GL : PERMANENT DATUM
EPD .                       841 : ELEVATION PERMANENT DATUM
APD .                         8 : ABOVE PERMANENT DATUM
LMF .                        KB : LOG MEASURED FROM
DMF .                        KB : DRILLING MEASURED FROM
API .            42337351020000 : API NUMBER
UWI .                           : UWI NUMBER
DIGC.                     NthDS : DIGITIZING COMPANY
~Params ----------------------------------------------------
SRVC. PIONEER WIRELINE SERVICES : LOGGING COMPANY
LOG .                      DIFL : LOG
DATE.                2013-08-01 : RUN DATE
RUN .                         1 : RUN NUMBER
TDD .F                     1450 : TOTAL DEPTH DRILLER
TDL .F                     1449 : TOTAL DEPTH LOGGER
BOTL.F                     1449 : BOTTOM LOGGED INTERVAL
TOPL.F                       50 : TOP LOGGED INTERVAL
CSGS.IN                         : CASING SIZE
CSGD.F                          : CASING DRILLER
CSGL.F                          : CASING LOGGER
BS  .IN                   7.875 : BIT SIZE
MUD .                       GEL : MUD TYPE
MUDD.                       9.2 : MUD DENSITY
MUDV.                        75 : MUD VISCOSITY
PH  .                           : MUD PH
FL  .                           : FLUID LOSS
MUDS.                  FLOWLINE : SOURCE OF SAMPLE
RM  .OHMM                   2.8 : MUD RESISTIVITY
RMT .DEGF                    72 : RM TEMPERATURE
RMF .OHMM                   2.1 : MUD FILTRATE RESISTIVITY
RMFT.DEGF                    72 : RMF TEMPERATURE
RMC .OHMM                   3.5 : MUD CAKE RESISTIVITY
RMCT.DEGF                    72 : RMC TEMPERATURE
RMFS.                      CALC : RMF SOURCE
RMCS.                      CALC : RMC SOURCE
RMBH.OHMM                   2.3 : MUD RESISTIVITY AT BHT
BHT .DEGF                    87 : BOTTOM HOLE TEMPERATURE
TIMC.           0130 2018-08-01 : TIME CIRCULATION STOPPED
TIML.           0400 2018-08-01 : TIME LOGGER ON BOTTOM
TMAX.DEGF                    87 : MAXIMUM RECORDED TEMPERATURE
UNIT.                     C-052 : EQUIPMENT NUMBER
BASE.                GRAHAM, TX : BASE LOCATION
ENG .                    WENDEL : RECORDED BY
WIT .                  BURLESON : WITNESSED BY
~Curve Information -----------------------------------------
DEPT.F          :DEPTH
CILD.MMHO       :
GRR.GAPI        :
RILD.OHMM       :
RILM.OHMM       :
RSFL.OHMM       :
SP.MV           :
~ASCII ------------------------------------------------------
# ...
1329.50000      322.33539      125.27843        3.06333        3.12302        4.01146      175.53680
1330.00000      320.50534      125.27365        3.07287        3.12747        4.04469      175.83281
1330.50000      318.67528      122.52569        3.08218        3.13167        4.04409      175.88711
1331.00000      318.68009      121.14884        3.09031        3.13543        4.11210      176.60935
1331.50000      318.68729      118.67606        3.09968        3.13963        4.11138      176.60172
1332.00000      318.69210      117.57343        3.10785        3.13917        4.14556      177.80719
1332.50000      319.61433      117.56865        3.11228        3.13862        4.17990      177.31632
1333.00000      319.61913      120.85356        3.11173        3.13806        4.21465      177.30869
1333.50000      319.62634      122.21988        3.11128        3.13760        4.21391      177.30233
1334.00000      319.63114      126.32746        3.11073        3.13705        4.14275      177.29470
1334.50000      319.63594      129.88659        3.11027        3.13659        4.10739      177.28707
1335.00000      319.64075      129.88180        3.10972        3.13603        4.00415      177.28072
1335.50000      319.64795      128.23073        3.10917        3.13548        4.00344      177.27309
1336.00000      320.57018      126.85484        3.10871        3.13713        4.03673      177.75124
1336.50000      320.57499      127.12332        3.10817        3.13949        4.13934      178.47220
1337.00000      320.57979      127.23549        3.10762        3.14141        4.20908      178.78278
1337.50000      319.66957      125.46746        3.10716        3.14403        4.20833      178.92087
1338.00000      319.67437      124.09061        3.10661        3.14639        4.20759      179.05896
1338.50000      319.67918      121.06939        3.10615        3.14832        4.17167      178.79395
1339.00000      318.76655      120.78943        3.10561        3.15095        4.06682      178.47303
1339.50000      318.77376      120.50946        3.10506        3.15331        4.10063      178.31002
1340.00000      318.77856      120.50468        3.10460        3.15524        4.16959      178.66669
1340.50000      318.78337      119.67627        3.11663        3.15947        4.13387      178.65906
1341.00000      317.87074      120.76837        3.12670        3.16514        4.20351      178.65270
1341.50000      316.95812      122.95639        3.13882        3.17232        4.23833      177.91648
1342.00000      316.96532      124.04849        3.15098        3.17925        4.23771      177.91012
1342.50000      316.05270      126.78496        3.15477        3.18522        4.23696      178.63108
1343.00000      316.05750      127.87611        3.15421        3.19245        4.23621      179.35205
1343.50000      316.97973      128.14554        3.15375        3.19844        4.23559      178.98139
1344.00000      317.90437      127.31713        3.15319        3.20543        4.27068      178.60947
1344.50000      318.82660      126.76390        3.13779        3.20622        4.23410      178.60311
1345.00000      320.66626      123.46751        3.11258        3.20575        4.26930      178.23118
1345.50000      320.67106      122.09066        3.08280        3.20518        4.34109      177.13193
1346.00000      320.67827      120.44054        3.07767        3.20471        4.34045      176.39571
1346.50000      319.76564      119.88636        3.08752        3.20414        4.33969      176.02378
1347.00000      317.01816      120.43001        3.09740        3.20358        4.30251      175.65313
1347.50000      313.35325      124.53759        3.14083        3.22640        4.33828      175.28120
1348.00000      306.02104      125.35451        3.19580        3.27265        4.33752      174.18196
1348.50000      300.52127      125.34972        3.25228        3.32713        4.48555      174.17433
1349.00000      294.10408      115.47201        3.30011        3.40377        4.56098      173.43810
1349.50000      271.63190      102.02943        3.38714        3.52072        4.79667      172.33886
1350.00000      256.86597       99.35813        3.55848        3.76873        5.11584      172.52766
1350.50000      240.84758       96.04964        3.82253        4.05729        5.11493      171.42237
1351.00000      217.95868       96.86955        4.10618        4.43856        4.98628      171.04840
1351.50000      205.14301       93.28679        4.51766        4.88129        5.65842      169.94184
1352.00000      187.74859       91.35443        5.06640        5.50431        8.06501      169.20285
1352.50000      173.10143       82.81661        5.54781        6.08408        9.54701      167.72998
1353.00000      163.03300       77.85771        6.04563        6.75260       10.74285      165.89082
1353.50000      157.54570       74.54922        6.40712        7.06213       11.01677      164.41924
1354.00000      155.71900       73.44254        6.50646        7.16134       14.67686      162.58008
1354.50000      153.89230       74.81388        6.57654        7.18429       17.27585      160.37462
1355.00000      152.98135       76.18425        6.63524        7.08327        9.53914      158.90303
1355.50000      155.73579       80.85832        6.63407        6.93236        6.14869      157.06387
1356.00000      159.40357       83.88005        6.48506        6.78467        6.04468      155.95730
1356.50000      161.23986       78.64497        6.34012        6.70170        6.91784      154.85201
1357.00000      163.99190       73.41084        6.19771        6.78075        9.53267      153.74545
1357.50000      163.99909       64.59779        6.19662        6.86074       11.77089      152.64016
1358.00000      163.08814       60.73884        6.19570        6.86262       12.48524      151.53360
1358.50000      162.17719       61.55972        6.19461        6.55951       12.06854      150.06073
1359.00000      165.84497       65.68237        6.10681        6.26927       10.72166      149.32174
1359.50000      170.42850       74.75911        5.94618        6.03774        8.75373      147.48258
1360.00000      177.76168       79.15795        5.73657        5.72158        7.26870      146.37601
1360.50000      185.09245       88.23470        5.53483        5.42152        6.03560      144.90443
1361.00000      189.67599       89.05558        5.37198        5.18397        5.59319      144.53046
1361.50000      193.34377       86.84799        5.18305        5.18305        6.40095      144.15649
1362.00000      193.35097       86.01655        5.24286        5.26504        6.67593      144.15010
1362.50000      190.60852       81.60810        5.29368        5.34803        6.08283      143.40983
1363.00000      188.78182       77.47392        5.35838        5.44962        6.08175      143.03586
1363.50000      187.87086       76.09202        5.40301        5.53598        7.32190      142.66317
1364.00000      192.45679       72.78448        5.36796        5.61596        8.96477      142.65550
1364.50000      197.04033       71.12735        5.23147        5.49307        9.83570      143.01540
1365.00000      204.37110       67.81886        5.08055        5.29110        9.42750      143.37403
1365.50000      210.78613       66.71314        4.77243        4.92261        7.69711      144.09895
1366.00000      225.44529       64.78079        4.48338        4.58016        6.50016      144.09256
1366.50000      234.60756       64.22553        4.37985        4.31270        6.49920      144.08489
1367.00000      241.02259       65.04545        4.25876        4.08446        6.55314      143.34462
1367.50000      247.43762       69.16810        4.14102        3.93151        6.44248      142.97193
1368.00000      250.19205       76.86967        4.06800        3.84884        5.72331      142.23166
1368.50000      247.44960       87.59778        4.02153        3.91368        4.67281      141.49267
1369.00000      241.95991       96.53787        4.09896        3.97962        4.35216      140.38610
