~Version ---------------------------------------------------
VERS. 2.0 : CWLS LOG ASCII STANDARD - VERSION 2.0
WRAP. NO  : One line per depth step
DLM . SPACE : Column Data Section Delimiter
~Well ------------------------------------------------------
STRT.F           48 : START DEPTH
STOP.F       1432.0 : STOP DEPTH
STEP.F          0.5 : STEP
NULL.       -999.25 : NULL VALUE
COMP.                 WALSH & WATTS, INC. : COMPANY
WELL.                         HOWARD F 25 : WELL
FLD .                            MONTAGUE : FIELD
CNTY.                            MONTAGUE : COUNTY
STAT.                               TEXAS : STATE
CTRY.                                 USA : COUNTRY
SEC .                                     : SECTION
TWP .                                     : TOWNSHIP
RGE .                                     : RANGE
LOC . 1115'FEL & 2300'FSL OF THE J.CHAMBLIS SURVEY A-123 : LOCATION
EKB .F                      512 : ELEVATION KELLY BUSHING
EDF .F                      511 : ELEVATION DERRICK FLOOR
EGL .F                      505 : ELEVATION GROUND LEVEL
PDAT.                        GL : PERMANENT DATUM
EPD .                       505 : ELEVATION PERMANENT DATUM
APD .                         7 : ABOVE PERMANENT DATUM
LMF .                        KB : LOG MEASURED FROM
DMF .                        KB : DRILLING MEASURED FROM
API .            42337343120000 : API NUMBER
UWI .                           : UWI NUMBER
DIGC.                     NthDS : DIGITIZING COMPANY
~Params ----------------------------------------------------
SRVC. PIONEER WIRELINE SERVICES : LOGGING COMPANY
LOG .                   CNFD/ML : LOG
DATE.                2010-10-07 : RUN DATE
RUN .                         1 : RUN NUMBER
TDD .F                     1450 : TOTAL DEPTH DRILLER
TDL .F                     1452 : TOTAL DEPTH LOGGER
BOTL.F                     1452 : BOTTOM LOGGED INTERVAL
TOPL.F                       50 : TOP LOGGED INTERVAL
CSGS.IN                         : CASING SIZE
CSGD.F                          : CASING DRILLER
CSGL.F                          : CASING LOGGER
BS  .IN                   7.875 : BIT SIZE
MUD .                  GEL-CHEM : MUD TYPE
MUDD.                           : MUD DENSITY
MUDV.                           : MUD VISCOSITY
PH  .                           : MUD PH
FL  .                           : FLUID LOSS
MUDS.                  FLOWLINE : SOURCE OF SAMPLE
RM  .OHMM                   4.0 : MUD RESISTIVITY
RMT .DEGF                    72 : RM TEMPERATURE
RMF .OHMM                   3.0 : MUD FILTRATE RESISTIVITY
RMFT.DEGF                    72 : RMF TEMPERATURE
RMC .OHMM                   5.0 : MUD CAKE RESISTIVITY
RMCT.DEGF                    72 : RMC TEMPERATURE
RMFS.                      CALC : RMF SOURCE
RMCS.                      CALC : RMC SOURCE
RMBH.OHMM                     3 : MUD RESISTIVITY AT BHT
BHT .DEGF                    88 : BOTTOM HOLE TEMPERATURE
TIMC.           0730 2010-10-07 : TIME CIRCULATION STOPPED
TIML.           1020 2010-10-07 : TIME LOGGER ON BOTTOM
TMAX.DEGF                    88 : MAXIMUM RECORDED TEMPERATURE
UNIT.                      M-19 : EQUIPMENT NUMBER
BASE.                GRAHAM, TX : BASE LOCATION
ENG .                    WENDEL : RECORDED BY
WIT .           WOMBLE/BURLESON : WITNESSED BY
~Curve Information -----------------------------------------
DEPT.F          :DEPTH
CALD.IN         :
DPHI.%          :
GRD.GAPI        :
MINV.OHMM       :
MNOR.OHMM       :
NPHI.%          :
RHOC.G/CC       :
~ASCII ------------------------------------------------------
# ...
1063.00000        8.20836       27.51387       32.59090        7.35507        9.40289       18.63146        0.04975
1063.50000        8.20454       27.48536       32.00727        7.53623        9.28695       18.07047        0.04706
1064.00000        8.20073       27.52785       31.73999        7.73913        9.75507       17.74187        0.04388
1064.50000        8.20000       27.56362       31.36363        8.40579       10.14492       17.46804        0.04123
1065.00000        8.20000       27.60611       30.54545        8.07971       10.41304       16.15134        0.03801
1065.50000        8.20000       27.18369       30.89727        8.84058       10.67971       15.24329        0.03985
1066.00000        8.20000       26.67650       32.99999        8.63768       10.78260       15.34543        0.04348
1066.50000        8.20000       26.25409       36.43636        8.51449       10.86956       16.61523        0.04783
1067.00000        8.18782       26.40819       39.29999        7.10145        7.60869       18.13950        0.03815
1067.50000        8.16964       27.32826       42.73635        8.11594        6.60869       19.54263        0.03011
1068.00000        8.17854       28.09522       44.12726        4.54637        3.65217       20.51051        0.02043
1068.50000        8.20818       28.90403       42.43635        6.99275        5.36232       20.95043        0.02500
1069.00000        8.23800       28.79745       40.03635        8.63333        8.08116       20.67673        0.03420
1069.50000        8.26273       27.57370       38.03726        9.34782        8.84927       19.48799        0.04344
1070.00000        8.27036       26.40106       37.82999       10.00000        9.48840       18.06150        0.05112
1070.50000        8.26673       24.99397       39.69545        8.87681        9.66521       17.63506        0.06033
1071.00000        8.26382       24.56497       41.92635        8.84058        8.66231       17.86162        0.06956
1071.50000        8.26018       24.45814       43.63635        9.15942        7.82608       18.17333        0.05989
1072.00000        8.25727       24.44670       44.90999       10.72463       11.30434       18.67583        0.04830
1072.50000        8.25364       24.43283       47.11363        9.27536        9.85507       18.41457        0.04301
1073.00000        8.25000       23.95053       46.36363       10.14492       10.06521       17.23388        0.05750
1073.50000        8.24709       23.62912       42.18817       10.36231       11.25217       16.05356        0.06706
1074.00000        8.24345       24.00500       37.17545       10.77246       10.48260       15.42304        0.05464
1074.50000        8.24054       24.47443       32.99999       10.04782        9.20289       15.39636        0.03967
1075.00000        8.23691       25.03805       32.45454        9.37246        8.84058       16.01437        0.03014
1075.50000        8.25091       25.19362       33.42817        8.43043        8.44203       16.24606        0.03268
1076.00000        8.26545       25.04385       33.95454        7.26087        8.11594       16.01395        0.03525
1076.50000        8.28291       24.82796       33.94636        8.05797        8.43768       15.90785        0.03696
1077.00000        8.29745       24.76346       33.70636        8.69565        8.74347       15.96339        0.03696
1077.50000        8.30527       24.68555       33.41727        7.89855        8.45362       16.48382        0.03696
1078.00000        8.29382       24.16615       33.27272        8.04347        8.08695       17.23115        0.03696
1078.50000        8.28418       23.17882       33.54545        8.74347        9.49275       17.67900        0.04058
1079.00000        8.27273       21.58020       34.85454        8.84058        9.08260       17.91581        0.04677
1079.50000        8.27273       19.42910       35.72726        7.97101        8.69565       17.55061        0.06232
1080.00000        8.27273       19.03926       35.75726        9.27536       10.00000       16.91777        0.04370
1080.50000        8.27454       20.07863       33.58363        9.72318       10.73913       16.06035        0.02815
1081.00000        8.28400       21.49128       31.44272        9.96087       11.34782       15.95450        0.01884
1081.50000        8.29527       22.53199       30.18272        9.03333       10.90579       16.77100        0.02609
1082.00000        8.30654       23.12891       32.90999        8.98550       11.54637       17.45123        0.03333
1082.50000        8.31600       23.09820       35.18181       10.02029       11.12318       18.12903        0.02971
1083.00000        8.32727       22.90232       35.00999        9.80724       11.27536       18.66886        0.03696
1083.50000        8.32727       22.61580       34.86545        9.71014       12.15217       18.38807        0.04058
1084.00000        8.32727       22.52788       34.69363        9.45652       11.81739       17.23239        0.03333
1084.50000        8.32727       22.86496       34.16999       10.03623       11.38550       16.17174        0.03333
1085.00000        8.32727       23.21766       33.40908        8.51449       10.12898       15.97854        0.04058
1085.50000        8.32891       23.53352       32.18181       10.22753       10.98550       16.11642        0.04420
1086.00000        8.33164       23.63566       31.15908       11.36231       12.57970       16.65698        0.04783
1086.50000        8.33491       23.72083       30.34090       10.95072       12.82608       16.72033        0.03696
1087.00000        8.33836       24.14612       29.93181       10.14492       11.84202       16.35098        0.03333
1087.50000        8.34109       24.50064       30.89727       10.00000       11.81159       16.18340        0.03333
1088.00000        8.34436       24.78430       35.41636        8.69565       10.66086       16.11085        0.02971
1088.50000        8.36054       24.58378       43.40181        8.49275        9.51014       16.33119        0.03333
1089.00000        8.39091       23.57802       57.51271        9.34782        9.18405       16.84418        0.04420
1089.50000        8.42127       21.08109       72.52907        4.81884        3.04348       17.72326        0.06232
1090.00000        8.44654       19.00014       85.04180        4.10580        2.98551       18.75677        0.08768
1090.50000        8.47673       16.91954       91.09089        4.39565        2.92753       20.09952        0.09855
1091.00000        8.50709       16.55435       88.21634        4.33478        2.91884       20.94590        0.07681
1091.50000        8.51873       17.25654       82.97180        4.01884        2.98116       19.41292        0.06232
1092.00000        8.46782       18.60002       76.34998        4.72464        3.04348       17.28438        0.05507
1092.50000        8.42545       20.04378       69.45817        9.91304        8.84058       15.56829        0.05145
1093.00000        8.36254       21.20501       61.19180       11.32608       11.97826       15.00804        0.04420
1093.50000        8.28745       21.86439       52.92272       11.49420       13.00144       15.21118        0.04420
1094.00000        8.22509       22.08473       47.75999       10.97246       14.22898       15.93643        0.04058
1094.50000        8.20291       21.98363       42.07908       10.72463       13.67101       16.92529        0.04420
1095.00000        8.20636       21.99465       37.34726       12.17391       13.71014       17.25530        0.04420
1095.50000        8.21073       22.50264       33.95454       11.69710       13.80434       16.52816        0.02971
1096.00000        8.21491       23.11882       32.09181        9.71014       11.41304       15.57327        0.02246
1096.50000        8.21854       23.77174       31.18090        9.52898        9.37246       15.10121        0.01522
1097.00000        8.22273       23.68089       30.54545       10.72463       10.91159       14.62879        0.03333
