~Version ---------------------------------------------------
VERS. 2.0 : CWLS LOG ASCII STANDARD - VERSION 2.0
WRAP. NO  : One line per depth step
DLM . SPACE : Column Data Section Delimiter
~Well ------------------------------------------------------
STRT.F         48.5 : START DEPTH
STOP.F       1455.5 : STOP DEPTH
STEP.F          0.5 : STEP
NULL.       -999.25 : NULL VALUE
COMP.                 WALSH & WATTS, INC. : COMPANY
WELL.                         HOWARD F 25 : WELL
FLD .                            MONTAGUE : FIELD
CNTY.                            MONTAGUE : COUNTY
STAT.                               TEXAS : STATE
CTRY.                                 USA : COUNTRY
SEC .                                     : SECTION
TWP .                                     : TOWNSHIP
RGE .                                     : RANGE
LOC . 1115'FEL & 2300'FSL OF THE J.CHAMBLIS SURVEY A-123 : LOCATION
EKB .F                      512 : ELEVATION KELLY BUSHING
EDF .F                      511 : ELEVATION DERRICK FLOOR
EGL .F                      505 : ELEVATION GROUND LEVEL
PDAT.                        GL : PERMANENT DATUM
EPD .                       505 : ELEVATION PERMANENT DATUM
APD .                         7 : ABOVE PERMANENT DATUM
LMF .                        KB : LOG MEASURED FROM
DMF .                        KB : DRILLING MEASURED FROM
API .            42337343120000 : API NUMBER
UWI .                           : UWI NUMBER
DIGC.                     NthDS : DIGITIZING COMPANY
~Params ----------------------------------------------------
SRVC. PIONEER WIRELINE SERVICES : LOGGING COMPANY
LOG .                      DIFL : LOG
DATE.                2010-10-07 : RUN DATE
RUN .                         1 : RUN NUMBER
TDD .F                     1450 : TOTAL DEPTH DRILLER
TDL .F                     1452 : TOTAL DEPTH LOGGER
BOTL.F                     1452 : BOTTOM LOGGED INTERVAL
TOPL.F                       50 : TOP LOGGED INTERVAL
CSGS.IN                         : CASING SIZE
CSGD.F                          : CASING DRILLER
CSGL.F                          : CASING LOGGER
BS  .IN                   7.875 : BIT SIZE
MUD .                  GEL-CHEM : MUD TYPE
MUDD.                           : MUD DENSITY
MUDV.                           : MUD VISCOSITY
PH  .                           : MUD PH
FL  .                           : FLUID LOSS
MUDS.                  FLOWLINE : SOURCE OF SAMPLE
RM  .OHMM                   4.0 : MUD RESISTIVITY
RMT .DEGF                    72 : RM TEMPERATURE
RMF .OHMM                   3.0 : MUD FILTRATE RESISTIVITY
RMFT.DEGF                    72 : RMF TEMPERATURE
RMC .OHMM                   5.0 : MUD CAKE RESISTIVITY
RMCT.DEGF                    72 : RMC TEMPERATURE
RMFS.                      CALC : RMF SOURCE
RMCS.                      CALC : RMC SOURCE
RMBH.OHMM                     3 : MUD RESISTIVITY AT BHT
BHT .DEGF                    88 : BOTTOM HOLE TEMPERATURE
TIMC.           0730 2010-10-07 : TIME CIRCULATION STOPPED
TIML.           1020 2010-10-07 : TIME LOGGER ON BOTTOM
TMAX.DEGF                    88 : MAXIMUM RECORDED TEMPERATURE
UNIT.                      M-19 : EQUIPMENT NUMBER
BASE.                GRAHAM, TX : BASE LOCATION
ENG .                    WENDEL : RECORDED BY
WIT .           WOMBLE/BURLESON : WITNESSED BY
~Curve Information -----------------------------------------
DEPT.F          :DEPTH
CILD.MMHO       :
GRR.GAPI        :
RILD.OHMM       :
RILM.OHMM       :
RSFL.OHMM       :
SP.MV           :
~ASCII ------------------------------------------------------
48.50000        -999.25       44.97257        5.01432        -999.25       10.89511        -999.25
49.00000        -999.25       47.79432        5.02686        -999.25       10.02309        -999.25
49.50000        -999.25       46.76873        5.04550        -999.25       11.15906        -999.25
50.00000      199.99184       44.52284        5.06422        -999.25       10.61758        -999.25
50.50000      201.83629       43.23674        5.08016        -999.25        9.75706        -999.25
51.00000      204.59815       43.49176        5.04426        -999.25       11.25934        -999.25
51.50000      211.26384       46.06946        4.74621        -999.25       14.87056        -999.25
52.00000      223.08063       49.03107        4.51134        -999.25       16.04048        -999.25
52.50000      241.66796       51.59231        4.16533        -999.25       14.37216        -999.25
53.00000      269.55355       55.11882        3.77357        -999.25       13.20773       81.35282
53.50000      288.14088       54.64990        3.41895        5.75794       10.87685       82.26689
54.00000      344.95267       52.54935        3.11871        4.56788        8.66016       83.36378
54.50000      382.82414       49.51918        2.66655        3.62378        7.37675       84.46068
55.00000      439.63593       46.48902        2.33680        3.23141        7.13077       85.37475
55.50000      477.50740       45.72668        2.18069        2.84689        7.01026       86.21570
56.00000      499.20958       47.98902        2.05444        2.44546        6.95036       86.80071
56.50000      501.97145       62.04843        2.02825        2.29522        5.72376       87.28700
57.00000      496.10957       73.76598        2.00669        2.16215        3.53847       87.52100
57.50000      490.24770       87.82539        2.04632        2.21101        2.81733       87.68188
58.00000      474.08322       99.74861        2.15525        2.29407        2.93825       87.82082
58.50000      434.39176       99.63343        2.25041        2.51856        3.30593       87.98170
59.00000      407.92467       93.89395        2.37020        2.86182        4.25715       88.09504
59.50000      387.46667       79.76598        2.47485        3.18358        6.65550       87.98901
60.00000      373.02693       66.91041        2.60681        3.50988        8.64309       87.85738
60.50000      358.58720       51.48536        2.74095        3.75422        9.01379       87.02009
61.00000      344.14747       40.58500        2.84993        3.90875        8.93650       86.65446
61.50000      335.10215       36.47166        2.98648        3.98798        8.93519       86.28883
62.00000      334.19914       34.82632        3.02754        4.06881        8.93361       85.19194
62.50000      335.12617       35.64899        3.00243        4.06546        8.85701       84.46068
63.00000      341.42927       35.92321        2.93902        4.04014        8.85571       83.72941
63.50000      350.87474       36.47166        2.87670        4.01497        8.92914       83.36378
64.00000      357.17784       37.29432        2.82578        3.99411        9.23389       82.63252
64.50000      365.65522       39.21389        2.76610        3.94221        9.31073       82.63252
65.00000      374.13260       38.93966        2.70608        3.83849        9.07650       82.63252
65.50000      386.85326       38.39122        2.65191        3.75405        8.77409       82.63252
66.00000      395.33064       36.47166        2.58847        3.65529        8.41028       82.26689
66.50000      403.80802       35.10054        2.52633        3.52774        8.33818       82.26689
67.00000      418.65709       34.55209        2.46056        3.41222        8.33695       82.26689
67.50000      431.40046       36.19743        2.35774        3.27129        8.26547       82.26689
68.00000      444.15301       36.19743        2.25922        3.10145        8.19460       82.26689
68.50000      463.26808       35.64899        2.18027        2.96668        8.05634       82.26689
69.00000      476.01145       35.37476        2.08916        2.81266        7.92018       82.26689
69.50000      488.75483       33.45520        2.04486        2.75117        7.85227       82.26689
70.00000      507.87907       33.45520        2.00884        2.74034        7.78518       81.90126
70.50000      520.62244       34.55209        1.96624        2.74634        7.65360       81.90126
71.00000      525.52189       35.64899        1.92455        2.75257        7.65225       82.26689
71.50000      532.87565       36.47166        1.89064        2.75775        7.78128       82.26689
72.00000      537.78427       36.47166        1.86356        2.74890        7.91226       82.26689
72.50000      542.68372       36.47166        1.84976        2.72533        7.71320       82.63252
73.00000      547.58317       36.74588        1.83845        2.70592        7.51938       83.36378
73.50000      551.26725       37.56855        1.82484        2.66850        7.58173       84.46068
74.00000      551.20347       39.76233        1.82236        2.60400        7.77487       85.19194
74.50000      549.83695       41.40767        1.82209        2.55145        7.51561       86.28883
75.00000      539.22285       42.77878        1.84497        2.48978        7.26500       87.75135
75.50000      509.42116       44.69834        1.90536        2.42960        6.84748       88.84824
76.00000      489.55031       49.27513        2.01635        2.46370        5.45197       89.94514
76.50000      455.43194       56.44880        2.15799        2.50031        4.56620       91.04203
77.00000      421.31358       64.44240        2.28350        2.52828        4.72204       92.13892
77.50000      387.19522       66.63618        2.44390        2.77110        5.05091       93.23581
78.00000      353.07686       67.73307        2.61558        3.17090        5.26754       94.33270
78.50000      318.95850       69.37841        2.83456        3.62839        5.54015       94.91771
79.00000      304.90408       71.02375        3.12140        4.05954        5.87606       96.08773
79.50000      290.84049       72.31534        3.39034        4.40931        6.07661       97.25775
80.00000      276.78607       73.43691        3.63197        4.73939        6.12717       98.23398
80.50000      267.62630       73.10784        3.69311        4.79943        6.28308       99.40400
81.00000      266.53500       71.84642        3.74494        4.77638        6.49752      100.42777
81.50000      265.44371       70.20108        3.81473        4.66447        6.95004      101.03471
82.00000      260.88457       71.69285        3.88713        4.43102        7.24813      101.76597
82.50000      252.86676       74.58865        3.94834        4.16605        6.22609      102.49723
83.00000      240.84464       83.41314        4.09310        4.27061        5.08440      103.00180
83.50000      232.82684       90.96250        4.36366        4.53847        5.30247      103.52466
84.00000      217.11189       91.94422        4.62485        4.92036        6.06767      103.95976
84.50000      201.38777       89.12247        4.95892        5.43217        7.30349      104.48261
85.00000      185.67283       85.50272        5.35222        6.11708        8.42800      105.18096
85.50000      162.10041       82.92777        5.86525        6.88836        9.24599      105.78791
86.00000      146.37629       81.95976        6.54653        7.64539        9.97341      106.51917
86.50000      130.66134       80.99176        7.17405        8.74844       11.22177      107.25043
87.00000      118.35002       80.80528        8.00668        9.73338       12.73296      107.86104
87.50000      109.45149       83.54751        8.77686       10.15114       12.20500      107.59413
88.00000      100.54379       83.83271        9.47483       11.54441       11.60101      107.33087
88.50000       90.73265       81.22484       10.54868       12.85102       13.84656      107.10784
