~Version ---------------------------------------------------
VERS. 2.0 : CWLS LOG ASCII STANDARD - VERSION 2.0
WRAP. NO  : One line per depth step
DLM . SPACE : Column Data Section Delimiter
~Well ------------------------------------------------------
STRT.F         48.5 : START DEPTH
STOP.F       1449.0 : STOP DEPTH
STEP.F          0.5 : STEP
NULL.       -999.25 : NULL VALUE
COMP.                 WALSH & WATTS, INC. : COMPANY
WELL.                         HOWARD F 14 : WELL
FLD .             MONTAGUE COUNTY REGULAR : FIELD
CNTY.                            MONTAGUE : COUNTY
STAT.                               TEXAS : STATE
CTRY.                                 USA : COUNTRY
SEC .                                     : SECTION
TWP .                                     : TOWNSHIP
RGE .                                     : RANGE
LOC . 1430'FEL & 2600'FSL OF THE J.CHAMBLIS SURVEY A-123 : LOCATION
EKB .F                      849 : ELEVATION KELLY BUSHING
EDF .F                      848 : ELEVATION DERRICK FLOOR
EGL .F                      841 : ELEVATION GROUND LEVEL
PDAT.                        GL : PERMANENT DATUM
EPD .                       841 : ELEVATION PERMANENT DATUM
APD .                         8 : ABOVE PERMANENT DATUM
LMF .                        KB : LOG MEASURED FROM
DMF .                        KB : DRILLING MEASURED FROM
API .            42337351020000 : API NUMBER
UWI .                           : UWI NUMBER
DIGC.                     NthDS : DIGITIZING COMPANY
~Params ----------------------------------------------------
SRVC. PIONEER WIRELINE SERVICES : LOGGING COMPANY
LOG .                      DIFL : LOG
DATE.                2013-08-01 : RUN DATE
RUN .                         1 : RUN NUMBER
TDD .F                     1450 : TOTAL DEPTH DRILLER
TDL .F                     1449 : TOTAL DEPTH LOGGER
BOTL.F                     1449 : BOTTOM LOGGED INTERVAL
TOPL.F                       50 : TOP LOGGED INTERVAL
CSGS.IN                         : CASING SIZE
CSGD.F                          : CASING DRILLER
CSGL.F                          : CASING LOGGER
BS  .IN                   7.875 : BIT SIZE
MUD .                       GEL : MUD TYPE
MUDD.                       9.2 : MUD DENSITY
MUDV.                        75 : MUD VISCOSITY
PH  .                           : MUD PH
FL  .                           : FLUID LOSS
MUDS.                  FLOWLINE : SOURCE OF SAMPLE
RM  .OHMM                   2.8 : MUD RESISTIVITY
RMT .DEGF                    72 : RM TEMPERATURE
RMF .OHMM                   2.1 : MUD FILTRATE RESISTIVITY
RMFT.DEGF                    72 : RMF TEMPERATURE
RMC .OHMM                   3.5 : MUD CAKE RESISTIVITY
RMCT.DEGF                    72 : RMC TEMPERATURE
RMFS.                      CALC : RMF SOURCE
RMCS.                      CALC : RMC SOURCE
RMBH.OHMM                   2.3 : MUD RESISTIVITY AT BHT
BHT .DEGF                    87 : BOTTOM HOLE TEMPERATURE
TIMC.           0130 2018-08-01 : TIME CIRCULATION STOPPED
TIML.           0400 2018-08-01 : TIME LOGGER ON BOTTOM
TMAX.DEGF                    87 : MAXIMUM RECORDED TEMPERATURE
UNIT.                     C-052 : EQUIPMENT NUMBER
BASE.                GRAHAM, TX : BASE LOCATION
ENG .                    WENDEL : RECORDED BY
WIT .                  BURLESON : WITNESSED BY
~Curve Information -----------------------------------------
DEPT.F          :DEPTH
CILD.MMHO       :
GRR.GAPI        :
RILD.OHMM       :
RILM.OHMM       :
RSFL.OHMM       :
SP.MV           :
~ASCII ------------------------------------------------------
# ...
129.50000      255.54112       56.48993        3.96343        4.15320        7.08775      132.60692
130.00000      261.95157       54.02193        3.89033        4.11053        9.16470      132.47529
130.50000      271.10022       52.37659        3.80451        4.04989       10.81518      132.31441
131.00000      280.24888       48.81169        3.65900        3.93339        9.60609      132.15354
131.50000      292.13974       47.44057        3.54215        3.83883        8.67746      132.01825
132.00000      311.34713       45.79524        3.38628        3.72840        8.38733      131.99266
132.50000      327.80833       46.06946        3.19917        3.54150        7.70599      131.99266
133.00000      357.06648       47.44057        3.05099        3.36122        6.90243      131.91953
133.50000      387.24269       48.81169        2.85570        3.14209        6.78525      131.77328
134.00000      417.41491       49.36014        2.62365        2.90858        7.32103      131.65262
134.50000      443.93086       49.08591        2.44460        2.72756        7.89865      131.99266
135.00000      483.24775       47.71480        2.24595        2.52485        8.23862      132.35829
135.50000      511.59183       45.24679        2.10351        2.36772        8.23716      132.35829
136.00000      530.79524       41.95611        1.95229        2.18657        8.02960      133.45518
136.50000      552.74483       40.58500        1.81194        2.03195        7.82705      133.82081
137.00000      551.83874       39.21389        1.79778        1.97006        7.82566      134.91770
137.50000      544.53418       39.21389        1.78097        1.92183        7.31261      136.01459
138.00000      523.51859       40.85922        1.82647        1.93050        7.00858      137.84275
138.50000      506.15927       45.24679        1.88738        1.98429        6.94853      139.67090
139.00000      480.57335       49.36014        1.95033        2.05533        7.56021      141.13342
139.50000      435.79199       54.02193        2.00438        2.14379        8.43761      142.59595
140.00000      401.06539       58.13527        2.18311        2.34583        9.18092      144.42410
140.50000      357.19810       63.34551        2.44907        2.56504        9.17929      145.88662
141.00000      315.15895       68.55574        2.81129        2.93000        7.81550      147.71477
141.50000      280.43234       78.15355        3.14873        3.25624        5.51272      149.54293
142.00000      251.19413       95.01826        3.57944        3.69604        5.52341      151.73671
142.50000      225.60821      107.76963        3.98271        4.13896        6.88086      152.46797
143.00000      200.93635      115.72209        4.53287        4.80648        9.32817      153.56486
143.50000      177.17856      116.42685        5.07307        5.44429       10.76866      155.02739
144.00000      157.07704      113.47347        5.80715        6.32234       11.23215      156.12428
144.50000      144.28807      108.86652        6.64746        7.28879       11.13558      157.02007
145.00000      135.15536      108.63892        7.08173        8.10379       11.22850      157.85371
145.50000      129.67893      109.27785        7.64047        8.71880       11.81091      158.65079
146.00000      126.03462      110.92319        7.83764        9.01900       11.90947      158.46432
146.50000      124.21447      112.43142        7.98951        9.16116       11.80673      158.30709
147.00000      122.39431      117.16177        8.11910        9.15980       11.70591      158.12062
147.50000      119.66008      119.35555        8.27642        9.15818       11.50753      157.96340
148.00000      117.83992      119.10326        8.43678        9.15656       10.93589      157.77327
148.50000      115.10968      119.01277        8.57364        9.16295       10.84250      157.58680
149.00000      115.11766      119.69833        8.66835        9.17296       11.21360      157.37839
149.50000      114.21157      119.47072        8.71780        9.18170       11.11752      157.12611
150.00000      113.64974      118.40400        8.92372        9.34467       11.20534      156.91770
150.50000      112.74115      117.27796        8.98575        9.35409       11.58919      157.16541
151.00000      110.91999      116.28438        9.03701        9.36300       12.29385      156.91173
151.50000      110.92799      119.72474        9.09906        9.37322       10.82684      156.70217
152.00000      110.93598      126.88071        9.13086        9.32834       10.11703      156.44849
152.50000      111.86057      126.65226        9.06768        9.23251       10.46330      156.23894
153.00000      111.87256      121.78896        9.00494        9.13767       11.48209      155.98894
153.50000      111.88056      116.00915        9.03260        9.05937       13.36700      155.63967
154.00000      110.05540      112.78897        9.13161        9.16256       12.92159      155.23526
154.50000      109.14682      112.78071        9.21404        9.24996       11.18881      154.74997
155.00000      108.23823      115.21649        9.31505        9.35531       10.02206      154.34555
155.50000      108.25023      118.13667        9.37583        9.46026        9.93619      153.86026
156.00000      109.17481      119.99997        9.39350        9.53921       10.10480      153.45585
156.50000      108.26623      118.24401        9.41489        9.63481       11.27585      152.97055
157.00000      107.35765      115.19447        9.43183        9.69632       11.56424      152.48526
157.50000      106.44906      113.66970        9.54491        9.73816       12.06162      152.08085
158.00000      103.71132      114.01374        9.67925        9.77220       12.37011      151.98158
158.50000      100.05299      117.66052        9.84262        9.81353       11.75562      152.22423
159.00000       98.22782      125.50456       10.04352        9.88844       11.65455      152.51467
159.50000       96.40266      123.82841       10.24362       10.00728       11.45737      152.80511
160.00000       93.66092      118.19722       10.48990       10.49700       11.62222      153.04776
160.50000       90.92317      111.95777       10.76880       10.92291       11.31597      153.33820
161.00000       87.26484      108.89998       11.24242       11.45744       11.93719      153.58085
161.50000       85.43968      105.22842       11.73786       12.18187       15.31077      154.08820
162.00000       81.78135      102.17062       12.16771       12.85100       18.07474      154.60291
162.50000       77.20644      103.09814       12.70286       13.69015       16.32744      155.22055
163.00000       76.30186      104.94218       13.16805       14.37997       14.74950      155.83820
163.50000       76.30986      106.48071       13.55095       14.37742       17.76213      156.35291
164.00000       76.31786      109.08163       13.54855       14.37488       18.68398      156.97055
164.50000       77.24244      111.33025       13.44269       13.97361       15.64123      157.48526
165.00000       80.00018      113.80731       12.83160       13.28884       13.89219      158.10291
165.50000       85.51167      115.68713       12.34328       12.70337       13.20287      158.61761
166.00000       89.18599      117.88896       11.78317       12.03394       13.53975      158.99629
166.50000       91.02715      118.83025       11.30761       11.48495       13.65313      159.26099
167.00000       93.78490      114.35777       11.17380       11.13042       11.72269      159.47791
167.50000       93.79689      108.99080       11.01607       11.05621       10.41184      159.73893
168.00000       94.72147      107.71924       10.88572       10.99397       10.06401      159.95585
168.50000       94.72947      106.19722       10.85805       10.92067       10.67593      160.22055
169.00000       94.73747      103.76144       10.85612       10.84695       11.81423      160.48158
