~Version ---------------------------------------------------
VERS. 2.0 : CWLS LOG ASCII STANDARD - VERSION 2.0
WRAP. NO  : One line per depth step
DLM . SPACE : Column Data Section Delimiter
~Well ------------------------------------------------------
STRT.F           48 : START DEPTH
STOP.F       1439.0 : STOP DEPTH
STEP.F          0.5 : STEP
NULL.       -999.25 : NULL VALUE
COMP.                 WALSH & WATTS, INC. : COMPANY
WELL.                         HOWARD F 14 : WELL
FLD .             MONTAGUE COUNTY REGULAR : FIELD
CNTY.                            MONTAGUE : COUNTY
STAT.                               TEXAS : STATE
CTRY.                                 USA : COUNTRY
SEC .                                     : SECTION
TWP .                                     : TOWNSHIP
RGE .                                     : RANGE
LOC . 1430'FEL & 2600'FSL OF THE J.CHAMBLIS SURVEY A-123 : LOCATION
EKB .F                      849 : ELEVATION KELLY BUSHING
EDF .F                      848 : ELEVATION DERRICK FLOOR
EGL .F                      841 : ELEVATION GROUND LEVEL
PDAT.                        GL : PERMANENT DATUM
EPD .                       841 : ELEVATION PERMANENT DATUM
APD .                         8 : ABOVE PERMANENT DATUM
LMF .                        KB : LOG MEASURED FROM
DMF .                        KB : DRILLING MEASURED FROM
API .            42337351020000 : API NUMBER
UWI .                           : UWI NUMBER
DIGC.                     NthDS : DIGITIZING COMPANY
~Params ----------------------------------------------------
SRVC.                   PIONEER : LOGGING COMPANY
LOG .                      CNFD : LOG
DATE.                2013-08-01 : RUN DATE
RUN .                         1 : RUN NUMBER
TDD .F                     1450 : TOTAL DEPTH DRILLER
TDL .F                     1449 : TOTAL DEPTH LOGGER
BOTL.F                     1429 : BOTTOM LOGGED INTERVAL
TOPL.F                       50 : TOP LOGGED INTERVAL
CSGS.IN                         : CASING SIZE
CSGD.F                          : CASING DRILLER
CSGL.F                          : CASING LOGGER
BS  .IN                   7.875 : BIT SIZE
MUD .                       GEL : MUD TYPE
MUDD.                       9.2 : MUD DENSITY
MUDV.                        75 : MUD VISCOSITY
PH  .                           : MUD PH
FL  .                           : FLUID LOSS
MUDS.                  FLOWLINE : SOURCE OF SAMPLE
RM  .OHMM                   2.8 : MUD RESISTIVITY
RMT .DEGF                    72 : RM TEMPERATURE
RMF .OHMM                   2.1 : MUD FILTRATE RESISTIVITY
RMFT.DEGF                    72 : RMF TEMPERATURE
RMC .OHMM                   3.5 : MUD CAKE RESISTIVITY
RMCT.DEGF                    72 : RMC TEMPERATURE
RMFS.                      CALC : RMF SOURCE
RMCS.                      CALC : RMC SOURCE
RMBH.OHMM                   2.3 : MUD RESISTIVITY AT BHT
BHT .DEGF                    87 : BOTTOM HOLE TEMPERATURE
TIMC.           0130 2018-08-01 : TIME CIRCULATION STOPPED
TIML.           0400 2018-08-01 : TIME LOGGER ON BOTTOM
TMAX.DEGF                    87 : MAXIMUM RECORDED TEMPERATURE
UNIT.                     C-052 : EQUIPMENT NUMBER
BASE.                GRAHAM, TX : BASE LOCATION
ENG .                    WENDEL : RECORDED BY
WIT .                  BURLESON : WITNESSED BY
~Curve Information -----------------------------------------
DEPT.F          :DEPTH
CALD.IN         :
DPHI.%          :
GRD.GAPI        :
MINV.OHMM       :
MNOR.OHMM       :
NPHI.%          :
RHOC.G/CC       :
~ASCII ------------------------------------------------------
# ...
1408.00000        7.52642       27.03025       83.94494        9.07636        7.86472       17.40605        0.08000
1408.50000        7.52477       27.11567       78.16512        8.24218        7.95127       18.46563        0.08000
1409.00000        7.52330       27.48488       75.13760        8.82400        9.16363       18.67095        0.06545
1409.50000        7.48844       27.97984       72.93576        8.82400        8.18181       18.67095        0.06182
1410.00000        7.46110       28.34464       71.00916        8.43636        8.58181       17.90101        0.05818
1410.50000        7.44954       28.45720       70.18347        8.51418        8.94545       17.26563        0.05455
1411.00000        7.43578       28.65188       70.45870        8.60800        8.90545       16.88653        0.05455
1411.50000        7.42440       29.14280       73.76145        8.39272        8.78400       16.90303        0.03636
1412.00000        7.41064       29.55160        -999.25        7.95636        8.34181       17.31842        0.04000
1412.50000        7.39908       29.38588        -999.25        7.68509        7.81018       17.17837        0.04727
1413.00000        7.38404       28.50889        -999.25        8.24727        7.36727       16.66655        0.06909
1413.50000        7.38349       27.26233        -999.25        7.89818        6.83636       15.95784        0.07273
1414.00000        7.40550       26.51696        -999.25        7.74254        6.79272       16.04950        0.07273
1414.50000        7.41284       26.34574        -999.25        7.79200        6.74109       16.25115        0.06280
1415.00000        7.40312       27.58020        -999.25        7.84218        6.68945       16.47113        0.05291
1415.50000        7.34477       29.09258        -999.25        7.88363        6.64582       16.65445        0.03956
1416.00000        7.29633       30.00000        -999.25        7.93381        6.59418       17.08084        0.03411
1416.50000        7.24165       30.00000        -999.25        7.97527        6.55054       17.50688        0.03636
1417.00000        7.22023       30.00000        -999.25        7.56363        6.49891        -999.25        0.05818
1417.50000        7.19376       28.91696        -999.25        6.83636        5.89091        -999.25        0.06182
1418.00000        7.20349       26.75087        -999.25        6.14545        5.00363        -999.25        0.09091
1418.50000        7.22294       24.76920        -999.25        6.19636        5.35272        -999.25        0.09455
1419.00000        7.18862       24.55912        -999.25        5.41818        4.58182        -999.25        0.09091
1419.50000        7.13761       25.49038        -999.25        4.80800        4.80000        -999.25        0.08364
1420.00000        7.17890       25.99853        -999.25        4.63054        4.98182        -999.25        0.08000
1420.50000        7.15138       25.74702        -999.25        4.14545        4.53018        -999.25        0.08000
1421.00000        7.06881       25.72392        -999.25        3.65454        3.76363        -999.25        0.08727
1421.50000        7.01615       26.56095        -999.25        3.49091        3.91054        -999.25        0.08000
1422.00000        6.98239       28.26215        -999.25        3.81818        4.31345        -999.25        0.06909
1422.50000        6.95413       29.67993        -999.25        3.84363        4.52727        -999.25        0.06545
1423.00000        6.95413       29.95600        -999.25        3.67563        4.20000        -999.25        0.06909
1423.50000        6.95413       29.94867        -999.25        3.66036        3.92727        -999.25        0.08000
1424.00000        6.88073       29.93987        -999.25        4.06036        4.26691        -999.25        0.08727
1424.50000        6.86239       29.93254        -999.25        3.63636        4.43636        -999.25        0.09091
1425.00000        6.80734       29.52337        -999.25        4.07273        4.43636        -999.25        0.09818
1425.50000        6.64220       28.31347        -999.25        3.90909        4.40000        -999.25        0.09091
1426.00000        6.50459       27.30522        -999.25        3.78182        4.36945        -999.25        0.08364
1426.50000        6.36697       27.08524        -999.25        3.56363        4.40945        -999.25        0.07273
1427.00000        6.05505       27.36022        -999.25        3.92727        4.38763        -999.25        0.08364
1427.50000        -999.25       27.95197        -999.25        3.54909        4.24218        -999.25        0.08727
1428.00000        -999.25       28.64345        -999.25        -999.25        -999.25        -999.25        0.09091
1428.50000        -999.25       29.63336        -999.25        -999.25        -999.25        -999.25        0.07636
1429.00000        -999.25        -999.25        -999.25        -999.25        -999.25        -999.25        0.06545
1429.50000        -999.25        -999.25        -999.25        -999.25        -999.25        -999.25        0.06182
1430.00000        -999.25        -999.25        -999.25        -999.25        -999.25        -999.25        0.05818
1430.50000        -999.25        -999.25        -999.25        -999.25        -999.25        -999.25        0.05818
1431.00000        -999.25        -999.25        -999.25        -999.25        -999.25        -999.25        0.06153
1431.50000        -999.25        -999.25        -999.25        -999.25        -999.25        -999.25        0.06433
1432.00000        -999.25        -999.25        -999.25        -999.25        -999.25        -999.25        0.06302
1432.50000        -999.25        -999.25        -999.25        -999.25        -999.25        -999.25        0.06000
1433.00000        -999.25        -999.25        -999.25        -999.25        -999.25        -999.25        0.05636
1433.50000        -999.25        -999.25        -999.25        -999.25        -999.25        -999.25        0.05560
1434.00000        -999.25        -999.25        -999.25        -999.25        -999.25        -999.25        0.05731
1434.50000        -999.25        -999.25        -999.25        -999.25        -999.25        -999.25        0.05938
1435.00000        -999.25        -999.25        -999.25        -999.25        -999.25        -999.25        0.06113
1435.50000        -999.25        -999.25        -999.25        -999.25        -999.25        -999.25        0.06665
1436.00000        -999.25        -999.25        -999.25        -999.25        -999.25        -999.25        0.07956
1436.50000        -999.25        -999.25        -999.25        -999.25        -999.25        -999.25        0.11364
1437.00000        -999.25        -999.25        -999.25        -999.25        -999.25        -999.25        0.14545
1437.50000        -999.25        -999.25        -999.25        -999.25        -999.25        -999.25        0.14847
1438.00000        -999.25        -999.25        -999.25        -999.25        -999.25        -999.25        0.02182
1438.50000        -999.25        -999.25        -999.25        -999.25        -999.25        -999.25       -0.28364
1439.00000        -999.25        -999.25        -999.25        -999.25        -999.25        -999.25       -0.57745
