~Version ---------------------------------------------------
VERS. 2.0 : CWLS LOG ASCII STANDARD - VERSION 2.0
WRAP. NO  : One line per depth step
DLM . SPACE : Column Data Section Delimiter
~Well ------------------------------------------------------
STRT.F           11 : START DEPTH
STOP.F       1399.0 : STOP DEPTH
STEP.F          0.5 : STEP
NULL.       -999.25 : NULL VALUE
COMP.                 WALSH & WATTS, INC. : COMPANY
WELL.                      HOWARD AB E 4E : WELL
FLD .             MONTAGUE COUNTY REGULAR : FIELD
CNTY.                            MONTAGUE : COUNTY
STAT.                                     : STATE
CTRY.                                 USA : COUNTRY
SEC .                                     : SECTION
TWP .                                     : TOWNSHIP
RGE .                                     : RANGE
LOC . 3250'FEL & 1590'FSL OF THE J.CHAMBLIS SURVEY A-123 : LOCATION
EKB .F                          : ELEVATION KELLY BUSHING
EDF .F                          : ELEVATION DERRICK FLOOR
EGL .F                          : ELEVATION GROUND LEVEL
PDAT.                        GL : PERMANENT DATUM
EPD .                           : ELEVATION PERMANENT DATUM
APD .                         8 : ABOVE PERMANENT DATUM
LMF .                        KB : LOG MEASURED FROM
DMF .                        KB : DRILLING MEASURED FROM
API .            42337348780000 : API NUMBER
UWI .                           : UWI NUMBER
DIGC.                     NthDS : DIGITIZING COMPANY
~Params ----------------------------------------------------
SRVC. PIONEER WIRELINE SERVICES : LOGGING COMPANY
LOG .                      DIFL : LOG
DATE.                2012-08-01 : RUN DATE
RUN .                         1 : RUN NUMBER
TDD .F                     1400 : TOTAL DEPTH DRILLER
TDL .F                     1396 : TOTAL DEPTH LOGGER
BOTL.F                     1394 : BOTTOM LOGGED INTERVAL
TOPL.F                       50 : TOP LOGGED INTERVAL
CSGS.IN                         : CASING SIZE
CSGD.F                          : CASING DRILLER
CSGL.F                          : CASING LOGGER
BS  .IN                   7.875 : BIT SIZE
MUD .                  CHEM-GEL : MUD TYPE
MUDD.                           : MUD DENSITY
MUDV.                           : MUD VISCOSITY
PH  .                           : MUD PH
FL  .                           : FLUID LOSS
MUDS.                  FLOWLINE : SOURCE OF SAMPLE
RM  .OHMM                   2.4 : MUD RESISTIVITY
RMT .DEGF                    73 : RM TEMPERATURE
RMF .OHMM                   1.8 : MUD FILTRATE RESISTIVITY
RMFT.DEGF                    73 : RMF TEMPERATURE
RMC .OHMM                   3.0 : MUD CAKE RESISTIVITY
RMCT.DEGF                    73 : RMC TEMPERATURE
RMFS.                      CALC : RMF SOURCE
RMCS.                      CALC : RMC SOURCE
RMBH.OHMM                   2.0 : MUD RESISTIVITY AT BHT
BHT .DEGF                    86 : BOTTOM HOLE TEMPERATURE
TIMC.           0200 2012-08-01 : TIME CIRCULATION STOPPED
TIML.           0430 2012-08-01 : TIME LOGGER ON BOTTOM
TMAX.DEGF                    86 : MAXIMUM RECORDED TEMPERATURE
UNIT.                       110 : EQUIPMENT NUMBER
BASE.                GRAHAM, TX : BASE LOCATION
ENG .                    WENDEL : RECORDED BY
WIT .           OVERBY/BURLESON : WITNESSED BY
~Curve Information -----------------------------------------
DEPT.F          :DEPTH
CILD.MMHO       :
GRR.GAPI        :
ILD.OHMM        :
ILM.OHMM        :
SFL.OHMM        :
SP.MV           :
~ASCII ------------------------------------------------------
# ...
852.50000      996.89009       36.85799        0.97886        1.11698        4.84528      146.46131
853.00000      996.83061       37.62799        1.00442        1.11794        4.85331      146.26665
853.50000      996.77776       39.12799        0.99369        1.11301        4.35353      145.64531
854.00000      996.72492       40.46599        0.97832        1.10865        3.53915      144.95998
854.50000      996.66544       41.08599        0.96426        1.10092        3.14484      144.39998
855.00000      996.61259       41.73399        0.95215        1.09385        3.30977      143.86665
855.50000      996.55975       41.99999        0.92264        1.07952        3.77284      143.86665
856.00000      996.50026       41.79999        0.90609        1.05173        4.32239      144.75465
856.50000      996.44742       40.93799        0.88754        1.02623        4.73825      145.99998
857.00000      996.38794       39.93399        0.87850        1.00442        4.85450      147.75731
857.50000      996.33509       39.39999        0.88602        0.98410        4.61090      149.29331
858.00000      996.28225       39.69999        0.90016        0.99956        4.26469      150.75198
858.50000      996.22276       39.99999        0.91931        1.03166        3.78327      152.10931
859.00000      996.16992       40.19999        0.94853        1.06851        3.37665      153.29598
859.50000      961.62560       38.85399        1.01191        1.11760        2.97587      154.81065
860.00000      927.08128       37.58199        1.08589        1.18687        2.92159      156.15465
860.50000      904.04951       36.41999        1.18935        1.27263        2.98502      157.69065
861.00000      869.50519       35.79999        1.29175        1.35866        3.13194      159.33331
861.50000      755.61252       35.99999        1.35118        1.46536        3.28287      161.46665
862.00000      736.28837       38.33399        1.40392        1.56586        3.26940      163.33331
862.50000      707.29883       43.29999        1.46428        1.62528        3.04982      165.27998
863.00000      678.31593       48.34199        1.49671        1.67038        2.75530      166.74664
863.50000      681.61191       53.89999        1.48354        1.71041        2.43409      167.79998
864.00000      701.05396       53.89999        1.43819        1.72422        2.34250      167.35731
864.50000      720.49602       49.03999        1.38807        1.69474        2.63913      165.46664
865.00000      752.13301       44.59999        1.31035        1.60123        3.12292      163.83464
865.50000      775.86075       40.75999        1.25804        1.48756        3.82717      161.91998
866.00000      799.58849       38.79999        1.23335        1.41960        3.92227      161.73331
866.50000      823.31623       38.26599        1.18971        1.38263        3.89230      162.53331
867.00000      847.04397       37.73399        1.15086        1.35725        3.89827      163.33331
867.50000      901.56222       37.67999        1.10804        1.33151        3.98706      164.03464
868.00000      910.43291       38.39999        1.09540        1.30987        4.04448      164.42131
868.50000      919.29696       38.84399        1.08117        1.28669        3.94641      164.52531
869.00000      930.19422       38.90999        1.06347        1.26679        3.65615      163.38664
869.50000      950.13693       38.27199        1.03826        1.22836        3.26279      162.37331
870.00000      996.34293       36.28599        1.00319        1.17333        3.01262      161.09331
870.50000      996.37647       33.88599        0.95630        1.12517        2.91264      159.97331
871.00000      996.41665       31.39999        0.91610        1.10126        3.04720      159.02931
871.50000      996.45019       30.79999        0.90270        1.07535        3.39201      158.49598
872.00000      996.48372       31.79999        0.89939        1.05379        3.59938      159.26665
872.50000      996.52390       33.19999        0.89939        1.03781        3.44805      160.57865
873.00000      996.55744       36.14199        0.91234        1.04529        3.13405      162.74664
873.50000      996.59098       42.06599        0.93352        1.05386        2.81028      165.73331
874.00000      996.63116       50.33399        0.94464        1.09452        2.55264      169.14664
874.50000      996.66469       54.95599        0.94117        1.11541        2.28571      171.33331
875.00000      996.69823       55.39999        0.90887        1.13557        2.17621      171.06664
875.50000      996.73841       46.64999        0.86284        1.12946        2.37347      168.01598
876.00000      996.77194       40.99999        0.82621        1.09789        2.88206      163.86664
876.50000      996.80548       33.91999        0.78876        0.99217        4.09442      158.53331
877.00000      996.84566       32.19999        0.75740        0.90999        5.55104      154.90665
877.50000      996.87920       31.47999        0.71473        0.85106        5.95326      152.45865
878.00000      996.91273       30.71399        0.68742        0.83298        5.92302      151.00798
878.50000      996.95291       28.42800        0.66874        0.81468        6.24858      150.05331
879.00000      996.98645       26.42800        0.66420        0.81029        6.77661      149.73331
879.50000      997.02663       24.65800        0.66718        0.81313        7.14558      149.87998
880.00000      997.06017       24.09000        0.67488        0.81678        6.87672      150.21865
880.50000      997.09370       23.80000        0.69749        0.82890        6.35843      151.33331
881.00000      997.13388       23.97600        0.71873        0.83043        5.93867      153.19998
881.50000      997.14285       25.20000        0.77219        0.85630        5.27864      155.70931
882.00000      996.84534       27.17800        0.84275        0.89388        4.38033      158.23465
882.50000      996.63126       30.94999        0.96390        0.98477        3.55548      160.96798
883.00000      953.09322       33.39999        1.06537        1.09903        3.04608      162.95998
883.50000      826.85511       35.68799        1.21554        1.26819        2.78163      165.27731
884.00000      742.69416       36.91999        1.38816        1.50592        2.85951      167.71464
884.50000      637.05393       36.99999        1.58170        1.73419        3.19463      170.07731
885.00000      570.61611       35.96399        1.76100        1.93079        3.75736      173.12264
885.50000      526.32202       35.05799        1.93399        2.01083        3.99514      176.50664
886.00000      491.77770       38.79999        2.01219        2.06232        4.03382      181.89331
886.50000      473.18012       51.04999        2.12345        2.13324        3.71905      188.98664
887.00000      469.93793       81.59999        2.12058        2.18571        3.20484      195.91197
887.50000      474.37675      103.19998        2.10903        2.18907        2.69031      201.35197
888.00000      478.81558      134.66598        2.09896        2.16954        2.32019      205.33330
888.50000      476.97537      148.19998        2.08471        2.14742        2.14967      206.26664
889.00000      471.99897      155.66600        2.10722        2.14085        2.16954      205.86664
889.50000      464.80996      155.26600        2.14703        2.17287        2.24401      204.93330
890.00000      456.51132      152.77800        2.18424        2.25630        2.32019      203.33330
890.50000      431.68787      150.60000        2.27787        2.35692        2.43036      201.93331
891.00000      409.63284      142.61598        2.40071        2.47810        2.53703      200.79997
891.50000      387.38745      137.19998        2.54920        2.65130        2.71752      199.55464
892.00000      370.56395      130.47998        2.71419        2.85548        2.92159      199.19997
