~Version ---------------------------------------------------
VERS. 2.0 : CWLS LOG ASCII STANDARD - VERSION 2.0
WRAP. NO  : One line per depth step
DLM . SPACE : Column Data Section Delimiter
~Well ------------------------------------------------------
STRT.F           40 : START DEPTH
STOP.F       1271.0 : STOP DEPTH
STEP.F          0.5 : STEP
NULL.       -999.25 : NULL VALUE
COMP.                 WALSH & WATTS, INC. : COMPANY
WELL.                         HOWARD G 17 : WELL
FLD .             MONTAGUE COUNTY REGULAR : FIELD
CNTY.                            MONTAGUE : COUNTY
STAT.                               TEXAS : STATE
CTRY.                                 USA : COUNTRY
SEC .                                     : SECTION
TWP .                                     : TOWNSHIP
RGE .                                     : RANGE
LOC . 520'FNL & 4250'FEL OF THE J.CHAMBLIS SURVEY, A-123 : LOCATION
EKB .F                      519 : ELEVATION KELLY BUSHING
EDF .F                      518 : ELEVATION DERRICK FLOOR
EGL .F                      512 : ELEVATION GROUND LEVEL
PDAT.                        GL : PERMANENT DATUM
EPD .                       512 : ELEVATION PERMANENT DATUM
APD .                         7 : ABOVE PERMANENT DATUM
LMF .                        KB : LOG MEASURED FROM
DMF .                        KB : DRILLING MEASURED FROM
API .            42337343900000 : API NUMBER
UWI .                           : UWI NUMBER
DIGC.                     NthDS : DIGITIZING COMPANY
~Params ----------------------------------------------------
SRVC. PIONEER WIRELINE SERVICES : LOGGING COMPANY
LOG .                      CNFD : LOG
DATE.                2010-10-13 : RUN DATE
RUN .                         1 : RUN NUMBER
TDD .F                     1298 : TOTAL DEPTH DRILLER
TDL .F                     1280 : TOTAL DEPTH LOGGER
BOTL.F                     1280 : BOTTOM LOGGED INTERVAL
TOPL.F                       50 : TOP LOGGED INTERVAL
CSGS.IN                         : CASING SIZE
CSGD.F                          : CASING DRILLER
CSGL.F                          : CASING LOGGER
BS  .IN                   7.875 : BIT SIZE
MUD .                  GEL-CHEM : MUD TYPE
MUDD.                           : MUD DENSITY
MUDV.                           : MUD VISCOSITY
PH  .                           : MUD PH
FL  .                           : FLUID LOSS
MUDS.                  FLOWLINE : SOURCE OF SAMPLE
RM  .OHMM                   3.6 : MUD RESISTIVITY
RMT .DEGF                    72 : RM TEMPERATURE
RMF .OHMM                   2.7 : MUD FILTRATE RESISTIVITY
RMFT.DEGF                    72 : RMF TEMPERATURE
RMC .OHMM                   4.5 : MUD CAKE RESISTIVITY
RMCT.DEGF                    72 : RMC TEMPERATURE
RMFS.                      CALC : RMF SOURCE
RMCS.                      CALC : RMC SOURCE
RMBH.OHMM                   3.0 : MUD RESISTIVITY AT BHT
BHT .DEGF                    85 : BOTTOM HOLE TEMPERATURE
TIMC.           0245 2010-10-13 : TIME CIRCULATION STOPPED
TIML.           0540 2010-10-13 : TIME LOGGER ON BOTTOM
TMAX.DEGF                    85 : MAXIMUM RECORDED TEMPERATURE
UNIT.                      M-19 : EQUIPMENT NUMBER
BASE.             GRAHAM, TEXAS : BASE LOCATION
ENG .                    WENDEL : RECORDED BY
WIT .           WOMBLE/BURLESON : WITNESSED BY
~Curve Information -----------------------------------------
DEPT.F          :DEPTH
CALI.IN         :
DPHI.PU         :
GRD.GAPI        :
MINV.OHMM       :
MNOR.OHMM       :
NPHI.PU         :
RHOC.G/CC       :
~ASCII ------------------------------------------------------
# ...
215.50000        7.77971       24.33829      100.56208        4.41343        4.92537       27.14544        0.05963
216.00000        7.75679       24.43951      100.93028        5.38358        5.37313       28.57008        0.06481
216.50000        7.75721       24.54073       99.24792        5.43731        5.56716       29.73020        0.06798
217.00000        7.81233       25.20489       97.28311        5.49104        5.64179       29.97140        0.07082
217.50000        7.87841       26.02371       96.16257        5.97015        5.58656       29.98043        0.08485
218.00000        7.87088       26.53810       95.60592        6.11940        5.55522       29.99097        0.11418
218.50000        7.84777       26.09897       95.14109        6.20298        5.65522       30.00000        0.15336
219.00000        7.83017       25.22107       92.85931        6.11940        6.64179       28.18928        0.17201
219.50000        7.82395       24.04215       91.96391        7.40298        7.53731       24.39323        0.14963
220.00000        7.81648       23.07620       91.96907        7.22985        7.22835       21.32644        0.12164
220.50000        7.81026       22.13547       87.66103        7.39701        7.54776       20.02070        0.12209
221.00000        7.80422       20.38570       85.13337        7.40746        8.50746       20.64271        0.12910
221.50000        7.79675       18.97460       86.67894        7.19403        8.71641       21.79266        0.13507
222.00000        7.79053       18.79586       90.30321        6.84030        8.10895       23.56538        0.12761
222.50000        7.78306       19.60489       90.40227        7.52686        8.35821       23.64064        0.10821
223.00000        7.78341       20.71007       87.50032        7.84627        8.47761       22.40978        0.08806
223.50000        7.78889       21.46905       82.27944        8.33731        9.20447       20.16369        0.09265
224.00000        7.79355       21.89727       73.11965        8.20895       11.04477       18.41016        0.10642
224.50000        7.79802       22.32361       66.15956        8.45821       10.44776       17.84572        0.11791
225.00000        7.79637       23.04497       62.01653        9.66417       11.67910       17.61054        0.09526
225.50000        7.78883       23.76595       57.04433       12.08955       13.20895       17.37535        0.06806
226.00000        7.78305       24.61900       52.90411       11.34328       13.73134       17.09313        0.05746
226.50000        7.78339       25.32455       50.05282        9.97014       13.58208       16.77968        0.05821
227.00000        7.78381       26.10913       47.01963       11.79104       13.63134       16.52869        0.04463
227.50000        7.74663       26.40640       46.69270       13.20149       15.82089       16.46849        0.03108
228.00000        7.66254       26.27996       47.15761       13.03880       15.82089       17.01411        0.02571
228.50000        7.59729       25.63500       45.79787       11.91044       14.02984       18.12042        0.03440
229.00000        7.55073       24.85118       43.27021        9.25373       13.88059       19.42615        0.04955
229.50000        7.57929       24.72248       41.36271        9.35373       14.02984       20.98401        0.04369
230.00000        7.67344       25.38815       40.57988        9.35970       13.99253       20.90612        0.03780
230.50000        7.73382       26.16181       39.23524        8.58955       10.98507       20.29991        0.03071
231.00000        7.77926       27.49577       37.27043        7.30000        9.71641       19.42615        0.02276
231.50000        7.81713       28.60771       35.67147        6.26865        8.91194       18.97460        0.01343
232.00000        7.86257       29.96237       35.57635        7.37313        9.15373       18.59831        0.00224
232.50000        7.93796       29.96877       36.24566       10.37313       11.46268       17.90217        0.00597
233.00000        7.88715       29.97404       37.51826       11.49253       14.02984       17.54469        0.01045
233.50000        7.84491       29.98081       42.21475       11.34328       14.52686       18.61073        0.01567
234.00000        7.83681       29.98608       47.84942        8.80597       12.53731       20.39210        0.03022
234.50000        7.82690       29.99135       51.04311        8.26865       12.02537       22.95390        0.04862
235.00000        7.85445       29.99774       54.42639        9.35373       12.61193       23.03857        0.05127
235.50000        7.82428       29.83067       57.87899       11.04477       14.32835       20.44215        0.05395
236.00000        7.71918       28.74807       65.06149       10.89552       12.68656       17.41938        0.07966
236.50000        7.49064       27.72154       71.04690        6.16865        8.39552       17.33246        0.09851
237.00000        7.20962       27.00847       74.28947        6.86567        8.35821       17.48034        0.09627
237.50000        6.94731       26.94073       76.99067        8.58209       10.03731       17.65757        0.07687
238.00000        6.74134       26.92192       79.78755       10.74626       12.08955       18.03387        0.07687
238.50000        6.65163       25.98119       82.83312       11.94029       13.95522       20.81844        0.11951
239.00000        6.67073       24.22916       83.63189        9.85074       12.38805       24.12982        0.14358
239.50000        6.74863       22.33039       83.00488        9.05522       10.03731       25.32154        0.15787
240.00000        6.90545       20.28072       81.55507       10.00000       10.69701       27.32832        0.17123
240.50000        7.09348       19.10254       81.38115        9.12537       11.79104       29.96237        0.17388
241.00000        7.39701       18.72474       81.51013        7.61194       10.35820       29.98231        0.15399
241.50000        7.60380       18.53998       81.51529        7.46268        7.43283       30.00602        0.12910
242.00000        7.77619       18.11853       82.48676        5.01045        6.07015       30.02559        0.12127
242.50000        8.17472       17.13076       84.34088        5.02537        5.87015       28.34431        0.12798
243.00000        8.28970       16.79210       83.01030        6.86567        6.81641       26.32850        0.12414
243.50000        8.38392       17.58570       81.25656        5.74627        6.59701       25.09389        0.08183
244.00000        8.42610       18.77629       81.68488        5.42239        5.91045       24.78344        0.05634
244.50000        8.40468       19.85889       82.04182        5.50597        5.82089       23.11383        0.06101
245.00000        8.36006       20.77554       80.99164        5.52239        5.82089       20.84365        0.09179
245.50000        8.21970       20.85607       79.30928        5.09552        5.26119       19.87771        0.08246
246.00000        8.05125       20.93660       77.48519        4.98955        5.22388       19.98533        0.07153
246.50000        7.87336       20.93133       76.22497        4.96567        5.44776       20.25927        0.05742
247.00000        7.82680       20.85607       77.74981        4.69403        5.58656       20.33678        0.05340
247.50000        7.77093       20.42973       82.54762        4.50298        5.82089       19.65193        0.04862
248.00000        7.75251       19.99059       88.06128        4.56418        6.19403       19.03744        0.04825
248.50000        7.76606       19.28504       89.47355        4.62686        6.11940       18.59831        0.05034
249.00000        7.78573       18.67357       86.10265        4.62686        5.77164       18.89934        0.05937
249.50000        7.75005       18.87413       83.54122        4.62686        5.87015       20.32926        0.06798
250.00000        7.65413       19.28203       81.80355        4.62686        5.97015       20.95014        0.08060
