~Version ---------------------------------------------------
VERS. 2.0 : CWLS LOG ASCII STANDARD - VERSION 2.0
WRAP. NO  : One line per depth step
DLM . SPACE : Column Data Section Delimiter
~Well ------------------------------------------------------
STRT.F           11 : START DEPTH
STOP.F       1368.0 : STOP DEPTH
STEP.F          0.5 : STEP
NULL.       -999.25 : NULL VALUE
COMP.                 WALSH & WATTS, INC. : COMPANY
WELL.                      HOWARD AB E 4E : WELL
FLD .             MONTAGUE COUNTY REGULAR : FIELD
CNTY.                            MONTAGUE : COUNTY
STAT.                                     : STATE
CTRY.                                 USA : COUNTRY
SEC .                                     : SECTION
TWP .                                     : TOWNSHIP
RGE .                                     : RANGE
LOC . 3250'FEL & 1590'FSL OF THE J.CHAMBLIS SURVEY A-123 : LOCATION
EKB .F                          : ELEVATION KELLY BUSHING
EDF .F                          : ELEVATION DERRICK FLOOR
EGL .F                          : ELEVATION GROUND LEVEL
PDAT.                        GL : PERMANENT DATUM
EPD .                           : ELEVATION PERMANENT DATUM
APD .                         8 : ABOVE PERMANENT DATUM
LMF .                        KB : LOG MEASURED FROM
DMF .                        KB : DRILLING MEASURED FROM
API .            42337348780000 : API NUMBER
UWI .                           : UWI NUMBER
DIGC.                     NthDS : DIGITIZING COMPANY
~Params ----------------------------------------------------
SRVC. PIONEER WIRELINE SERVICES : LOGGING COMPANY
LOG .                      CNFD : LOG
DATE.                2012-08-01 : RUN DATE
RUN .                         1 : RUN NUMBER
TDD .F                     1400 : TOTAL DEPTH DRILLER
TDL .F                     1396 : TOTAL DEPTH LOGGER
BOTL.F                     1368 : BOTTOM LOGGED INTERVAL
TOPL.F                       50 : TOP LOGGED INTERVAL
CSGS.IN                         : CASING SIZE
CSGD.F                          : CASING DRILLER
CSGL.F                          : CASING LOGGER
BS  .IN                   7.875 : BIT SIZE
MUD .                  CHEM-GEL : MUD TYPE
MUDD.                           : MUD DENSITY
MUDV.                           : MUD VISCOSITY
PH  .                           : MUD PH
FL  .                           : FLUID LOSS
MUDS.                  FLOWLINE : SOURCE OF SAMPLE
RM  .OHMM                   2.4 : MUD RESISTIVITY
RMT .DEGF                    73 : RM TEMPERATURE
RMF .OHMM                   1.8 : MUD FILTRATE RESISTIVITY
RMFT.DEGF                    73 : RMF TEMPERATURE
RMC .OHMM                   3.0 : MUD CAKE RESISTIVITY
RMCT.DEGF                    73 : RMC TEMPERATURE
RMFS.                      CALC : RMF SOURCE
RMCS.                      CALC : RMC SOURCE
RMBH.OHMM                   2.0 : MUD RESISTIVITY AT BHT
BHT .DEGF                    86 : BOTTOM HOLE TEMPERATURE
TIMC.           0200 2012-08-01 : TIME CIRCULATION STOPPED
TIML.           0430 2012-08-01 : TIME LOGGER ON BOTTOM
TMAX.DEGF                    86 : MAXIMUM RECORDED TEMPERATURE
UNIT.                       110 : EQUIPMENT NUMBER
BASE.                GRAHAM, TX : BASE LOCATION
ENG .                    WENDEL : RECORDED BY
WIT .           OVERBY/BURLESON : WITNESSED BY
~Curve Information -----------------------------------------
DEPT.F          :DEPTH
CALD.IN         :
DPHI.V/V        :
GRD.GAPI        :
NPHI.%          :
PEC.B/E         :
RLML.OHMM       :
RNML.OHMM       :
ZCOR.G/C3       :
~ASCII ------------------------------------------------------
# ...
198.00000        8.73639        0.27053      130.86054       29.88950        3.13326        4.18772        5.79061        0.08448
198.50000        8.74321        0.25484      130.11816       29.88950        3.17823        4.54873        5.58050        0.07162
199.00000        8.78948        0.24685      130.53542       29.88950        3.15623        3.04693        4.40433        0.05859
199.50000        8.81380        0.24019      131.03612       29.88950        3.13013        3.37256        4.57256        0.07365
200.00000        8.75218        0.23477      131.36993       29.88950        3.07691        3.27003        4.25993        0.09170
200.50000        8.72512        0.23057      131.37422       30.00000        3.05045        3.52346        4.39422        0.10433
201.00000        8.73765        0.23168      131.78183       30.00000        3.02882        3.61011        4.14296        0.08520
201.50000        8.77017        0.23444      132.71294       30.00000        3.00235        3.97112        4.18772        0.05632
202.00000        8.80904        0.26814      133.12055       30.03683        2.68321        3.98917        4.69314        0.04155
202.50000        9.01779        0.29963      128.96886       29.70939        2.41726        3.85343        5.03032        0.03754
203.00000        9.38925        0.29963      122.60859       29.60405        2.09812        4.33213        5.27076        0.04079
203.50000        9.81237        0.29963      113.20834       29.99521        1.95671        3.19494        4.48303        0.05715
204.00000        9.71791        0.29963      106.84673       30.00000        2.01119        2.94440        3.53790        0.07675
204.50000        9.13736        0.29963      104.35382       30.00000        2.16898        3.26498        3.73863        0.09307
205.00000        8.93148        0.29963      104.34572       30.00000        2.30046        3.39350        3.89892        0.11736
205.50000        8.96455        0.29963      106.82513       30.00000        2.45824        3.33935        3.94729        0.14545
206.00000        8.93528        0.29963      109.85567       29.96317        2.58972        3.26715        3.91985        0.16751
206.50000        8.90334        0.29963      110.40140       29.70534        2.63908        3.46570        3.62599        0.15668
207.00000        8.92121        0.30037      108.73586       29.83683        2.58998        3.53790        3.70614        0.14765
207.50000        8.90217        0.27090      106.51919       29.87109        2.53091        3.32130        3.63393        0.15462
208.00000        8.84656        0.24144      103.74869       29.90166        2.59390        3.14079        3.43393        0.16235
208.50000        8.84602        0.23309      102.63563       29.93849        2.70333        3.26498        3.57401        0.17162
209.00000        8.84557        0.24280      103.18136       30.03683        2.78345        3.38339        3.75451        0.16751
209.50000        8.86335        0.25810      105.65942       29.20184        2.83801        3.32130        3.82671        0.11119
210.00000        8.92524        0.26722      108.13883       29.14917        2.77528        3.32130        3.82671        0.06859
210.50000        9.01825        0.27164      108.68456       29.87845        2.57014        3.80866        4.11552        0.05480
211.00000        9.16034        0.28863      107.01902       29.96538        2.32426        3.97112        4.25993        0.07083
211.50000        9.44709        0.29153      104.24852       29.97053        2.11911        3.47437        4.10614        0.10614
212.00000        9.54240        0.28379      103.13681       29.97680        2.14026        3.29747        3.91336        0.14224
212.50000        9.54518        0.27878      103.95743       29.98195        2.32845        3.50902        3.68231        0.14946
213.00000        9.56149        0.28969      105.60812       29.98858        2.48484        3.42238        3.68231        0.11769
213.50000        9.60349        0.30037      106.42874       29.99374        2.41735        3.42960        3.87509        0.07798
214.00000        9.73195        0.30037      105.04079       30.00000        2.31843        3.46570        4.25993        0.06704
214.50000       10.04817        0.30037      103.09901       29.93554        2.29526        3.32130        4.02671        0.10563
215.00000       10.27865        0.30037      101.98731       29.89687        2.54689        3.03249        3.56029        0.13502
215.50000        9.64939        0.30037      103.36040       29.93591        2.67390        2.88809        3.10469        0.10975
216.00000        8.75577        0.30037      105.28733       29.95175        2.62619        3.01444        3.87509        0.07942
216.50000        8.58948        0.30037      107.48915       29.97090        2.58661        3.33068        4.23105        0.06484
217.00000        8.56141        0.30037      109.13984       29.98674        2.65941        3.39350        4.35018        0.09852
217.50000        8.56087        0.30037      112.99910       30.00589        2.72020        3.61011        4.23105        0.12274
218.00000        8.56033        0.30037      116.85970       30.02173        2.79300        3.46570        4.54873        0.14874
218.50000        8.55988        0.30037      119.61400       30.04052        2.81056        3.53790        4.25993        0.17040
219.00000        8.45621        0.30037      119.33101       30.05635        2.81889        3.38050        3.99494        0.17473
219.50000        8.03403        0.30037      115.17931       30.07551        2.82722        3.77401        4.28375        0.17473
220.00000        7.93220        0.30037      109.92401       30.09134        2.83417        3.99711        4.52491        0.16440
220.50000        7.95017        0.30037      104.11488       30.11050        2.81356        4.07581        5.34296        0.14343
221.00000        8.00488        0.30037       99.68694       29.05451        2.74761        4.21155        5.58339        0.12137
221.50000        8.07809        0.30000       97.74651       27.82689        2.66876        4.86137        7.34079        0.09491
222.00000        8.18805        0.26735       98.29089       25.94844        2.72186        5.99278        9.19855        0.07726
222.50000        8.18760        0.23253      101.32278       24.38306        2.82140        6.20938        8.98411        0.07726
223.00000        8.20547        0.21860      106.83947       22.54770        2.92057        6.34368        8.37545        0.07726
223.50000        8.20502        0.24162      112.91000       21.19705        3.00370        5.92924        7.99061        0.09213
224.00000        8.29656        0.27348      117.04684       21.39779        2.97137        4.98195        5.94657        0.10700
224.50000        8.29611        0.29972      116.76250       21.56538        2.92300        4.49458        5.23465        0.12484
225.00000        8.29557        0.29990      113.71712       23.19116        2.86467        4.08808        4.64188        0.12780
225.50000        8.31354        0.30007      109.01294       24.81731        2.80348        3.75451        4.40433        0.12780
226.00000        8.38666        0.30022      105.68997       25.61694        2.70778        4.16101        4.52274        0.12780
226.50000        8.42305        0.30037      104.02578       25.35580        2.61208        4.38628        4.81805        0.12314
227.00000        8.40409        0.29681      102.36024       25.13812        2.53258        4.89891        5.23465        0.10924
227.50000        8.42206        0.25064      100.14357       25.62910        2.43688        5.42599        6.28159        0.09762
228.00000        8.42152        0.22560       97.92555       25.83057        2.35701        5.60072        7.18917        0.11592
228.50000        8.42107        0.22383       97.36632       25.47403        2.48842        4.98195        7.16245        0.13657
