~Version ---------------------------------------------------
VERS. 2.0 : CWLS LOG ASCII STANDARD - VERSION 2.0
WRAP. NO  : One line per depth step
DLM . SPACE : Column Data Section Delimiter
~Well ------------------------------------------------------
STRT.F           11 : START DEPTH
STOP.F       1399.0 : STOP DEPTH
STEP.F          0.5 : STEP
NULL.       -999.25 : NULL VALUE
COMP.                 WALSH & WATTS, INC. : COMPANY
WELL.                      HOWARD AB E 4E : WELL
FLD .             MONTAGUE COUNTY REGULAR : FIELD
CNTY.                            MONTAGUE : COUNTY
STAT.                                     : STATE
CTRY.                                 USA : COUNTRY
SEC .                                     : SECTION
TWP .                                     : TOWNSHIP
RGE .                                     : RANGE
LOC . 3250'FEL & 1590'FSL OF THE J.CHAMBLIS SURVEY A-123 : LOCATION
EKB .F                          : ELEVATION KELLY BUSHING
EDF .F                          : ELEVATION DERRICK FLOOR
EGL .F                          : ELEVATION GROUND LEVEL
PDAT.                        GL : PERMANENT DATUM
EPD .                           : ELEVATION PERMANENT DATUM
APD .                         8 : ABOVE PERMANENT DATUM
LMF .                        KB : LOG MEASURED FROM
DMF .                        KB : DRILLING MEASURED FROM
API .            42337348780000 : API NUMBER
UWI .                           : UWI NUMBER
DIGC.                     NthDS : DIGITIZING COMPANY
~Params ----------------------------------------------------
SRVC. PIONEER WIRELINE SERVICES : LOGGING COMPANY
LOG .                      DIFL : LOG
DATE.                2012-08-01 : RUN DATE
RUN .                         1 : RUN NUMBER
TDD .F                     1400 : TOTAL DEPTH DRILLER
TDL .F                     1396 : TOTAL DEPTH LOGGER
BOTL.F                     1394 : BOTTOM LOGGED INTERVAL
TOPL.F                       50 : TOP LOGGED INTERVAL
CSGS.IN                         : CASING SIZE
CSGD.F                          : CASING DRILLER
CSGL.F                          : CASING LOGGER
BS  .IN                   7.875 : BIT SIZE
MUD .                  CHEM-GEL : MUD TYPE
MUDD.                           : MUD DENSITY
MUDV.                           : MUD VISCOSITY
PH  .                           : MUD PH
FL  .                           : FLUID LOSS
MUDS.                  FLOWLINE : SOURCE OF SAMPLE
RM  .OHMM                   2.4 : MUD RESISTIVITY
RMT .DEGF                    73 : RM TEMPERATURE
RMF .OHMM                   1.8 : MUD FILTRATE RESISTIVITY
RMFT.DEGF                    73 : RMF TEMPERATURE
RMC .OHMM                   3.0 : MUD CAKE RESISTIVITY
RMCT.DEGF                    73 : RMC TEMPERATURE
RMFS.                      CALC : RMF SOURCE
RMCS.                      CALC : RMC SOURCE
RMBH.OHMM                   2.0 : MUD RESISTIVITY AT BHT
BHT .DEGF                    86 : BOTTOM HOLE TEMPERATURE
TIMC.           0200 2012-08-01 : TIME CIRCULATION STOPPED
TIML.           0430 2012-08-01 : TIME LOGGER ON BOTTOM
TMAX.DEGF                    86 : MAXIMUM RECORDED TEMPERATURE
UNIT.                       110 : EQUIPMENT NUMBER
BASE.                GRAHAM, TX : BASE LOCATION
ENG .                    WENDEL : RECORDED BY
WIT .           OVERBY/BURLESON : WITNESSED BY
~Curve Information -----------------------------------------
DEPT.F          :DEPTH
CILD.MMHO       :
GRR.GAPI        :
ILD.OHMM        :
ILM.OHMM        :
SFL.OHMM        :
SP.MV           :
~ASCII ------------------------------------------------------
# ...
212.50000      175.67320      103.31939        5.69206        5.24147        4.73502      170.42577
213.00000      173.10858      105.12133        5.81388        5.37834        4.78236      170.46576
213.50000      169.90438      106.81077        5.89594        5.58122        5.03144      170.15843
214.00000      165.41438      105.68480        5.96110        5.76540        5.28949      169.76109
214.50000      160.92439      103.67284        6.14434        5.79036        5.44574      169.07310
215.00000      153.14993      102.34838        6.47376        5.88641        5.42021      168.46978
215.50000      143.73658      102.55036        6.87475        6.29181        5.44224      167.44580
216.00000      136.55506      104.26581        7.17344        6.70276        5.67915      166.37848
216.50000      133.83720      106.70773        7.41713        7.19876        6.09891      165.15717
217.00000      131.11268      109.15115        7.60195        7.54803        6.61647      164.15653
217.50000      128.39483      112.20506        7.71493        7.63159        6.77885      163.13521
218.00000      125.57038      115.41446        7.84146        7.70505        6.77652      162.29789
218.50000      122.69263      118.51786        8.02813        7.79034        6.77449      161.74790
219.00000      119.80822      120.37180        8.25818        7.89981        6.68957      161.27590
219.50000      115.52475      117.05989        8.49570        8.08177        6.68756      161.26189
220.00000      110.53508      112.17352        8.86552        8.54506        6.76782      161.43254
220.50000      105.54542      106.36168        9.62005        9.23540        6.98087      161.58119
221.00000       99.68968      101.65380       10.44475       10.30090        7.73626      162.21850
221.50000       96.09907       99.14337       11.11466       10.83720        8.61595      163.02047
222.00000       95.90619       97.58940       11.45703       11.31728        9.58937      164.08176
222.50000       97.13234       99.15735       11.52409       11.08506        9.58649      164.85173
223.00000      101.77620      103.68072       10.74644       10.25238        9.35085      165.49170
223.50000      108.05895      111.12000        9.98915        9.60977        8.37891      165.72901
224.00000      115.49426      116.75783        9.02420        8.77574        7.31099      165.88300
224.50000      125.20804      117.84729        8.19410        7.79343        6.57120      166.06165
225.00000      134.92182      114.57738        7.58682        7.08206        6.01416      166.04764
225.50000      140.12530      110.62498        7.15299        6.71531        5.75427      166.18096
226.00000      142.35745      107.41306        7.03391        6.51497        5.64842      166.68427
226.50000      138.65359      105.03512        7.17256        6.67895        5.64084      167.26024
227.00000      134.94973      103.39066        7.45363        7.05879        5.95907      168.25421
227.50000      128.96074      101.57871        7.81766        7.56797        6.69763      169.45683
228.00000      122.97175       98.56678        8.25618        8.19359        7.59841      170.43746
228.50000      116.44979       97.33231        8.65941        8.59430        8.24155      171.24542
229.00000      108.86187       98.19428        9.14458        9.00813        8.12178      171.12742
229.50000      101.00747      102.53365        9.82048        9.38683        8.03656      170.99408
230.00000       97.90088      106.44153       10.39874        9.83882        8.08326      171.21006
230.50000       96.93518      104.71107       10.41669       10.03461        8.34284      171.44671
231.00000       96.69566      101.89914       10.43743       10.22005        8.67987      171.57470
231.50000       96.44947      100.91666       10.44968       10.38575        8.85423      171.67002
232.00000       96.37650      100.90466       10.44610       10.41218        9.07113      172.09399
232.50000       96.38348      102.40811       10.46092       10.43528        9.17999      172.62930
233.00000       96.39046      103.82606       10.48561       10.43939        9.23373      173.30127
233.50000       96.89710      105.88349       10.45953       10.43581        9.06220      173.97258
234.00000       97.90340      107.33144       10.36187       10.42756        8.82194      174.74321
234.50000       99.16287      106.62096       10.25208       10.38504        8.56401      175.52385
235.00000      100.41567      104.10902       10.00665       10.27609        8.54255      176.43581
235.50000      102.42130      103.64103        9.70812       10.04566        8.51765      177.23245
236.00000      104.42694      106.74243        9.48909        9.80879        8.25644      178.45907
236.50000      106.01951      110.77581        9.37359        9.54481        7.97809      179.62369
237.00000      107.39890      117.26362        9.25949        9.28852        7.69557      180.74365
237.50000      108.77829      121.35299        9.16066        9.06949        7.58870      181.16963
238.00000      110.15767      122.14096        9.04915        8.93933        7.61876      181.65494
238.50000      111.54372      121.03049        8.89179        8.84120        7.63753      181.63893
239.00000      113.42943      119.85251        8.70362        8.69508        7.59101      181.62492
239.50000      116.34779      119.70801        8.54230        8.47911        7.47977      181.43024
240.00000      119.25947      120.69597        8.36512        8.23878        7.21962      181.21091
240.50000      122.17783      121.81944        8.21426        7.90423        6.84449      180.95757
241.00000      127.35032      122.22342        8.03682        7.59476        6.52946      180.69824
241.50000      131.55447      121.46143        7.70810        7.27921        6.33973      180.14891
242.00000      135.75863      120.70894        7.33936        7.01398        6.21089      179.66824
242.50000      141.35517      121.17292        7.01674        6.71884        6.04623      179.11892
243.00000      147.63793      122.77037        6.78281        6.42468        5.89762      178.39093
243.50000      152.94800      126.12827        6.58437        6.17807        5.67228      177.75560
244.00000      156.28607      129.44967        6.44305        5.98861        5.52606      177.23827
244.50000      159.62414      132.25308        6.32208        5.89749        5.47356      176.89360
245.00000      163.31531      133.48304        6.18639        5.79504        5.47192      176.32294
245.50000      167.71932      133.57103        6.08378        5.64047        5.47004      175.56229
246.00000      167.59306      133.56052        6.09765        5.50206        5.33942      174.81297
246.50000      165.20165      132.14855        6.23094        5.52928        5.17282      174.26364
247.00000      159.49913      130.53809        6.35026        5.72965        5.22453      173.86031
247.50000      153.79662      126.26020        6.46404        6.18733        5.63599      173.61497
248.00000      146.78831      121.40033        6.56522        6.58701        6.09917      173.40097
248.50000      139.13378      112.40258        7.18733        7.04801        6.50963      173.15563
249.00000      134.03520      104.34230        7.78038        7.68926        6.85947      172.94163
249.50000      126.38066       95.22055        8.51764        8.80514        7.23180      172.69629
250.00000      118.31307       86.86204        9.18489        9.94587        7.93645      172.65996
250.50000      109.41271       78.37027        9.96258       10.64476        8.90491      172.41729
251.00000      100.51901       68.81454       10.69730       11.50302        9.54058      171.92663
251.50000       91.61864       60.10078       11.30687       12.31132       10.26571      171.46997
252.00000       84.93012       57.55634       12.04617       13.38484       10.68259      170.97930
