~Version ---------------------------------------------------
VERS. 2.0 : CWLS LOG ASCII STANDARD - VERSION 2.0
WRAP. NO  : One line per depth step
DLM . SPACE : Column Data Section Delimiter
~Well ------------------------------------------------------
STRT.F           11 : START DEPTH
STOP.F       1399.0 : STOP DEPTH
STEP.F          0.5 : STEP
NULL.       -999.25 : NULL VALUE
COMP.                 WALSH & WATTS, INC. : COMPANY
WELL.                      HOWARD AB E 4E : WELL
FLD .             MONTAGUE COUNTY REGULAR : FIELD
CNTY.                            MONTAGUE : COUNTY
STAT.                                     : STATE
CTRY.                                 USA : COUNTRY
SEC .                                     : SECTION
TWP .                                     : TOWNSHIP
RGE .                                     : RANGE
LOC . 3250'FEL & 1590'FSL OF THE J.CHAMBLIS SURVEY A-123 : LOCATION
EKB .F                          : ELEVATION KELLY BUSHING
EDF .F                          : ELEVATION DERRICK FLOOR
EGL .F                          : ELEVATION GROUND LEVEL
PDAT.                        GL : PERMANENT DATUM
EPD .                           : ELEVATION PERMANENT DATUM
APD .                         8 : ABOVE PERMANENT DATUM
LMF .                        KB : LOG MEASURED FROM
DMF .                        KB : DRILLING MEASURED FROM
API .            42337348780000 : API NUMBER
UWI .                           : UWI NUMBER
DIGC.                     NthDS : DIGITIZING COMPANY
~Params ----------------------------------------------------
SRVC. PIONEER WIRELINE SERVICES : LOGGING COMPANY
LOG .                      DIFL : LOG
DATE.                2012-08-01 : RUN DATE
RUN .                         1 : RUN NUMBER
TDD .F                     1400 : TOTAL DEPTH DRILLER
TDL .F                     1396 : TOTAL DEPTH LOGGER
BOTL.F                     1394 : BOTTOM LOGGED INTERVAL
TOPL.F                       50 : TOP LOGGED INTERVAL
CSGS.IN                         : CASING SIZE
CSGD.F                          : CASING DRILLER
CSGL.F                          : CASING LOGGER
BS  .IN                   7.875 : BIT SIZE
MUD .                  CHEM-GEL : MUD TYPE
MUDD.                           : MUD DENSITY
MUDV.                           : MUD VISCOSITY
PH  .                           : MUD PH
FL  .                           : FLUID LOSS
MUDS.                  FLOWLINE : SOURCE OF SAMPLE
RM  .OHMM                   2.4 : MUD RESISTIVITY
RMT .DEGF                    73 : RM TEMPERATURE
RMF .OHMM                   1.8 : MUD FILTRATE RESISTIVITY
RMFT.DEGF                    73 : RMF TEMPERATURE
RMC .OHMM                   3.0 : MUD CAKE RESISTIVITY
RMCT.DEGF                    73 : RMC TEMPERATURE
RMFS.                      CALC : RMF SOURCE
RMCS.                      CALC : RMC SOURCE
RMBH.OHMM                   2.0 : MUD RESISTIVITY AT BHT
BHT .DEGF                    86 : BOTTOM HOLE TEMPERATURE
TIMC.           0200 2012-08-01 : TIME CIRCULATION STOPPED
TIML.           0430 2012-08-01 : TIME LOGGER ON BOTTOM
TMAX.DEGF                    86 : MAXIMUM RECORDED TEMPERATURE
UNIT.                       110 : EQUIPMENT NUMBER
BASE.                GRAHAM, TX : BASE LOCATION
ENG .                    WENDEL : RECORDED BY
WIT .           OVERBY/BURLESON : WITNESSED BY
~Curve Information -----------------------------------------
DEPT.F          :DEPTH
CILD.MMHO       :
GRR.GAPI        :
ILD.OHMM        :
ILM.OHMM        :
SFL.OHMM        :
SP.MV           :
~ASCII ------------------------------------------------------
# ...
1212.50000      400.64478      129.54198        2.43036        2.45750        2.62041      201.09864
1213.00000      401.39824      131.19998        2.43304        2.42202        2.56379      201.90397
1213.50000      401.07297      132.49998        2.44262        2.43753        2.53890      202.09597
1214.00000      399.91050      132.59998        2.45358        2.45539        2.55390      201.69597
1214.50000      397.07362      131.24998        2.46309        2.47096        2.56709      200.78131
1215.00000      394.23010      130.87998        2.47415        2.49473        2.58226      199.58131
1215.50000      387.59258      131.99998        2.49702        2.51749        2.62524      197.86664
1216.00000      380.95506      134.46598        2.52600        2.54951        2.68108      196.18664
1216.50000      376.75606      133.39998        2.57293        2.59369        2.71969      194.26664
1217.00000      372.55042      130.24998        2.62234        2.62814        2.76461      192.16797
1217.50000      368.35143      126.99998        2.65374        2.64838        2.79309      189.76797
1218.00000      368.64410      124.31398        2.67664        2.68585        2.79875      187.86664
1218.50000      368.93677      122.53398        2.66092        2.70637        2.76292      186.30397
1219.00000      371.42876      122.86598        2.64318        2.69097        2.72587      185.23731
1219.50000      375.02374      124.19998        2.62411        2.67763        2.69543      184.73331
1220.00000      378.61871      126.17198        2.59210        2.66239        2.66108      184.50131
1220.50000      382.45954      127.99998        2.56442        2.64919        2.64415      184.53331
1221.00000      386.78540      127.74998        2.54560        2.63411        2.63589      184.76264
1221.50000      391.11127      126.39998        2.53500        2.62685        2.62846      185.15197
1222.00000      395.43714      124.74998        2.51841        2.61961        2.62025      185.67997
1222.50000      399.98228      122.79998        2.50408        2.60406        2.61318      186.11731
1223.00000      404.97259      121.79998        2.48769        2.57230        2.60566      186.42664
1223.50000      402.32176      122.99998        2.47551        2.54482        2.59815      187.06664
1224.00000      396.34869      124.86598        2.47551        2.52305        2.58099      187.06664
1224.50000      387.14872      125.79998        2.50823        2.50685        2.55892      187.06664
1225.00000      380.70157      125.46598        2.56159        2.50685        2.53703      186.97331
1225.50000      371.02753      124.79998        2.63460        2.63978        2.57625      186.82397
1226.00000      372.29261      120.53398        2.64334        2.76190        2.71835      186.67464
1226.50000      371.53545      116.79998        2.65342        2.84498        2.95767      186.54664
1227.00000      368.15373      114.27998        2.66223        2.83331        3.16420      186.39731
1227.50000      364.77200      117.99998        2.67878        2.69758        3.00210      186.26664
1228.00000      364.73245      125.75998        2.68734        2.58416        2.78778      185.99997
1228.50000      370.61313      130.99998        2.69560        2.54311        2.58416      185.76797
1229.00000      374.93899      130.86598        2.67993        2.58591        2.52460      185.57864
1229.50000      379.15191      129.27398        2.65179        2.63573        2.55264      185.53864
1230.00000      380.32165      128.06598        2.63751        2.65700        2.61607      185.82131
1230.50000      379.83027      127.27598        2.62315        2.67073        2.69560      186.16531
1231.00000      370.53496      126.37598        2.62572        2.68108        2.79875      186.82131
1231.50000      366.22301      126.19998        2.65195        2.70305        2.83331      187.39464
1232.00000      361.91106      125.99998        2.67746        2.73173        2.80908      188.05064
1232.50000      359.59245      125.15998        2.70687        2.73542        2.78163      188.86131
1233.00000      360.19741      124.21598        2.70488        2.73861        2.75784      189.79731
1233.50000      361.59971      123.39998        2.69031        2.74231        2.74770      190.56531
1234.00000      363.00200      121.31998        2.67746        2.74534        2.74770      191.46664
1234.50000      364.60364      118.79998        2.66517        2.74568        2.74517      192.39997
1235.00000      366.00594      118.55998        2.66926        2.74080        2.72704      193.02931
1235.50000      366.21223      120.39998        2.67369        2.73542        2.70919      193.19997
1236.00000      366.41852      121.75398        2.67763        2.73056        2.69758      193.35197
1236.50000      366.62481      123.19998        2.68190        2.72503        2.71186      193.39997
1237.00000      366.06931      125.89998        2.68470        2.72036        2.74905      192.86664
1237.50000      364.39521      127.45798        2.68800        2.71485        2.75412      192.39997
1238.00000      362.71448      127.99998        2.69097        2.72086        2.75868      192.39997
1238.50000      361.03374      127.44398        2.69427        2.72972        2.76394      192.68797
1239.00000      359.35300      126.35598        2.69709        2.73760        2.76852      192.87197
1239.50000      361.82506      124.02198        2.69758        2.74652        2.77379      192.37864
1240.00000      364.29047      121.37798        2.69758        2.75445        2.77839      191.93331
1240.50000      366.76253      120.39998        2.68108        2.76343        2.78163      191.67997
1241.00000      369.22795      121.91998        2.65244        2.76461        2.78163      191.86664
1241.50000      371.70000      125.19998        2.62733        2.76461        2.78163      192.59464
1242.00000      372.46443      126.59998        2.61607        2.72503        2.75970      193.55464
1242.50000      369.81360      125.68598        2.60326        2.66272        2.67401      194.97864
1243.00000      368.57804      124.96598        2.58686        2.63218        2.62250      196.22131
1243.50000      370.17967      124.79998        2.56646        2.63218        2.63832      196.52531
1244.00000      371.78131      124.79998        2.55264        2.70587        2.69130      196.64797
1244.50000      373.38294      124.91998        2.63363        2.73089        2.78163      197.19997
1245.00000      367.40987      125.73398        2.67566        2.73089        2.83766      197.73331
1245.50000      366.75238      127.55398        2.68108        2.73089        2.83209      199.15464
1246.00000      366.75934      130.24598        2.68108        2.70172        2.76801      200.25064
1246.50000      366.76629      134.02598        2.68108        2.66877        2.69527      201.19997
1247.00000      367.21843      136.39998        2.68108        2.66468        2.64367      200.95197
1247.50000      369.03933      136.14198        2.68108        2.66468        2.64838      200.66664
1248.00000      370.27784      135.53398        2.66746        2.70703        2.69047      199.91997
1248.50000      366.79645      134.79998        2.64562        2.76461        2.77311      199.33331
1249.00000      364.47784      133.51998        2.63363        2.79121        2.81598      199.22664
1249.50000      363.48812      131.19998        2.63945        2.81598        2.78163      199.86664
1250.00000      364.25255      129.06598        2.64464        2.76801        2.72086      200.69597
1250.50000      366.53857      128.86598        2.73324        2.79875        2.78163      201.89331
1251.00000      368.82458      130.59998        2.73928        2.76461        2.78163      202.46131
1251.50000      371.57571      131.54998        2.74467        2.76461        2.78163      202.17864
1252.00000      374.32019      132.59998        2.74097        2.76461        2.78163      201.42931
