~Version ---------------------------------------------------
VERS. 2.0 : CWLS LOG ASCII STANDARD - VERSION 2.0
WRAP. NO  : One line per depth step
DLM . SPACE : Column Data Section Delimiter
~Well ------------------------------------------------------
STRT.F           11 : START DEPTH
STOP.F       1399.0 : STOP DEPTH
STEP.F          0.5 : STEP
NULL.       -999.25 : NULL VALUE
COMP.                 WALSH & WATTS, INC. : COMPANY
WELL.                      HOWARD AB E 4E : WELL
FLD .             MONTAGUE COUNTY REGULAR : FIELD
CNTY.                            MONTAGUE : COUNTY
STAT.                                     : STATE
CTRY.                                 USA : COUNTRY
SEC .                                     : SECTION
TWP .                                     : TOWNSHIP
RGE .                                     : RANGE
LOC . 3250'FEL & 1590'FSL OF THE J.CHAMBLIS SURVEY A-123 : LOCATION
EKB .F                          : ELEVATION KELLY BUSHING
EDF .F                          : ELEVATION DERRICK FLOOR
EGL .F                          : ELEVATION GROUND LEVEL
PDAT.                        GL : PERMANENT DATUM
EPD .                           : ELEVATION PERMANENT DATUM
APD .                         8 : ABOVE PERMANENT DATUM
LMF .                        KB : LOG MEASURED FROM
DMF .                        KB : DRILLING MEASURED FROM
API .            42337348780000 : API NUMBER
UWI .                           : UWI NUMBER
DIGC.                     NthDS : DIGITIZING COMPANY
~Params ----------------------------------------------------
SRVC. PIONEER WIRELINE SERVICES : LOGGING COMPANY
LOG .                      DIFL : LOG
DATE.                2012-08-01 : RUN DATE
RUN .                         1 : RUN NUMBER
TDD .F                     1400 : TOTAL DEPTH DRILLER
TDL .F                     1396 : TOTAL DEPTH LOGGER
BOTL.F                     1394 : BOTTOM LOGGED INTERVAL
TOPL.F                       50 : TOP LOGGED INTERVAL
CSGS.IN                         : CASING SIZE
CSGD.F                          : CASING DRILLER
CSGL.F                          : CASING LOGGER
BS  .IN                   7.875 : BIT SIZE
MUD .                  CHEM-GEL : MUD TYPE
MUDD.                           : MUD DENSITY
MUDV.                           : MUD VISCOSITY
PH  .                           : MUD PH
FL  .                           : FLUID LOSS
MUDS.                  FLOWLINE : SOURCE OF SAMPLE
RM  .OHMM                   2.4 : MUD RESISTIVITY
RMT .DEGF                    73 : RM TEMPERATURE
RMF .OHMM                   1.8 : MUD FILTRATE RESISTIVITY
RMFT.DEGF                    73 : RMF TEMPERATURE
RMC .OHMM                   3.0 : MUD CAKE RESISTIVITY
RMCT.DEGF                    73 : RMC TEMPERATURE
RMFS.                      CALC : RMF SOURCE
RMCS.                      CALC : RMC SOURCE
RMBH.OHMM                   2.0 : MUD RESISTIVITY AT BHT
BHT .DEGF                    86 : BOTTOM HOLE TEMPERATURE
TIMC.           0200 2012-08-01 : TIME CIRCULATION STOPPED
TIML.           0430 2012-08-01 : TIME LOGGER ON BOTTOM
TMAX.DEGF                    86 : MAXIMUM RECORDED TEMPERATURE
UNIT.                       110 : EQUIPMENT NUMBER
BASE.                GRAHAM, TX : BASE LOCATION
ENG .                    WENDEL : RECORDED BY
WIT .           OVERBY/BURLESON : WITNESSED BY
~Curve Information -----------------------------------------
DEPT.F          :DEPTH
CILD.MMHO       :
GRR.GAPI        :
ILD.OHMM        :
ILM.OHMM        :
SFL.OHMM        :
SP.MV           :
~ASCII ------------------------------------------------------
# ...
132.50000      451.48719       48.26464        2.27015        2.23395        8.24368      162.08827
133.00000      449.49551       52.05402        2.25754        2.19699        7.63521      163.88754
133.50000      432.91365       58.19934        2.25677        2.19624        6.21629      166.85811
134.00000      421.85908       69.78101        2.35886        2.23445        5.09900      172.54261
134.50000      405.27721       83.42011        2.57620        2.38951        4.00282      179.03841
135.00000      381.03384       90.40941        2.89501        2.57733        3.45519      183.95227
135.50000      341.46745       93.51081        3.25532        2.95426        3.43999      187.84215
136.00000      301.90105       96.10073        3.60719        3.35008        3.85622      190.51673
136.50000      262.33465       98.09017        3.92911        3.79870        4.27892      191.49202
137.00000      242.53496       99.36412        4.26910        4.38563        4.71872      191.55334
137.50000      222.74192       98.70764        4.59064        4.68327        5.00445      190.81135
138.00000      209.54212       98.23364        4.98786        4.99078        5.25574      189.59005
138.50000      189.74243       98.54712        5.36354        5.27646        5.46897      187.82742
139.00000      180.42235       98.21913        5.73543        5.57848        5.65673      185.20015
139.50000      171.10226       97.33264        5.95912        5.88706        5.85571      182.08289
140.00000      165.97270       96.49666        6.16228        6.08357        5.96711      179.31963
140.50000      160.83647       95.78467        6.40262        6.31653        6.08186      176.02105
141.00000      155.70690       94.33621        6.62049        6.52738        6.18236      173.05312
141.50000      150.57067       90.01632        6.86059        6.77692        6.33614      170.74051
142.00000      143.26923       87.67238        7.07191        7.28095        6.50360      168.84455
142.50000      131.61739       87.98986        7.65378        8.04508        6.72825      167.19659
143.00000      119.96554       89.91380        8.32814        8.77920        7.13961      165.74262
143.50000      108.31370       90.51728        9.28336        9.71111        7.64069      164.45998
144.00000       98.14752       88.13933       10.22480       11.32702        8.89280      163.91265
144.50000       90.95934       85.79489       10.86165       12.96024       10.73958      163.80598
145.00000       86.74915       86.18288       11.51508       14.22582       12.61843      164.16529
145.50000       84.03129       90.17225       12.10183       13.76311       12.91779      164.73593
146.00000       81.31344       96.80006       12.60236       12.88961       11.31039      165.37523
146.50000       78.59558      102.64939       12.71491       12.55020        9.81269      166.10587
147.00000       83.45929      107.00476       12.55575       12.82612        9.15221      166.47585
147.50000       88.31634      110.96264       11.81538       13.14089        9.45847      166.84916
148.00000       95.00548      114.77002       10.90633       12.14409        9.93626      167.17381
148.50000      102.60735      121.15533       10.23434       10.88562        9.47795      166.51782
149.00000      105.11264      125.89319        9.51665        9.52056        8.66689      165.71516
149.50000      107.61794      125.44270        9.35443        8.90102        7.81095      164.88251
150.00000      110.12324      119.56262        9.08054        8.43438        7.02661      162.83691
150.50000      112.62853      113.39078        8.75468        8.16821        6.89608      162.15625
151.00000      117.13248      108.45042        8.47980        7.99275        6.85184      161.87358
151.50000      121.63643      103.82654        8.30136        7.87320        6.96263      161.64625
152.00000      125.52746       99.59265        8.16452        7.77007        7.00898      161.45424
152.50000      127.31557       96.91022        8.02909        7.66796        7.05273      160.76292
153.00000      125.32389       95.66825        8.02669        7.58378        6.83897      159.73627
153.50000      121.50011       95.31575        8.23291        7.68139        6.71592      158.83695
154.00000      118.34022       94.96975        8.66101        7.87280        6.74458      157.79697
154.50000      113.60373       94.66725        9.17775        8.20947        6.92071      156.88699
155.00000      107.61474       94.11326        9.46086        9.20432        7.53927      155.84700
155.50000      101.01283       93.44277       10.32246       10.28137        8.63922      155.58234
156.00000       94.41092       92.92478       11.14065       11.32607        9.93049      155.54233
156.50000       87.80901       93.25476       12.02371       12.40213       11.16832      156.37896
157.00000       80.74074       94.55622       12.62434       13.19702       11.64069      157.33092
157.50000       78.74907       96.38366       12.95640       13.51923       11.65457      158.17822
158.00000       79.47556       98.42159       12.67676       13.28765       11.36300      159.22885
158.50000       81.64774       99.86105       12.36569       12.69008       10.82559      160.14815
159.00000       83.81993      100.99901       11.93584       11.77796       10.07323      161.49476
159.50000       85.99212      102.58845       11.69760       10.96365        9.10463      162.75539
160.00000       84.78224      105.31037       11.96263       10.96979        8.43297      164.06200
160.50000       82.79056      106.25183       12.27374       11.59080        8.33851      164.83997
161.00000       82.96409      103.79390       12.46891       12.73022        8.87442      165.72794
161.50000       83.47073       98.74353       12.30354       13.76881       10.62525      166.50591
162.00000       85.97603       94.86563       11.90993       14.33912       12.80035      167.39654
162.50000       87.26215       94.52114       11.52276       13.85911       13.50235      168.29450
163.00000       88.06192      100.33696       11.48120       11.84400       11.72469      169.34513
163.50000       88.92166      107.49825       11.45053       10.11009        9.35156      170.26443
164.00000       90.98059      113.88757       11.25970        9.74052        7.68172      171.09372
164.50000       95.43124      118.12144       10.96207        9.66397        7.34527      171.70103
165.00000       99.88189      119.94088       10.34901        9.63384        7.50400      172.01235
165.50000      103.17999      120.65435       10.06061        9.63054        7.91359      172.36699
166.00000      103.89982      121.01433        9.92396        9.60405        8.26822      172.67831
166.50000      104.47974      121.43181        9.76953        9.50696        8.39867      172.83296
167.00000      105.08632      122.19178        9.63623        9.42281        8.38550      172.94161
167.50000      106.33912      122.98126        9.49677        9.24210        8.33528      172.81094
168.00000      108.74449      123.39724        9.38618        8.95043        8.29824      172.66360
168.50000      111.14985      118.74536        9.19770        8.67048        7.94697      171.62095
169.00000      113.55521      113.57500        8.99091        8.27156        7.46135      170.57830
169.50000      108.56555      107.16317        9.18672        7.89328        6.97696      169.66565
170.00000      103.57589      102.85129        9.73763        8.65131        6.55062      169.02833
170.50000       96.72748      100.52485       10.36493        9.83818        6.78009      168.95565
171.00000       89.88573       98.16290       10.93337       12.04276        8.08145      169.71829
171.50000       83.03732       95.22848       11.87065       13.22605       10.34239      170.26426
172.00000       76.19557       90.85260       12.89834       14.33848       12.82652      171.74954
