~Version ---------------------------------------------------
VERS. 2.0 : CWLS LOG ASCII STANDARD - VERSION 2.0
WRAP. NO  : One line per depth step
DLM . SPACE : Column Data Section Delimiter
~Well ------------------------------------------------------
STRT.F           40 : START DEPTH
STOP.F       1271.0 : STOP DEPTH
STEP.F          0.5 : STEP
NULL.       -999.25 : NULL VALUE
COMP.                 WALSH & WATTS, INC. : COMPANY
WELL.                         HOWARD G 17 : WELL
FLD .             MONTAGUE COUNTY REGULAR : FIELD
CNTY.                            MONTAGUE : COUNTY
STAT.                               TEXAS : STATE
CTRY.                                 USA : COUNTRY
SEC .                                     : SECTION
TWP .                                     : TOWNSHIP
RGE .                                     : RANGE
LOC . 520'FNL & 4250'FEL OF THE J.CHAMBLIS SURVEY, A-123 : LOCATION
EKB .F                      519 : ELEVATION KELLY BUSHING
EDF .F                      518 : ELEVATION DERRICK FLOOR
EGL .F                      512 : ELEVATION GROUND LEVEL
PDAT.                        GL : PERMANENT DATUM
EPD .                       512 : ELEVATION PERMANENT DATUM
APD .                         7 : ABOVE PERMANENT DATUM
LMF .                        KB : LOG MEASURED FROM
DMF .                        KB : DRILLING MEASURED FROM
API .            42337343900000 : API NUMBER
UWI .                           : UWI NUMBER
DIGC.                     NthDS : DIGITIZING COMPANY
~Params ----------------------------------------------------
SRVC. PIONEER WIRELINE SERVICES : LOGGING COMPANY
LOG .                      CNFD : LOG
DATE.                2010-10-13 : RUN DATE
RUN .                         1 : RUN NUMBER
TDD .F                     1298 : TOTAL DEPTH DRILLER
TDL .F                     1280 : TOTAL DEPTH LOGGER
BOTL.F                     1280 : BOTTOM LOGGED INTERVAL
TOPL.F                       50 : TOP LOGGED INTERVAL
CSGS.IN                         : CASING SIZE
CSGD.F                          : CASING DRILLER
CSGL.F                          : CASING LOGGER
BS  .IN                   7.875 : BIT SIZE
MUD .                  GEL-CHEM : MUD TYPE
MUDD.                           : MUD DENSITY
MUDV.                           : MUD VISCOSITY
PH  .                           : MUD PH
FL  .                           : FLUID LOSS
MUDS.                  FLOWLINE : SOURCE OF SAMPLE
RM  .OHMM                   3.6 : MUD RESISTIVITY
RMT .DEGF                    72 : RM TEMPERATURE
RMF .OHMM                   2.7 : MUD FILTRATE RESISTIVITY
RMFT.DEGF                    72 : RMF TEMPERATURE
RMC .OHMM                   4.5 : MUD CAKE RESISTIVITY
RMCT.DEGF                    72 : RMC TEMPERATURE
RMFS.                      CALC : RMF SOURCE
RMCS.                      CALC : RMC SOURCE
RMBH.OHMM                   3.0 : MUD RESISTIVITY AT BHT
BHT .DEGF                    85 : BOTTOM HOLE TEMPERATURE
TIMC.           0245 2010-10-13 : TIME CIRCULATION STOPPED
TIML.           0540 2010-10-13 : TIME LOGGER ON BOTTOM
TMAX.DEGF                    85 : MAXIMUM RECORDED TEMPERATURE
UNIT.                      M-19 : EQUIPMENT NUMBER
BASE.             GRAHAM, TEXAS : BASE LOCATION
ENG .                    WENDEL : RECORDED BY
WIT .           WOMBLE/BURLESON : WITNESSED BY
~Curve Information -----------------------------------------
DEPT.F          :DEPTH
CALI.IN         :
DPHI.PU         :
GRD.GAPI        :
MINV.OHMM       :
MNOR.OHMM       :
NPHI.PU         :
RHOC.G/CC       :
~ASCII ------------------------------------------------------
# ...
530.50000        7.50150       28.06806       46.91010        7.21804        7.16842       20.43446        0.05647
531.00000        7.50750       27.75453       48.59549        6.96090        6.94285       19.86255        0.05237
531.50000        7.51257       27.95637       50.33707        7.15789        7.21804       20.39810        0.04680
532.00000        7.51764       28.70008       52.59830        6.55639        6.61654       21.30264        0.03271
532.50000        7.51576       29.79671       53.65167        5.71428        5.96541       22.00014        0.03271
533.00000        7.51088       30.00458       52.48032        5.96541        6.13233       21.71825        0.04098
533.50000        7.50488       30.00517       49.15729        5.56391        6.29022       20.26887        0.05677
534.00000        7.52383       29.25259       48.35392        6.40902        7.17443       19.15836        0.06590
534.50000        7.63846       28.20610       48.20224        6.91729        8.66165       18.74464        0.06767
535.00000        7.75234       27.13325       48.53931        6.91729       10.31127       17.80362        0.06316
535.50000        7.82739       26.54263       48.09549        8.60150       11.12781       16.97571        0.05714
536.00000        7.85291       26.41780       47.02246       10.60150       12.93232       16.93863        0.04586
536.50000        7.84747       26.35549       44.30055       11.59999       14.58646       17.28134        0.03647
537.00000        7.84203       26.18294       39.68819       11.27819       14.08571       17.54897        0.03887
537.50000        7.83358       25.71197       37.07864       12.35187       13.68420       17.93864        0.04534
538.00000        7.82495       25.07679       37.23595       13.96390       15.41353       19.07192        0.05071
538.50000        7.79737       24.68466       38.03370       12.10526       14.49623       18.83447        0.05714
539.00000        7.68855       24.41632       39.71909        9.47368       12.84210       16.20167        0.06090
539.50000        7.59475       24.09425       40.30898       10.16992       13.03308       14.60265        0.06872
540.00000        7.52308       23.84173       37.98595        9.53383       13.12029       14.11436        0.07812
540.50000        7.49756       23.63931       35.60954       10.60150       14.65112       14.53879        0.07030
541.00000        7.48424       23.76996       33.31460       13.38345       15.93984       16.00868        0.05853
541.50000        7.49043       24.11067       31.60112       12.00451       14.98796       17.62369        0.04444
542.00000        7.49568       24.58068       31.94100       11.48872       13.23308       18.58850        0.03647
542.50000        7.48218       24.95528       32.35954       11.14586       13.34586       17.62500        0.03083
543.00000        7.46961       25.32322       31.46067       11.11127       13.27067       16.52089        0.03083
543.50000        7.51144       25.81307       29.35393       11.44511       13.83458       16.10265        0.02519
544.00000        7.50863       26.27619       29.44381       11.31127       14.35037       15.91842        0.01391
544.50000        7.49756       26.70477       29.95505       10.97744       14.43608       15.66892        0.00342
545.00000        7.48443       26.55470       30.18258        9.39849       13.83458       15.41151        0.00327
545.50000        7.49944       25.35014       30.31179        9.07218       12.33082       15.20394        0.01368
546.00000        7.52120       24.03247       32.18258        9.40751       11.54887       15.03052        0.03835
546.50000        7.55028       22.43232       35.60392        7.96992       10.82706       15.14410        0.05297
547.00000        7.57955       20.93424       38.94100        7.74436       11.45413       15.35460        0.05714
547.50000        7.61463       19.28863       40.83426        7.70977        9.92481       15.22073        0.04962
548.00000        7.63846       17.78264       41.46066        7.02706        9.32330       13.38529        0.04759
548.50000        7.65422       16.18512       39.82583        7.17443       11.06766       11.81075        0.05195
549.00000        7.69400       14.22188       37.95224        8.82255       20.56390       10.84110        0.05714
549.50000        7.81445       12.71224       38.76404       12.48120       32.03006       10.66580        0.05086
550.00000        7.88555       12.82704       42.97752       14.09172       39.54885       11.93230        0.03459
550.50000        7.94549       14.19240       53.37077       11.87611       11.19402       13.17349        0.01451
551.00000        7.99248       15.60276       65.13201        7.61194        8.90597       14.66291        0.01716
551.50000        7.87970       16.95684       77.92133       11.24328        9.90000       15.96575        0.03209
552.00000        7.80320       17.85968       84.10110       10.71641       10.32835       17.52923        0.04451
552.50000        7.79643       18.42418       85.11234        9.05522        8.86567       18.78132        0.05261
553.00000        7.78835       18.73504       83.82021       10.59701       10.65671       19.74067        0.05772
553.50000        7.78177       18.80668       83.56740        8.45223        8.80597       20.02698        0.05645
554.00000        7.77368       18.63935       85.76683        7.43283        8.01044       19.93746        0.05496
554.50000        7.76692       18.29257       87.99155        7.61194        9.15373       20.23128        0.05261
555.00000        7.74192       17.80970       91.62357        7.66119        6.53433       21.35980        0.05373
555.50000        7.71184       17.26267       98.51964        7.41343        6.33433       22.51640        0.06269
556.00000        7.71053       17.07529      103.86234        6.84030        5.88507       22.93993        0.06437
556.50000        7.82331       17.26385      109.55054        7.46268        5.52239       21.79665        0.06172
557.00000        7.93985       17.88975      109.21346        7.46268        5.89552       20.65740        0.05951
557.50000        8.09023       18.41176      106.56739        6.76567        5.37313       20.32905        0.05888
558.00000        8.21804       18.64179      105.53087        6.95074        4.98507       20.57411        0.06093
558.50000        8.17105       18.60103      104.66852        6.86567        5.77164       22.40740        0.06567
559.00000        7.95489       18.63922       98.87638        7.61194        5.59701       25.55659        0.07313
559.50000        7.71429       19.22263       93.87638        7.61194        5.97015       25.91959        0.07313
560.00000        7.62274       19.70667       92.13481        7.21343        5.97015       25.96503        0.07313
560.50000        7.58515       20.29535       94.49436        7.52686        6.77612       26.59231        0.07313
561.00000        7.56241       20.32714       97.86515        7.31343        5.52239       28.13436        0.08060
561.50000        7.57556       20.18375       99.43818        7.31343        6.21940       29.21277        0.07817
562.00000        7.58665       20.03859       98.68818        6.94030        6.01940       28.96273        0.07048
562.50000        7.59774       20.01588       97.75279        6.86567        5.01492       27.57235        0.06284
563.00000        7.61767       20.09177       97.75279        6.09850        5.31343       26.21956        0.06381
563.50000        7.63421       19.81041       99.15728        6.86567        5.34328       25.80662        0.07313
564.00000        7.65413       19.56664      103.27807        6.86567        5.47313       27.53664        0.07343
564.50000        7.70113       19.34179      105.61795        6.90298        5.38955       28.60866        0.06910
565.00000        7.78947       19.00403      107.82582        7.38806        5.47313       27.36877        0.06769
