~Version ---------------------------------------------------
VERS. 2.0 : CWLS LOG ASCII STANDARD - VERSION 2.0
WRAP. NO  : One line per depth step
DLM . SPACE : Column Data Section Delimiter
~Well ------------------------------------------------------
STRT.F           48 : START DEPTH
STOP.F       1439.0 : STOP DEPTH
STEP.F          0.5 : STEP
NULL.       -999.25 : NULL VALUE
COMP.                 WALSH & WATTS, INC. : COMPANY
WELL.                         HOWARD F 14 : WELL
FLD .             MONTAGUE COUNTY REGULAR : FIELD
CNTY.                            MONTAGUE : COUNTY
STAT.                               TEXAS : STATE
CTRY.                                 USA : COUNTRY
SEC .                                     : SECTION
TWP .                                     : TOWNSHIP
RGE .                                     : RANGE
LOC . 1430'FEL & 2600'FSL OF THE J.CHAMBLIS SURVEY A-123 : LOCATION
EKB .F                      849 : ELEVATION KELLY BUSHING
EDF .F                      848 : ELEVATION DERRICK FLOOR
EGL .F                      841 : ELEVATION GROUND LEVEL
PDAT.                        GL : PERMANENT DATUM
EPD .                       841 : ELEVATION PERMANENT DATUM
APD .                         8 : ABOVE PERMANENT DATUM
LMF .                        KB : LOG MEASURED FROM
DMF .                        KB : DRILLING MEASURED FROM
API .            42337351020000 : API NUMBER
UWI .                           : UWI NUMBER
DIGC.                     NthDS : DIGITIZING COMPANY
~Params ----------------------------------------------------
SRVC.                   PIONEER : LOGGING COMPANY
LOG .                      CNFD : LOG
DATE.                2013-08-01 : RUN DATE
RUN .                         1 : RUN NUMBER
TDD .F                     1450 : TOTAL DEPTH DRILLER
TDL .F                     1449 : TOTAL DEPTH LOGGER
BOTL.F                     1429 : BOTTOM LOGGED INTERVAL
TOPL.F                       50 : TOP LOGGED INTERVAL
CSGS.IN                         : CASING SIZE
CSGD.F                          : CASING DRILLER
CSGL.F                          : CASING LOGGER
BS  .IN                   7.875 : BIT SIZE
MUD .                       GEL : MUD TYPE
MUDD.                       9.2 : MUD DENSITY
MUDV.                        75 : MUD VISCOSITY
PH  .                           : MUD PH
FL  .                           : FLUID LOSS
MUDS.                  FLOWLINE : SOURCE OF SAMPLE
RM  .OHMM                   2.8 : MUD RESISTIVITY
RMT .DEGF                    72 : RM TEMPERATURE
RMF .OHMM                   2.1 : MUD FILTRATE RESISTIVITY
RMFT.DEGF                    72 : RMF TEMPERATURE
RMC .OHMM                   3.5 : MUD CAKE RESISTIVITY
RMCT.DEGF                    72 : RMC TEMPERATURE
RMFS.                      CALC : RMF SOURCE
RMCS.                      CALC : RMC SOURCE
RMBH.OHMM                   2.3 : MUD RESISTIVITY AT BHT
BHT .DEGF                    87 : BOTTOM HOLE TEMPERATURE
TIMC.           0130 2018-08-01 : TIME CIRCULATION STOPPED
TIML.           0400 2018-08-01 : TIME LOGGER ON BOTTOM
TMAX.DEGF                    87 : MAXIMUM RECORDED TEMPERATURE
UNIT.                     C-052 : EQUIPMENT NUMBER
BASE.                GRAHAM, TX : BASE LOCATION
ENG .                    WENDEL : RECORDED BY
WIT .                  BURLESON : WITNESSED BY
~Curve Information -----------------------------------------
DEPT.F          :DEPTH
CALD.IN         :
DPHI.%          :
GRD.GAPI        :
MINV.OHMM       :
MNOR.OHMM       :
NPHI.%          :
RHOC.G/CC       :
~ASCII ------------------------------------------------------
# ...
1063.00000        8.00092       29.92681       42.46323        6.49275        6.79710       17.56231        0.09130
1063.50000        8.00331       29.92681       41.91176        6.34782        6.67536       17.28710        0.11304
1064.00000        8.00698       29.92681       39.70587        6.25869        7.16449       16.76560        0.10942
1064.50000        8.01029       29.92681       38.05146        6.32608        7.24637       15.94694        0.10217
1065.00000        8.01415       29.92681       37.49999        6.40652        7.14637       15.52864        0.07319
1065.50000        8.01746       29.92681       38.05146        6.47319        6.97898       15.72736        0.07319
1066.00000        8.02132       29.92681       38.32720        6.55362        6.82971       16.81610        0.07681
1066.50000        8.02114       29.92681       38.87867        6.55797        6.92029       18.14273        0.08768
1067.00000        8.01967       29.92681       38.60293        6.44927        6.84058       18.83806        0.08406
1067.50000        8.01857       29.92681       38.32720        6.35869        6.69565       18.43038        0.08043
1068.00000        8.01710       29.92681       38.87867        6.25000        6.90797       16.86185        0.07355
1068.50000        8.01599       29.92681       39.70587        6.28478        6.88405       16.60165        0.07083
1069.00000        8.01452       29.92681       39.98161        6.36377        6.95652       16.47978        0.06757
1069.50000        8.01342       29.92681       39.70587        6.58406        7.23405       16.70339        0.06866
1070.00000        8.01195       29.92681       40.80881        6.59420        7.34275       17.29369        0.07681
1070.50000        8.01066       29.92681       42.46323        6.55797        7.39130       17.48399        0.08746
1071.00000        8.00937       29.92681       43.84190        6.88405        7.18840       17.29588        0.10025
1071.50000        8.00809       29.92681       44.11764        6.64275        7.32826       16.53760        0.11091
1072.00000        8.00680       29.92681       43.29043        6.95652        7.48478       16.36304        0.11174
1072.50000        8.00551       29.92681       42.46323        7.22463        7.58768       16.62763        0.11047
1073.00000        8.00423       29.92681       42.18749        7.09420        7.31232       17.46203        0.11337
1073.50000        8.00460       29.92681       44.66911        5.92753        7.01594       17.58646        0.12326
1074.00000        8.00662       28.27008       50.18381        4.61956        5.86087       16.82525        0.13116
1074.50000        8.00827       26.88930       53.21690        7.29203        8.98550       16.04465        0.13116
1075.00000        8.01029       27.09058       50.18381        7.46376        9.56521       15.37603        0.12149
1075.50000        8.01232       27.90668       45.22058        7.46376        8.11594       15.11363        0.10217
1076.00000        8.01397       28.52406       43.56617        8.40579        7.28261       15.04337        0.10446
1076.50000        8.01599       28.42635       44.39337        6.88405        6.14348       14.95883        0.10851
1077.00000        8.01765       27.90668       47.70220        6.73913        6.30435       14.83696        0.11304
1077.50000        8.01967       26.67704       50.73528        6.63043        5.70652       14.90394        0.11873
1078.00000        8.02132       25.13486       49.90808        6.39782        5.98550       15.03934        0.12391
1078.50000        8.02206       22.87063       46.59925        6.95652        6.43333       15.01373        0.13011
1079.00000        8.02206       20.98372       44.66911        6.30435        6.59420       14.95883        0.13529
1079.50000        8.02206       19.60659       44.39337        6.30435        7.02898       15.26075        0.13297
1080.00000        7.93934       20.02379       45.49631        6.09275        6.72898       16.04758        0.12391
1080.50000        7.84614       21.92278       48.25367        5.83913        6.15942       17.55718        0.09598
1081.00000        7.81985       24.03989       50.18381        6.93840        6.44420       18.18664        0.08888
1081.50000        7.82298       26.22324       52.38969        7.21014        6.78550       17.52059        0.10612
1082.00000        7.82555       26.45746       52.66543        7.39130        6.42536       17.21135        0.12917
1082.50000        7.82886       26.03477       50.73528        5.70072        5.12101       17.11144        0.14645
1083.00000        7.83143       25.27027       48.52940        7.24637        6.22608       16.95334        0.15652
1083.50000        7.83456       24.35352       47.70220        8.18840        8.06594       16.29936        0.15409
1084.00000        7.83713       23.69149       47.97793        7.59058        9.09420       15.31565        0.15170
1084.50000        7.81618       23.38957       48.52940        9.22101       10.11376       14.83440        0.14808
1085.00000        7.78860       23.35883       47.97793        8.21739        9.69565       14.81244        0.14656
1085.50000        7.78309       23.38811       47.15072        7.75362        6.44927       14.98811        0.15199
1086.00000        7.78768       23.41263       45.49631        5.76087        5.81159       15.08326        0.16351
1086.50000        7.81526       22.90942       42.73896       12.17391        8.68116       14.58079        0.17946
1087.00000        7.73401       22.03916       42.46323        9.75869        7.97101       14.07319        0.19275
1087.50000        7.68548       20.66313       44.11764        8.55072        6.11087       13.57219        0.19163
1088.00000        7.67849       19.51620       45.77205        7.68116        6.81159       13.16560        0.19025
1088.50000        7.65441       19.09424       47.70220        9.23913        7.13333       12.96798        0.18913
1089.00000        7.60846       19.64319       47.70220       10.56521        8.01956       12.85087        0.16377
1089.50000        7.48640       20.91089       47.42646       11.08695        9.58913       13.11290        0.13841
1090.00000        7.36029       21.75920       47.15072       10.09058       10.17391       13.62086        0.11304
1090.50000        7.36029       22.94895       45.49631        7.28261        8.58188       14.32608        0.11667
1091.00000        7.36029       24.52626       44.66911        5.05652        5.86014       14.75755        0.11667
1091.50000        7.36029       26.08417       43.84190        6.06304        7.26449       14.81244        0.09493
1092.00000        7.36029       26.29643       41.91176        4.81884        6.29420       14.82635        0.08768
1092.50000        7.13971       25.87667       39.70587        4.43478        5.04855       14.91089        0.09130
1093.00000        6.96691       25.36908       40.53308        3.69565        4.47826       14.98152        0.10942
1093.50000        6.99265       24.37182       44.66911        2.89855        4.28985       14.73413        0.09855
1094.00000        7.04779       23.54071       46.87499        4.75362        5.42029       14.47246        0.09130
1094.50000        7.06158       22.54346       47.15072        5.25000        6.01449       14.36597        0.09130
1095.00000        7.27096       21.71235       44.66911        5.56666        6.49420       14.44648        0.09130
1095.50000        7.59926       21.52498       39.43014        6.80145        7.15145       13.95243        0.08406
1096.00000        7.92096       21.78408       36.94852        9.74637        7.93913       13.31199        0.05507
1096.50000        8.22886       22.09515       36.12132       10.34782        9.85507       13.11437        0.04783
1097.00000        8.24338       22.17127       37.22426       10.75579       12.30434       13.02983        0.03696
