~Version ---------------------------------------------------
VERS. 2.0 : CWLS LOG ASCII STANDARD - VERSION 2.0
WRAP. NO  : One line per depth step
DLM . SPACE : Column Data Section Delimiter
~Well ------------------------------------------------------
STRT.F           48 : START DEPTH
STOP.F       1439.0 : STOP DEPTH
STEP.F          0.5 : STEP
NULL.       -999.25 : NULL VALUE
COMP.                 WALSH & WATTS, INC. : COMPANY
WELL.                         HOWARD F 14 : WELL
FLD .             MONTAGUE COUNTY REGULAR : FIELD
CNTY.                            MONTAGUE : COUNTY
STAT.                               TEXAS : STATE
CTRY.                                 USA : COUNTRY
SEC .                                     : SECTION
TWP .                                     : TOWNSHIP
RGE .                                     : RANGE
LOC . 1430'FEL & 2600'FSL OF THE J.CHAMBLIS SURVEY A-123 : LOCATION
EKB .F                      849 : ELEVATION KELLY BUSHING
EDF .F                      848 : ELEVATION DERRICK FLOOR
EGL .F                      841 : ELEVATION GROUND LEVEL
PDAT.                        GL : PERMANENT DATUM
EPD .                       841 : ELEVATION PERMANENT DATUM
APD .                         8 : ABOVE PERMANENT DATUM
LMF .                        KB : LOG MEASURED FROM
DMF .                        KB : DRILLING MEASURED FROM
API .            42337351020000 : API NUMBER
UWI .                           : UWI NUMBER
DIGC.                     NthDS : DIGITIZING COMPANY
~Params ----------------------------------------------------
SRVC.                   PIONEER : LOGGING COMPANY
LOG .                      CNFD : LOG
DATE.                2013-08-01 : RUN DATE
RUN .                         1 : RUN NUMBER
TDD .F                     1450 : TOTAL DEPTH DRILLER
TDL .F                     1449 : TOTAL DEPTH LOGGER
BOTL.F                     1429 : BOTTOM LOGGED INTERVAL
TOPL.F                       50 : TOP LOGGED INTERVAL
CSGS.IN                         : CASING SIZE
CSGD.F                          : CASING DRILLER
CSGL.F                          : CASING LOGGER
BS  .IN                   7.875 : BIT SIZE
MUD .                       GEL : MUD TYPE
MUDD.                       9.2 : MUD DENSITY
MUDV.                        75 : MUD VISCOSITY
PH  .                           : MUD PH
FL  .                           : FLUID LOSS
MUDS.                  FLOWLINE : SOURCE OF SAMPLE
RM  .OHMM                   2.8 : MUD RESISTIVITY
RMT .DEGF                    72 : RM TEMPERATURE
RMF .OHMM                   2.1 : MUD FILTRATE RESISTIVITY
RMFT.DEGF                    72 : RMF TEMPERATURE
RMC .OHMM                   3.5 : MUD CAKE RESISTIVITY
RMCT.DEGF                    72 : RMC TEMPERATURE
RMFS.                      CALC : RMF SOURCE
RMCS.                      CALC : RMC SOURCE
RMBH.OHMM                   2.3 : MUD RESISTIVITY AT BHT
BHT .DEGF                    87 : BOTTOM HOLE TEMPERATURE
TIMC.           0130 2018-08-01 : TIME CIRCULATION STOPPED
TIML.           0400 2018-08-01 : TIME LOGGER ON BOTTOM
TMAX.DEGF                    87 : MAXIMUM RECORDED TEMPERATURE
UNIT.                     C-052 : EQUIPMENT NUMBER
BASE.                GRAHAM, TX : BASE LOCATION
ENG .                    WENDEL : RECORDED BY
WIT .                  BURLESON : WITNESSED BY
~Curve Information -----------------------------------------
DEPT.F          :DEPTH
CALD.IN         :
DPHI.%          :
GRD.GAPI        :
MINV.OHMM       :
MNOR.OHMM       :
NPHI.%          :
RHOC.G/CC       :
~ASCII ------------------------------------------------------
# ...
328.50000        8.67261       25.33676       89.49246        3.43987        4.04060       26.22365        0.15662
329.00000        8.65772       22.98589       90.32420        3.08957        3.63022       24.02383        0.14569
329.50000        8.63353       21.26086       92.80629        3.20107        3.63549       22.06233        0.14944
330.00000        8.60341       19.26086       97.76644        4.82657        4.23317       20.05756        0.14584
330.50000        8.59372       18.06856      101.90090        6.36151        5.80473       19.84088        0.14226
331.00000        8.59681       17.24106      104.65822        5.65956        6.74819       19.90101        0.08372
331.50000        8.60052       17.29606      106.86609        8.48166        7.34614       21.28396        0.05448
332.00000        8.60379       17.62603      110.17386        7.78731        6.73723       22.62438        0.02892
332.50000        8.60750       17.82365      115.13401        7.38572        7.05605       22.41063        0.02533
333.00000        8.61058       17.92154      117.06565        7.27744        6.83762       21.11274        0.01808
333.50000        8.61209       18.03117      116.52124        6.22385        6.04802       20.17415        0.01082
334.00000        8.61242       18.17085      117.07674        6.76758        5.56585       20.56535        0.00724
334.50000        8.61283       18.13566      118.18370        5.30373        5.83120       21.86068        0.01097
335.00000        8.61316       18.01100      121.21726        4.70068        6.00104       23.91384        0.02570
335.50000        8.61357       17.30376      123.69935        5.74624        6.11254       24.42713        0.04044
336.00000        8.61390       16.69111      121.77881        4.66847        4.59668       24.28048        0.06248
336.50000        8.61431       17.05775      117.38022        5.82905        4.72356       24.80110        0.04791
337.00000        8.61464       18.80147      111.60548        4.57865        4.91538       25.97910        0.04065
337.50000        8.61505       20.27205      107.20790        3.26132        4.57194       25.74702        0.05172
338.00000        8.61545       20.43080      103.91021        8.68414       10.04384       22.70394        0.08842
338.50000        8.61579       18.99029      101.16399       10.63932       10.37045       20.13749        0.10681
339.00000        8.61619       18.19432       99.24244       10.19404        9.09369       18.26765        0.09955
339.50000        8.61653       19.10578       99.24849        8.98148        7.96244       16.91109        0.03736
340.00000        8.61693       20.48836       99.52876       10.30176       10.11861       16.50266        0.02278
340.50000        8.61727       21.64070       98.98436       10.96244       11.17196       16.55436        0.01920
341.00000        8.61767       22.04400       98.71418       10.17285        9.96479       17.27443        0.01560
341.50000        8.61801       22.09643      100.92205        9.25112        8.63427       17.91568        0.01202
342.00000        8.61841       21.97067      105.60697        7.19414        6.71795       19.29423        0.01575
342.50000        8.61875       21.68359      108.36429        6.15739        4.64385       21.75069        0.02315
343.00000        8.61915       20.60935      108.92080        4.52312        3.69309       23.87718        0.05619
343.50000        8.61949       18.75344      105.07265        3.32080        3.41531       23.72136        0.08924
344.00000        8.61989       17.46105       98.47325        4.89237        5.55170       21.49844        0.08930
344.50000        8.62023       17.46105       93.79943        4.54206        5.47979       20.11549        0.06008
345.00000        8.62063       18.30431       90.77798        3.94295        4.41401       20.53016        0.04916
345.50000        8.62097       18.56095       88.85643        4.04685        5.09813       21.43281        0.04557
346.00000        8.62137       18.39157       88.31203        4.34883        5.33783       20.90743        0.04930
346.50000        8.62171       18.10963       88.59230        4.90768        6.43807       20.19872        0.05305
347.00000        8.62211       17.82768       91.35062        6.47191        7.18253       20.37580        0.06044
347.50000        8.62244       17.82768       94.65840        5.46740        6.88058       22.00733        0.07517
348.00000        8.62285       17.73969       98.24241        5.34374        5.71004       24.50046        0.09356
348.50000        8.61823       17.13841      100.72450        3.75755        4.74435       25.31219        0.12660
349.00000        8.60854       15.71183      102.93237        3.36868        3.90568       25.52704        0.15964
349.50000        8.57805       14.50706      103.48787        3.49530        4.18614       23.98717        0.16704
350.00000        8.49548       13.30229      100.09272        4.59877        6.44767       19.31256        0.14891
350.50000        8.48667       13.20000       94.06488        9.27161       14.26746       17.73505        0.07965
351.00000        8.37007       14.41835       85.29584       17.42425       18.54322       17.18752        0.02497
351.50000        8.31191       16.44807       79.26800       11.34269       12.23101       17.08257        0.00680
352.00000        8.34083       19.07486       78.17714       10.15207       11.17396       17.21468        0.00687
352.50000        8.33769       21.16807       78.45639        9.27776        9.99163       17.30275        0.00695
353.00000        8.33389       22.14679       79.55931        8.98713        9.42509       17.19266        0.01798
353.50000        8.33075       22.08551       81.48388        9.79165       10.17778       16.80367        0.02535
354.00000        8.32695       21.83743       83.13524        9.35504       10.08496       16.82569        0.01448
354.50000        8.29895       21.74312       83.68870       10.18364       10.20335       17.08697        0.01819
355.00000        8.23152       21.91450       85.61428        9.66820        9.73097       17.77505        0.02557
355.50000        8.21870       22.05064       88.36152        7.15157        7.59172       17.92257        0.04024
356.00000        8.20356       22.15229       88.91599        6.70401        6.66021       17.94239        0.05857
356.50000        8.19073       22.27890       85.35614        7.26984        7.10999       17.83743        0.06593
357.00000        8.18327       22.93578       80.42619        4.25441        4.10843       17.68807        0.06601
357.50000        8.19019       23.99083       75.76946        5.64287        6.15382       17.55963        0.06243
358.00000        8.19845       25.61725       70.56428        7.79237        7.17704       17.55963        0.05156
358.50000        8.20537       27.03266       67.55388        8.06696        7.34069       17.68697        0.05528
359.00000        8.21345       28.29358       69.75268        8.64567        7.74787       17.87780        0.08091
359.50000        8.22073       27.78899       74.42046        8.78742        7.04510       18.03670        0.09557
360.00000        8.23064       26.26862       79.63670        8.55545        8.85326       18.73395        0.09930
360.50000        8.23884       24.95927       83.20660        7.90643        8.40423       19.69541        0.09573
361.00000        8.24893       23.38789       89.51971        7.35621        8.80657       21.47156        0.07755
361.50000        8.25712       22.07853       95.55760        9.15827       10.72030       21.86055        0.06303
362.00000        8.25515       21.19266       99.67695        8.57593        9.29126       21.08734        0.03755
362.50000        8.25347       21.49945       98.85931        8.86924        9.40427       19.87156        0.02121
363.00000        8.25150       22.67890       94.47781        9.75624       10.38543       19.87156        0.01854
