~Version ---------------------------------------------------
VERS. 2.0 : CWLS LOG ASCII STANDARD - VERSION 2.0
WRAP. NO  : One line per depth step
DLM . SPACE : Column Data Section Delimiter
~Well ------------------------------------------------------
STRT.F           40 : START DEPTH
STOP.F       1284.0 : STOP DEPTH
STEP.F          0.5 : STEP
NULL.       -999.25 : NULL VALUE
COMP.                 WALSH & WATTS, INC. : COMPANY
WELL.                         HOWARD G 17 : WELL
FLD .             MONTAGUE COUNTY REGULAR : FIELD
CNTY.                            MONTAGUE : COUNTY
STAT.                               TEXAS : STATE
CTRY.                                 USA : COUNTRY
SEC .                                     : SECTION
TWP .                                     : TOWNSHIP
RGE .                                     : RANGE
LOC . 520'FNL & 4250'FEL OF THE J.CHAMBLIS SURVEY, A-123 : LOCATION
EKB .F                      519 : ELEVATION KELLY BUSHING
EDF .F                      518 : ELEVATION DERRICK FLOOR
EGL .F                      512 : ELEVATION GROUND LEVEL
PDAT.                        GL : PERMANENT DATUM
EPD .                       512 : ELEVATION PERMANENT DATUM
APD .                         7 : ABOVE PERMANENT DATUM
LMF .                        KB : LOG MEASURED FROM
DMF .                        KB : DRILLING MEASURED FROM
API .            42337343900000 : API NUMBER
UWI .                           : UWI NUMBER
DIGC.                     NthDS : DIGITIZING COMPANY
~Params ----------------------------------------------------
SRVC. PIONEER WIRELINE SERVICES : LOGGING COMPANY
LOG .                      DIFL : LOG
DATE.                2010-10-13 : RUN DATE
RUN .                         1 : RUN NUMBER
TDD .F                     1298 : TOTAL DEPTH DRILLER
TDL .F                     1280 : TOTAL DEPTH LOGGER
BOTL.F                     1280 : BOTTOM LOGGED INTERVAL
TOPL.F                       50 : TOP LOGGED INTERVAL
CSGS.IN                         : CASING SIZE
CSGD.F                          : CASING DRILLER
CSGL.F                          : CASING LOGGER
BS  .IN                   7.875 : BIT SIZE
MUD .                  GEL-CHEM : MUD TYPE
MUDD.                           : MUD DENSITY
MUDV.                           : MUD VISCOSITY
PH  .                           : MUD PH
FL  .                           : FLUID LOSS
MUDS.                  FLOWLINE : SOURCE OF SAMPLE
RM  .OHMM                   3.6 : MUD RESISTIVITY
RMT .DEGF                    72 : RM TEMPERATURE
RMF .OHMM                   2.7 : MUD FILTRATE RESISTIVITY
RMFT.DEGF                    72 : RMF TEMPERATURE
RMC .OHMM                   4.5 : MUD CAKE RESISTIVITY
RMCT.DEGF                    72 : RMC TEMPERATURE
RMFS.                      CALC : RMF SOURCE
RMCS.                      CALC : RMC SOURCE
RMBH.OHMM                   3.0 : MUD RESISTIVITY AT BHT
BHT .DEGF                    85 : BOTTOM HOLE TEMPERATURE
TIMC.           0245 2010-10-13 : TIME CIRCULATION STOPPED
TIML.           0540 2010-10-13 : TIME LOGGER ON BOTTOM
TMAX.DEGF                    85 : MAXIMUM RECORDED TEMPERATURE
UNIT.                      M-19 : EQUIPMENT NUMBER
BASE.             GRAHAM, TEXAS : BASE LOCATION
ENG .                    WENDEL : RECORDED BY
WIT .           WOMBLE/BURLESON : WITNESSED BY
~Curve Information -----------------------------------------
DEPT.F          :DEPTH
CILD.MMHO       :
GRR.GAPI        :
RILD.OHMM       :
RILM.OHMM       :
RSFL.OHMM       :
SP.MV           :
~ASCII ------------------------------------------------------
# ...
441.00000      127.04017       82.70417        8.07680        8.23971       12.16916      147.66518
441.50000      128.17302       84.82730        7.90315        8.22417       11.67424      147.58588
442.00000      133.63850       87.25175        7.67741        8.21066       11.72481      147.49337
442.50000      138.37525       86.96034        7.42731        8.01264       12.03507      147.41143
443.00000      145.72880       85.74118        7.19761        7.58958       12.03507      148.69601
443.50000      152.14163       86.96034        6.91835        6.86255       10.93466      148.59557
444.00000      154.49345       91.39294        6.64992        6.31532        9.96031      148.50835
444.50000      156.83864       95.91673        6.42350        5.99244        8.57805      149.33037
445.00000      159.19045       97.55615        6.23091        5.77011        7.27559      149.60791
445.50000      160.85328       97.14382        6.21311        5.78489        7.51006      149.92509
446.00000      162.17824       95.35968        6.19310        5.87933        8.00387      151.45813
446.50000      159.97218       94.32488        6.17540        5.96369        8.37321      151.67751
447.00000      155.51367       93.59338        6.22144        6.15438        8.81631      152.42288
447.50000      150.08131       94.87399        6.47257        6.44897        9.45856      153.61231
448.00000      144.64896       96.24977        6.70072        6.71828       10.11368      155.33037
448.50000      139.21660       94.43589        6.97120        7.03986       10.91803      155.78235
449.00000      133.78424       92.70924        7.21692        7.33385       10.81878      156.17883
449.50000      129.63710       90.98259        7.50823        7.68489       10.79707      156.63346
450.00000      128.08027       90.97069        7.77288        8.00582       11.40934      157.29425
450.50000      125.99345       90.55836        7.84849        8.15437       12.34301      158.61583
451.00000      124.43662       90.33038        7.89113        8.27188       12.65807      158.91716
451.50000      122.87316       89.73567        7.92821        8.28902       12.58124      159.63610
452.00000      123.33027       88.14977        7.97129        8.26835       12.55905      160.29160
452.50000      123.78738       87.61651        8.00923        8.25025       12.37462      160.57707
453.00000      124.25112       87.59867        8.05274        8.23018       11.66429      161.81936
453.50000      124.70823       89.14096        8.09108        8.21216       11.41629      162.07046
454.00000      126.56319       88.54624        7.98440        8.19169       11.52102      162.35856
454.50000      129.12037       85.83435        7.83036        8.17177       11.19876      164.00790
455.00000      131.63780       83.13038        7.70316        8.15388       11.21445      164.40174
455.50000      134.08236       80.65241        7.59698        8.06992       11.36843      164.51275
456.00000      136.53355       80.07950        7.50504        7.98975       11.50490      165.11011
456.50000      138.97811       79.42730        7.35307        7.67321       11.50770      166.21495
457.00000      141.42267       80.31937        7.15436        7.29555       11.28637      166.65372
457.50000      142.41639       86.90285        7.00481        6.88641       10.11799      167.15592
458.00000      143.41012       91.83303        6.92804        6.53116        9.05401      167.59204
458.50000      144.40384       95.59954        6.86172        6.42076        8.34370      168.09425
459.00000      145.39756       93.34162        6.78652        6.52321        7.94126      168.28191
459.50000      145.17894       91.36717        6.76837        6.68279        8.66307      168.28191
460.00000      144.95370       89.11122        6.81924        6.86966        9.54940      168.28191
460.50000      144.73508       86.76210        6.86423        7.03772        9.36630      168.28191
461.00000      142.74763       85.75109        6.91582        7.19498        9.35377      168.28191
461.50000      140.76019       87.55505        6.96271        7.29733       10.65537      168.28191
462.00000      139.76646       89.71783        7.00395        7.26895       10.91803      168.14711
462.50000      139.26960       89.15880        7.05144        7.23672        9.62704      167.95680
463.00000      138.77274       86.38941        7.09364        7.25083        9.20687      167.74006
463.50000      142.44289       83.41585        7.09580        7.38807        9.94334      167.52332
464.00000      146.11304       80.81497        6.97927        7.31557       10.79510      167.33301
464.50000      149.78320       77.84140        6.84836        7.07294       10.99407      167.11363
465.00000      153.44673       81.80616        6.63697        6.76054       10.91803      166.91804
465.50000      156.18940       89.47796        6.44740        6.46784       10.68785      166.69601
466.00000      158.45509       93.22466        6.23737        6.16038        9.26310      166.69601
466.50000      160.46904       93.99778        6.12523        6.02720        8.28296      166.69601
467.00000      163.37734       94.19602        6.05552        5.98442        8.10192      166.69601
467.50000      167.63710       94.54294        5.99499        5.94701        8.38648      166.69601
468.00000      171.89686       96.67399        5.92677        5.90444        9.09545      167.19028
468.50000      169.24693       99.44932        5.85896        5.86825        9.28172      167.68191
469.00000      166.59700      102.25835        5.80076        5.83192        8.25829      168.24755
469.50000      168.25321      102.22465        5.73474        5.84009        7.85901      168.73918
470.00000      169.90942      101.43170        5.77187        5.84721        7.85901      168.81055
470.50000      171.56562      101.77862        5.83334        5.85540        8.13504      168.81055
471.00000      173.22183      102.17509        5.88793        5.86253        8.72288      168.81055
471.50000      175.60677      101.53082        5.83192        5.85219        8.73882      168.81055
472.00000      177.99170       99.44932        5.73789        5.81172        8.56762      168.81055
472.50000      180.37664       96.17840        5.65707        5.77644        8.60106      168.81055
473.00000      182.76158       93.58743        5.56314        5.67431        8.26382      168.76561
473.50000      185.14651       92.31276        5.47511        5.55468        7.97954      168.41407
474.00000      190.84386       93.60131        5.36327        5.42105        7.71208      168.25284
474.50000      196.54121       95.39932        5.19108        5.30676        7.48541      168.19733
475.00000      202.23856       98.77135        5.00123        5.17909        7.44496      168.14711
475.50000      207.93591      101.28302        4.81861        4.92688        7.72289      168.08896
476.00000      213.63326      101.79051        4.66391        4.70125        7.70129      168.03081
476.50000      214.29574      101.18391        4.66334        4.45601        7.46857      167.13742
477.00000      208.63814      102.11364        4.75450        4.25194        6.95212      165.72596
477.50000      202.98054      104.34976        4.86104        4.22356        6.21954      164.49425
478.00000      197.32294      106.52047        4.95607        4.45248        5.89008      162.94799
478.50000      191.67197      104.60351        5.06712        4.90205        6.35930      161.57883
479.00000      185.59038       97.92091        5.18066        5.48145        8.61049      160.01671
479.50000      179.29679       89.33919        5.35544        6.01217       10.91803      158.45196
480.00000      173.00321       82.74382        5.57739        6.55386       11.21855      157.08279
480.50000      166.70963       72.79625        5.77890        6.86339       11.25549      155.51804
