~Version ---------------------------------------------------
VERS. 2.0 : CWLS LOG ASCII STANDARD - VERSION 2.0
WRAP. NO  : One line per depth step
DLM . SPACE : Column Data Section Delimiter
~Well ------------------------------------------------------
STRT.F           11 : START DEPTH
STOP.F       1368.0 : STOP DEPTH
STEP.F          0.5 : STEP
NULL.       -999.25 : NULL VALUE
COMP.                 WALSH & WATTS, INC. : COMPANY
WELL.                      HOWARD AB E 4E : WELL
FLD .             MONTAGUE COUNTY REGULAR : FIELD
CNTY.                            MONTAGUE : COUNTY
STAT.                                     : STATE
CTRY.                                 USA : COUNTRY
SEC .                                     : SECTION
TWP .                                     : TOWNSHIP
RGE .                                     : RANGE
LOC . 3250'FEL & 1590'FSL OF THE J.CHAMBLIS SURVEY A-123 : LOCATION
EKB .F                          : ELEVATION KELLY BUSHING
EDF .F                          : ELEVATION DERRICK FLOOR
EGL .F                          : ELEVATION GROUND LEVEL
PDAT.                        GL : PERMANENT DATUM
EPD .                           : ELEVATION PERMANENT DATUM
APD .                         8 : ABOVE PERMANENT DATUM
LMF .                        KB : LOG MEASURED FROM
DMF .                        KB : DRILLING MEASURED FROM
API .            42337348780000 : API NUMBER
UWI .                           : UWI NUMBER
DIGC.                     NthDS : DIGITIZING COMPANY
~Params ----------------------------------------------------
SRVC. PIONEER WIRELINE SERVICES : LOGGING COMPANY
LOG .                      CNFD : LOG
DATE.                2012-08-01 : RUN DATE
RUN .                         1 : RUN NUMBER
TDD .F                     1400 : TOTAL DEPTH DRILLER
TDL .F                     1396 : TOTAL DEPTH LOGGER
BOTL.F                     1368 : BOTTOM LOGGED INTERVAL
TOPL.F                       50 : TOP LOGGED INTERVAL
CSGS.IN                         : CASING SIZE
CSGD.F                          : CASING DRILLER
CSGL.F                          : CASING LOGGER
BS  .IN                   7.875 : BIT SIZE
MUD .                  CHEM-GEL : MUD TYPE
MUDD.                           : MUD DENSITY
MUDV.                           : MUD VISCOSITY
PH  .                           : MUD PH
FL  .                           : FLUID LOSS
MUDS.                  FLOWLINE : SOURCE OF SAMPLE
RM  .OHMM                   2.4 : MUD RESISTIVITY
RMT .DEGF                    73 : RM TEMPERATURE
RMF .OHMM                   1.8 : MUD FILTRATE RESISTIVITY
RMFT.DEGF                    73 : RMF TEMPERATURE
RMC .OHMM                   3.0 : MUD CAKE RESISTIVITY
RMCT.DEGF                    73 : RMC TEMPERATURE
RMFS.                      CALC : RMF SOURCE
RMCS.                      CALC : RMC SOURCE
RMBH.OHMM                   2.0 : MUD RESISTIVITY AT BHT
BHT .DEGF                    86 : BOTTOM HOLE TEMPERATURE
TIMC.           0200 2012-08-01 : TIME CIRCULATION STOPPED
TIML.           0430 2012-08-01 : TIME LOGGER ON BOTTOM
TMAX.DEGF                    86 : MAXIMUM RECORDED TEMPERATURE
UNIT.                       110 : EQUIPMENT NUMBER
BASE.                GRAHAM, TX : BASE LOCATION
ENG .                    WENDEL : RECORDED BY
WIT .           OVERBY/BURLESON : WITNESSED BY
~Curve Information -----------------------------------------
DEPT.F          :DEPTH
CALD.IN         :
DPHI.V/V        :
GRD.GAPI        :
NPHI.%          :
PEC.B/E         :
RLML.OHMM       :
RNML.OHMM       :
ZCOR.G/C3       :
~ASCII ------------------------------------------------------
# ...
911.00000        7.93370        0.16698      101.65744       19.99016        2.51078        3.61011        2.16606        0.03343
911.50000        7.93370        0.17121      101.93368       20.59832        2.45545        3.18917        2.64765        0.03097
912.00000        7.93370        0.17682      103.03865       21.42740        2.57221        3.89892        2.38267        0.02801
912.50000        7.93370        0.18150      103.59114       22.42230        2.70003        3.50541        2.65343        0.02556
913.00000        7.95212        0.18308      103.59114       22.51841        2.85341        3.11119        2.89603        0.02310
913.50000        7.95212        0.18556      101.65744       21.76746        2.94497        3.87509        3.13646        0.03328
914.00000        7.95212        0.18759      100.55246       21.37371        2.87968        6.11913        5.23465        0.04180
914.50000        7.95212        0.18243      101.38119       21.50304        2.82545        8.44765        5.64621        0.05199
915.00000        7.95212        0.17239      102.76241       21.97006        2.77370        3.39350        2.88809        0.06325
915.50000        7.95212        0.16538      102.48616       22.75612        2.78541        3.14079        3.72346        0.06462
916.00000        7.95212        0.16428       99.44749       22.94064        2.79960        4.87364        2.67148        0.05560
916.50000        7.95212        0.16643       93.92263       22.40073        2.77944        9.74729        6.64260        0.04476
917.00000        7.93370        0.16815       88.95026       21.17346        2.69802        3.53790        2.59928        0.04018
917.50000        7.95212        0.17257       85.08285       19.94619        2.63024        4.29603        2.74368        0.03819
918.00000        7.95212        0.18326       86.74031       18.79855        2.54883        9.73718        6.71480        0.04235
918.50000        7.95212        0.19098       94.19887       18.82653        2.65540       11.48014       10.61371        0.05199
919.00000        7.93370        0.19458      102.20992       20.36471        2.78315        4.98195        3.81444        0.06852
919.50000        7.95212        0.18088      108.28727       22.13308        2.80401        2.38267        2.23827        0.08509
920.00000        7.97053        0.16581      107.45854       23.23841        2.73029        3.12563        2.23827        0.08628
920.50000        7.93370        0.15324      101.93368       23.37143        2.60793        3.59567        2.85704        0.07949
921.00000        7.93370        0.14022       98.34252       21.69223        2.58293        4.16390        6.28159        0.07137
921.50000        7.95212        0.13939       98.61876       19.48264        2.76569        2.70758        5.70397        0.06581
922.00000        8.00737        0.14437      102.20992       17.44513        2.98501        3.17689        5.19855        0.05949
922.50000        8.01975        0.14928      105.80108       17.19981        3.05789        3.20072        3.61011        0.05426
923.00000        8.02578        0.15086      107.73478       18.18734        3.05743        3.01444        2.45487        0.04794
923.50000        8.00737        0.14655      105.80108       19.82674        2.82921        2.97256        2.54007        0.04458
924.00000        8.00737        0.14192      103.86738       21.04999        2.53644        3.65848        3.05198        0.04401
924.50000        8.02578        0.13686      103.31489       20.92150        2.49943        3.94729        3.22527        0.04357
925.00000        8.00737        0.12862      106.07732       20.66403        2.50409        4.15162        2.74368        0.04310
925.50000        8.02578        0.12512      112.70716       20.99595        2.58979        4.00722        2.51263        0.04253
926.00000        8.02578        0.13310      123.48064       22.89943        2.69299        3.20072        1.97834        0.04209
926.50000        8.02578        0.15026      133.70163       25.18346        2.77869        3.10469        2.70036        0.04152
927.00000        8.02578        0.17211      135.91157       26.00628        2.88153        3.20577        2.12274        0.04321
927.50000        7.97053        0.18294      135.08284       25.24906        2.96759        2.52707        1.90108        0.05560
928.00000        7.98895        0.18028      133.14914       23.35513        3.05467        2.63032        2.34657        0.06592
928.50000        7.98895        0.17234      132.32041       22.67415        3.06088        2.79494        2.31047        0.07004
929.00000        7.98895        0.16282      133.14914       23.21926        3.06848        3.10469        2.59928        0.06462
929.50000        8.08103        0.15778      134.53036       24.68745        3.07506        2.52707        2.16606        0.05379
930.00000        8.09945        0.15696      136.74030       25.91137        3.08266        2.63538        1.87726        0.05199
930.50000        8.11786        0.15857      139.22649       25.97220        3.08594        2.76173        2.34657        0.06841
931.00000        8.11786        0.16700      142.54140       25.78839        3.07522        2.44549        2.07581        0.08480
931.50000        8.11786        0.17896      144.19886       26.36598        3.06604        2.54801        1.83754        0.08809
932.00000        8.09945        0.19317      146.40881       28.17701        3.05496        2.54801        1.56245        0.08711
932.50000        8.09945        0.20403      147.51378       30.09382        3.02344        2.44476        2.09386        0.08217
933.00000        8.09945        0.20675      148.06626       30.08357        2.94569        2.81588        1.47509        0.07823
933.50000        8.09945        0.20259      148.06626       30.07508        2.86758        2.55812        1.71841        0.08318
934.00000        7.98895        0.18897      146.40881       30.06519        2.86207        2.40650        1.49531        0.08809
934.50000        8.00737        0.17762      141.16019       29.99004        2.96307        2.50614        1.76895        0.08809
935.00000        7.98895        0.17165      132.87290       26.87511        3.04730        2.62310        2.16606        0.07675
935.50000        7.98895        0.16768      127.62428       23.13705        2.98677        2.83538        2.35884        0.06256
936.00000        8.04420        0.16846      125.69058       22.02323        2.93657        3.18989        2.55090        0.05199
936.50000        8.13260        0.16975      128.72925       22.01371        2.95003        3.32130        2.49097        0.07004
937.00000        8.31252        0.16978      132.87290       23.39896        2.96100        2.83393        2.17906        0.09921
937.50000        8.38490        0.16917      134.80660       27.69035        2.96457        2.59278        1.83899        0.12480
938.00000        8.10681        0.17046      131.49168       30.11987        2.90484        2.46137        1.49892        0.13141
938.50000        7.89687        0.17323      126.24307       30.02004        2.72343        2.27437        2.02166        0.09621
939.00000        7.87845        0.17655      117.95577       29.91984        2.57213        2.96029        2.59928        0.06689
939.50000        7.87845        0.17409      113.25964       25.30149        2.43284        3.10469        2.50325        0.03671
940.00000        7.91529        0.16785      110.77346       21.84955        2.49363        3.38556        2.74368        0.03256
940.50000        7.87845        0.16352      111.04970       18.65027        2.56204        3.17689        2.78845        0.02754
941.00000        7.89687        0.16087      113.81213       17.66249        2.61550        2.77978        2.48231        0.03458
941.50000        7.89687        0.15640      117.67953       17.87757        2.67987        2.86426        2.23827        0.04639
