~Version ---------------------------------------------------
VERS. 2.0 : CWLS LOG ASCII STANDARD - VERSION 2.0
WRAP. NO  : One line per depth step
DLM . SPACE : Column Data Section Delimiter
~Well ------------------------------------------------------
STRT.F         48.5 : START DEPTH
STOP.F       1449.0 : STOP DEPTH
STEP.F          0.5 : STEP
NULL.       -999.25 : NULL VALUE
COMP.                 WALSH & WATTS, INC. : COMPANY
WELL.                         HOWARD F 14 : WELL
FLD .             MONTAGUE COUNTY REGULAR : FIELD
CNTY.                            MONTAGUE : COUNTY
STAT.                               TEXAS : STATE
CTRY.                                 USA : COUNTRY
SEC .                                     : SECTION
TWP .                                     : TOWNSHIP
RGE .                                     : RANGE
LOC . 1430'FEL & 2600'FSL OF THE J.CHAMBLIS SURVEY A-123 : LOCATION
EKB .F                      849 : ELEVATION KELLY BUSHING
EDF .F                      848 : ELEVATION DERRICK FLOOR
EGL .F                      841 : ELEVATION GROUND LEVEL
PDAT.                        GL : PERMANENT DATUM
EPD .                       841 : ELEVATION PERMANENT DATUM
APD .                         8 : ABOVE PERMANENT DATUM
LMF .                        KB : LOG MEASURED FROM
DMF .                        KB : DRILLING MEASURED FROM
API .            42337351020000 : API NUMBER
UWI .                           : UWI NUMBER
DIGC.                     NthDS : DIGITIZING COMPANY
~Params ----------------------------------------------------
SRVC. PIONEER WIRELINE SERVICES : LOGGING COMPANY
LOG .                      DIFL : LOG
DATE.                2013-08-01 : RUN DATE
RUN .                         1 : RUN NUMBER
TDD .F                     1450 : TOTAL DEPTH DRILLER
TDL .F                     1449 : TOTAL DEPTH LOGGER
BOTL.F                     1449 : BOTTOM LOGGED INTERVAL
TOPL.F                       50 : TOP LOGGED INTERVAL
CSGS.IN                         : CASING SIZE
CSGD.F                          : CASING DRILLER
CSGL.F                          : CASING LOGGER
BS  .IN                   7.875 : BIT SIZE
MUD .                       GEL : MUD TYPE
MUDD.                       9.2 : MUD DENSITY
MUDV.                        75 : MUD VISCOSITY
PH  .                           : MUD PH
FL  .                           : FLUID LOSS
MUDS.                  FLOWLINE : SOURCE OF SAMPLE
RM  .OHMM                   2.8 : MUD RESISTIVITY
RMT .DEGF                    72 : RM TEMPERATURE
RMF .OHMM                   2.1 : MUD FILTRATE RESISTIVITY
RMFT.DEGF                    72 : RMF TEMPERATURE
RMC .OHMM                   3.5 : MUD CAKE RESISTIVITY
RMCT.DEGF                    72 : RMC TEMPERATURE
RMFS.                      CALC : RMF SOURCE
RMCS.                      CALC : RMC SOURCE
RMBH.OHMM                   2.3 : MUD RESISTIVITY AT BHT
BHT .DEGF                    87 : BOTTOM HOLE TEMPERATURE
TIMC.           0130 2018-08-01 : TIME CIRCULATION STOPPED
TIML.           0400 2018-08-01 : TIME LOGGER ON BOTTOM
TMAX.DEGF                    87 : MAXIMUM RECORDED TEMPERATURE
UNIT.                     C-052 : EQUIPMENT NUMBER
BASE.                GRAHAM, TX : BASE LOCATION
ENG .                    WENDEL : RECORDED BY
WIT .                  BURLESON : WITNESSED BY
~Curve Information -----------------------------------------
DEPT.F          :DEPTH
CILD.MMHO       :
GRR.GAPI        :
RILD.OHMM       :
RILM.OHMM       :
RSFL.OHMM       :
SP.MV           :
~ASCII ------------------------------------------------------
# ...
1409.50000      397.90310       72.61925        2.49362        2.47104        5.78316      116.08773
1410.00000      411.65670       70.71191        2.44997        2.40899        5.49732      116.24129
1410.50000      417.16103       69.12384        2.39852        2.34850        5.49635      115.87932
1411.00000      424.49852       71.04494        2.34815        2.29925        5.63611      115.40765
1411.50000      436.42135       74.22108        2.31620        2.24151        5.22392      115.01643
1412.00000      443.75885       77.88989        2.27846        2.19093        4.92409      114.54842
1412.50000      449.26317        -999.25        2.24154        2.16998        4.60256      114.07676
1413.00000      453.85090        -999.25        2.20502        2.15256        4.68002      114.47529
1413.50000      458.44104        -999.25        2.17501        2.13180        4.75865      114.80802
1414.00000      461.19560        -999.25        2.16513        2.11143        4.26457      115.81350
1414.50000      463.95016        -999.25        2.15529        2.09107        3.91955      116.81899
1415.00000      468.53789        -999.25        2.14701        2.08426        3.91897      117.65628
1415.50000      470.37827        -999.25        2.13725        2.08389        3.91828      118.66176
1416.00000      467.63330        -999.25        2.11896        2.08264        4.01780      118.82995
1416.50000      464.88834        -999.25        2.13656        2.07702        4.22534      118.82995
1417.00000      461.22679        -999.25        2.15788        2.07235        4.71321      119.70747
1417.50000      460.31740        -999.25        2.16477        2.06676        4.48025      121.02374
1418.00000      461.23879        -999.25        2.14264        2.06466        3.72210      120.84824
1418.50000      458.49383        -999.25        2.14756        2.09729        3.65931      120.63983
1419.00000      451.16593        -999.25        2.17245        2.14748        3.68970      120.43142
1419.50000      434.67456        -999.25        2.21361        2.19868        3.72024      120.07310
1420.00000      434.98184        -999.25        2.27640        2.18961        3.97873      119.52465
1420.50000      446.59979        -999.25        2.27600        2.17222        4.32756      118.86652
1421.00000      461.26999        -999.25        2.19728        2.15127        3.81349      118.20838
1421.50000      492.44114        -999.25        2.11778        2.04494        3.59461      117.02740
1422.00000      510.77768        -999.25        2.02620        1.94387        4.28902      115.41862
1422.50000      525.44788        -999.25        1.93857        1.86347        4.90675      113.71113
1423.00000      551.11951        -999.25        1.85474        1.77136        4.50978      113.71113
1423.50000      566.70629        -999.25        1.78763        1.70765        4.11016      112.97986
1424.00000      582.29307        -999.25        1.71884        1.65777        3.90701      112.24860
1424.50000      589.63296        -999.25        1.68544        1.64128        3.87369      111.15171
1425.00000      585.97142        -999.25        1.67332        1.64099        4.03952      109.32356
1425.50000      576.81034        -999.25        1.68603        1.64071        4.54403      107.49541
1426.00000      571.31562        -999.25        1.70142        1.64046        4.65957      106.76414
1426.50000      572.23941        -999.25        1.72526        1.64018        4.14077      106.76414
1427.00000      574.99397        -999.25        1.73485        1.63989        4.03679      108.22667
1427.50000      578.66512        -999.25        1.72537        1.63960        3.86971      108.59230
1428.00000      583.25285        -999.25        1.71594        1.63013        3.83670      108.59230
1428.50000      593.34251        -999.25        1.70102        1.61170        3.70900      108.59230
1429.00000      605.26294        -999.25        1.64995        1.59347        3.83535      108.59230
1429.50000      627.26583        -999.25        1.60041        1.57201        4.03335      108.22667
1430.00000      678.60190        -999.25        1.53978        1.55153        3.99895      107.49541
1430.50000      710.22895        -999.25        1.44896        1.51793        3.61405      107.12977
1431.00000      764.77068        -999.25        1.33814        1.43999        3.23881      106.76414
1431.50000      833.52191        -999.25        1.23579        1.36605        3.21109      106.76414
1432.00000      870.19019        -999.25        1.15649        1.30735        3.21062      107.49541
1432.50000      895.85942        -999.25        1.09462        1.24022        3.07773      107.86104
1433.00000      913.28178        -999.25        1.08079        1.20076        3.05139      108.95793
1433.50000      910.53681        -999.25        1.07745        1.17835        3.05085      111.51734
1434.00000      891.29328        -999.25        1.07699        1.17814        -999.25      113.71113
1434.50000      842.71897        -999.25        1.12840        1.26948        -999.25      115.17365
1435.00000      808.81005        -999.25        1.18779        1.40253        -999.25      115.53928
1435.50000      644.92909        -999.25        1.39511        1.54970        -999.25      115.17365
1436.00000      537.50988        -999.25        1.63847        1.74692        -999.25      115.53928
1436.50000      509.10049        -999.25        1.84161        1.96726        -999.25      116.27054
1437.00000      466.02569        -999.25        1.95191        2.13973        -999.25      117.36743
1437.50000      472.44900        -999.25        2.06863        2.08600        -999.25      118.82995
1438.00000      484.36943        -999.25        2.11232        2.03362        -999.25      120.65811
1438.50000      494.45669        -999.25        2.03344        1.95240        -999.25      124.68005
1439.00000      530.21078        -999.25        1.93293        1.87527        -999.25      127.97072
1439.50000      542.13121        -999.25        1.85298        1.78664        -999.25      130.16450
1440.00000      567.80045        -999.25        1.76140        1.70220        -999.25      133.45518
1440.50000      577.89011        -999.25        1.68849        1.71225        -999.25      135.64896
1441.00000      580.64467        -999.25        1.68819        1.73609        -999.25      136.74586
1441.50000      587.98216        -999.25        1.68795        1.83604        -999.25      136.38023
1442.00000      609.06846        -999.25        -999.25        1.97805        -999.25      136.74586
1442.50000      644.82256        -999.25        -999.25        2.10472        -999.25      137.11149
1443.00000      659.49275        -999.25        -999.25        2.26751        -999.25      137.11149
1443.50000      659.49755        -999.25        -999.25        2.44289        -999.25      137.47712
1444.00000      656.75499        -999.25        -999.25        -999.25        -999.25      137.84275
1444.50000      653.09344        -999.25        -999.25        -999.25        -999.25      138.20838
1445.00000      649.43189        -999.25        -999.25        -999.25        -999.25      138.57401
1445.50000      642.10399        -999.25        -999.25        -999.25        -999.25      138.93964
1446.00000      629.27657        -999.25        -999.25        -999.25        -999.25      138.93964
1446.50000      613.70179        -999.25        -999.25        -999.25        -999.25      138.93964
1447.00000      607.29048        -999.25        -999.25        -999.25        -999.25      139.30527
1447.50000      610.04504        -999.25        -999.25        -999.25        -999.25      140.03653
1448.00000      553.22144        -999.25        -999.25        -999.25        -999.25      141.49905
1448.50000      382.74105        -999.25        -999.25        -999.25        -999.25      142.59595
1449.00000        -999.25        -999.25        -999.25        -999.25        -999.25      142.59595
