~Version ---------------------------------------------------
VERS. 2.0 : CWLS LOG ASCII STANDARD - VERSION 2.0
WRAP. NO  : One line per depth step
DLM . SPACE : Column Data Section Delimiter
~Well ------------------------------------------------------
STRT.F         48.5 : START DEPTH
STOP.F       1449.0 : STOP DEPTH
STEP.F          0.5 : STEP
NULL.       -999.25 : NULL VALUE
COMP.                 WALSH & WATTS, INC. : COMPANY
WELL.                         HOWARD F 14 : WELL
FLD .             MONTAGUE COUNTY REGULAR : FIELD
CNTY.                            MONTAGUE : COUNTY
STAT.                               TEXAS : STATE
CTRY.                                 USA : COUNTRY
SEC .                                     : SECTION
TWP .                                     : TOWNSHIP
RGE .                                     : RANGE
LOC . 1430'FEL & 2600'FSL OF THE J.CHAMBLIS SURVEY A-123 : LOCATION
EKB .F                      849 : ELEVATION KELLY BUSHING
EDF .F                      848 : ELEVATION DERRICK FLOOR
EGL .F                      841 : ELEVATION GROUND LEVEL
PDAT.                        GL : PERMANENT DATUM
EPD .                       841 : ELEVATION PERMANENT DATUM
APD .                         8 : ABOVE PERMANENT DATUM
LMF .                        KB : LOG MEASURED FROM
DMF .                        KB : DRILLING MEASURED FROM
API .            42337351020000 : API NUMBER
UWI .                           : UWI NUMBER
DIGC.                     NthDS : DIGITIZING COMPANY
~Params ----------------------------------------------------
SRVC. PIONEER WIRELINE SERVICES : LOGGING COMPANY
LOG .                      DIFL : LOG
DATE.                2013-08-01 : RUN DATE
RUN .                         1 : RUN NUMBER
TDD .F                     1450 : TOTAL DEPTH DRILLER
TDL .F                     1449 : TOTAL DEPTH LOGGER
BOTL.F                     1449 : BOTTOM LOGGED INTERVAL
TOPL.F                       50 : TOP LOGGED INTERVAL
CSGS.IN                         : CASING SIZE
CSGD.F                          : CASING DRILLER
CSGL.F                          : CASING LOGGER
BS  .IN                   7.875 : BIT SIZE
MUD .                       GEL : MUD TYPE
MUDD.                       9.2 : MUD DENSITY
MUDV.                        75 : MUD VISCOSITY
PH  .                           : MUD PH
FL  .                           : FLUID LOSS
MUDS.                  FLOWLINE : SOURCE OF SAMPLE
RM  .OHMM                   2.8 : MUD RESISTIVITY
RMT .DEGF                    72 : RM TEMPERATURE
RMF .OHMM                   2.1 : MUD FILTRATE RESISTIVITY
RMFT.DEGF                    72 : RMF TEMPERATURE
RMC .OHMM                   3.5 : MUD CAKE RESISTIVITY
RMCT.DEGF                    72 : RMC TEMPERATURE
RMFS.                      CALC : RMF SOURCE
RMCS.                      CALC : RMC SOURCE
RMBH.OHMM                   2.3 : MUD RESISTIVITY AT BHT
BHT .DEGF                    87 : BOTTOM HOLE TEMPERATURE
TIMC.           0130 2018-08-01 : TIME CIRCULATION STOPPED
TIML.           0400 2018-08-01 : TIME LOGGER ON BOTTOM
TMAX.DEGF                    87 : MAXIMUM RECORDED TEMPERATURE
UNIT.                     C-052 : EQUIPMENT NUMBER
BASE.                GRAHAM, TX : BASE LOCATION
ENG .                    WENDEL : RECORDED BY
WIT .                  BURLESON : WITNESSED BY
~Curve Information -----------------------------------------
DEPT.F          :DEPTH
CILD.MMHO       :
GRR.GAPI        :
RILD.OHMM       :
RILM.OHMM       :
RSFL.OHMM       :
SP.MV           :
~ASCII ------------------------------------------------------
# ...
769.50000      248.83067      121.67754        3.88262        3.90495        4.80820      146.97308
770.00000      246.08319      123.86957        3.95067        3.96035        5.18739      145.86651
770.50000      235.99628      127.71091        4.03384        4.02772        5.59650      143.29475
771.00000      227.74424      128.52932        4.18565        4.20298        5.23133      142.55576
771.50000      213.98762      125.86699        4.34536        4.35490        4.97318      141.81550
772.00000      202.98329      122.32925        4.63733        4.54479        4.72777      141.20837
772.50000      188.31165      114.31806        4.94933        4.80009        4.97318      140.49741
773.00000      183.72931      106.30686        5.22516        5.04926        5.50288      139.78645
773.50000      180.98183       94.47796        5.48527        5.36539        7.90860      139.19398
774.00000      180.98663       78.73879        5.57107        5.53080       10.71439      138.48301
774.50000      182.82629       76.33745        5.64390        5.61020       10.80514      137.12370
775.00000      186.50321       78.57714        5.52288        5.41083        9.05123      135.98911
775.50000      192.93001       89.81033        5.38806        5.21855        7.20786      135.79096
776.00000      202.10909       99.17086        5.27564        4.97570        5.73991      136.11057
776.50000      212.20561      111.93975        4.98074        4.67424        4.87229      136.49484
777.00000      225.05680      117.56679        4.70232        4.39105        4.76781      136.87545
777.50000      232.40103      118.88246        4.48235        4.26224        4.70113      137.19506
778.00000      236.99297      118.77505        4.25577        4.14105        4.64869      137.57932
778.50000      243.41977      118.68510        4.15645        4.02297        4.80820      137.96359
779.00000      248.93154      121.69581        4.07556        3.92708        5.05778      138.27954
779.50000      249.85378      125.50692        4.00232        3.88459        5.45666      138.52461
780.00000      249.85858      123.46821        3.96035        3.84969        5.54949      138.67207
780.50000      248.94596      115.81141        3.96035        3.82283        5.01530      138.84754
781.00000      248.03333      112.09689        3.96035        3.81092        4.09624      139.02302
781.50000      248.95796      109.41354        3.96035        3.80097        3.67085      139.04227
782.00000      251.71505      106.73747        3.97205        3.83122        4.20121      138.83313
782.50000      251.71986      105.20521        3.98413        3.88328        5.36539      138.36154
783.00000      251.72466      108.43570        3.99389        3.92708        5.41083      137.25498
783.50000      248.97718      115.98485        4.04747        3.98044        4.80820      136.14841
784.00000      245.31467      122.00749        4.10177        4.03452        5.29035      135.32151
784.50000      241.64977      124.38358        4.14734        4.06458        5.17298      134.77904
785.00000      238.90228      125.29087        4.16592        4.07247        4.64869      134.24024
785.50000      239.82452      124.54886        4.16592        4.08038        4.74375      133.79062
786.00000      239.82932      121.86455        4.16592        4.08692        4.87229      133.24816
786.50000      239.83653      119.36252        4.16592        4.09486        5.27564      132.79854
787.00000      238.00647      116.35953        4.19696        4.09624        5.36539      132.25241
787.50000      233.42414      109.16152        4.35564        4.19660        5.10794      131.69530
788.00000      225.17209      103.16225        4.55399        4.40477        4.88999      131.23103
788.50000      217.83747       94.36535        4.76138        4.62327        4.76781      130.67391
789.00000      206.83554       93.15081        4.94140        4.81347        5.05778      129.75049
789.50000      197.66606       92.13778        5.07188        4.99083        5.41083      128.39979
790.00000      195.83601       91.40675        5.14383        5.09160        7.26891      128.48369
790.50000      195.84082       91.63452        5.14383        5.21503       12.47101      128.55422
791.00000      195.84562       91.82752        5.12780        5.32033        9.68303      128.63812
791.50000      194.93540       96.62119        5.04713        5.19177        6.29794      128.78063
792.00000      197.69248      101.65482        4.94349        4.94349        5.14383      129.14054
792.50000      204.11928      108.05837        4.76781        4.70708        4.95225      129.57242
793.00000      209.62865      113.27332        4.57093        4.51917        5.05778      130.00431
793.50000      226.14956      117.66314        4.34536        4.30306        4.97318      130.36421
794.00000      236.24607      119.85518        4.18106        4.09624        4.27268      131.06716
794.50000      244.50773      120.94928        4.05704        3.92708        4.41929      131.76406
795.00000      247.26482      121.21825        3.95000        3.86139        4.68806      132.25455
795.50000      250.02190      121.21345        3.91947        3.86139        4.49447      132.04542
796.00000      250.02911      120.93298        3.89410        3.86139        4.34536      131.78994
796.50000      248.19906      121.75139        3.96035        3.86139        4.23679      131.32440
797.00000      248.20386      122.57077        4.02772        3.91551        4.49447      130.86252
797.50000      247.29124      122.83974        4.08485        3.98447        4.84892      130.47884
798.00000      241.79387      122.56022        4.15434        4.06869        4.84892      130.01695
798.50000      239.04639      120.08195        4.22502        4.15434        4.57093      129.68456
799.00000      233.54663      116.42238        4.28459        4.22751        5.05778      129.54868
799.50000      230.79915      109.13741        4.36078        4.31687        5.50288      129.41280
800.00000      226.89639      102.15141        4.43796        4.39253        5.32033      130.27052
800.50000      222.32903       95.41493        4.55856        4.51105        5.48987      130.13514
801.00000      220.50400       90.75811        4.54203        4.54472        5.44368      130.01929
801.50000      221.42370       90.34123        4.52823        4.52135        5.39787      129.88391
802.00000      222.34340       91.07723        4.51219        4.49355        5.53645      129.74853
802.50000      223.26549       95.77021        4.49849        4.47082        5.44368      129.63267
803.00000      224.18519      103.84132        4.48217        4.44333        5.30741      129.61772
803.50000      226.01980      105.40245        4.42722        4.41601        5.13103      130.10405
804.00000      227.85441      102.15496        4.38181        4.37663        5.04504      130.68400
804.50000      231.52124       96.65474        4.32809        4.31676        4.96050      131.26759
805.00000      233.35585       92.25437        4.28406        4.26708        4.96050      131.75027
805.50000      234.27555       89.22665        4.23153        4.20871        4.96050      132.03824
806.00000      238.85489       89.49562        4.17965        4.15079        5.00259      132.46983
806.50000      241.60681       94.16113        4.14693        4.10336        5.08785      132.68116
807.00000      242.52651      102.94653        4.12596        4.08434        5.21847      131.93629
807.50000      241.61639      107.33731        4.11900        4.08434        4.91876      130.91533
808.00000      238.87645      108.70517        4.11900        4.15395        4.11900      129.44784
808.50000      235.22399      109.24983        4.22867        4.29675        4.29675      128.71155
809.00000      230.65423      109.79352        4.32224        4.41937        4.91876      127.60902
