~Version ---------------------------------------------------
VERS. 2.0 : CWLS LOG ASCII STANDARD - VERSION 2.0
WRAP. NO  : One line per depth step
DLM . SPACE : Column Data Section Delimiter
~Well ------------------------------------------------------
STRT.F         48.5 : START DEPTH
STOP.F       1449.0 : STOP DEPTH
STEP.F          0.5 : STEP
NULL.       -999.25 : NULL VALUE
COMP.                 WALSH & WATTS, INC. : COMPANY
WELL.                         HOWARD F 14 : WELL
FLD .             MONTAGUE COUNTY REGULAR : FIELD
CNTY.                            MONTAGUE : COUNTY
STAT.                               TEXAS : STATE
CTRY.                                 USA : COUNTRY
SEC .                                     : SECTION
TWP .                                     : TOWNSHIP
RGE .                                     : RANGE
LOC . 1430'FEL & 2600'FSL OF THE J.CHAMBLIS SURVEY A-123 : LOCATION
EKB .F                      849 : ELEVATION KELLY BUSHING
EDF .F                      848 : ELEVATION DERRICK FLOOR
EGL .F                      841 : ELEVATION GROUND LEVEL
PDAT.                        GL : PERMANENT DATUM
EPD .                       841 : ELEVATION PERMANENT DATUM
APD .                         8 : ABOVE PERMANENT DATUM
LMF .                        KB : LOG MEASURED FROM
DMF .                        KB : DRILLING MEASURED FROM
API .            42337351020000 : API NUMBER
UWI .                           : UWI NUMBER
DIGC.                     NthDS : DIGITIZING COMPANY
~Params ----------------------------------------------------
SRVC. PIONEER WIRELINE SERVICES : LOGGING COMPANY
LOG .                      DIFL : LOG
DATE.                2013-08-01 : RUN DATE
RUN .                         1 : RUN NUMBER
TDD .F                     1450 : TOTAL DEPTH DRILLER
TDL .F                     1449 : TOTAL DEPTH LOGGER
BOTL.F                     1449 : BOTTOM LOGGED INTERVAL
TOPL.F                       50 : TOP LOGGED INTERVAL
CSGS.IN                         : CASING SIZE
CSGD.F                          : CASING DRILLER
CSGL.F                          : CASING LOGGER
BS  .IN                   7.875 : BIT SIZE
MUD .                       GEL : MUD TYPE
MUDD.                       9.2 : MUD DENSITY
MUDV.                        75 : MUD VISCOSITY
PH  .                           : MUD PH
FL  .                           : FLUID LOSS
MUDS.                  FLOWLINE : SOURCE OF SAMPLE
RM  .OHMM                   2.8 : MUD RESISTIVITY
RMT .DEGF                    72 : RM TEMPERATURE
RMF .OHMM                   2.1 : MUD FILTRATE RESISTIVITY
RMFT.DEGF                    72 : RMF TEMPERATURE
RMC .OHMM                   3.5 : MUD CAKE RESISTIVITY
RMCT.DEGF                    72 : RMC TEMPERATURE
RMFS.                      CALC : RMF SOURCE
RMCS.                      CALC : RMC SOURCE
RMBH.OHMM                   2.3 : MUD RESISTIVITY AT BHT
BHT .DEGF                    87 : BOTTOM HOLE TEMPERATURE
TIMC.           0130 2018-08-01 : TIME CIRCULATION STOPPED
TIML.           0400 2018-08-01 : TIME LOGGER ON BOTTOM
TMAX.DEGF                    87 : MAXIMUM RECORDED TEMPERATURE
UNIT.                     C-052 : EQUIPMENT NUMBER
BASE.                GRAHAM, TX : BASE LOCATION
ENG .                    WENDEL : RECORDED BY
WIT .                  BURLESON : WITNESSED BY
~Curve Information -----------------------------------------
DEPT.F          :DEPTH
CILD.MMHO       :
GRR.GAPI        :
RILD.OHMM       :
RILM.OHMM       :
RSFL.OHMM       :
SP.MV           :
~ASCII ------------------------------------------------------
# ...
849.50000      479.39909      115.40302        2.22281        2.90557        2.91295      111.33731
850.00000      512.81984      110.78008        2.00321        2.78914        3.06444      110.25699
850.50000      654.58477       93.95791        1.76113        2.55766        4.88999      107.31894
851.00000      749.09473       70.99816        1.50644        2.31751        9.36180      104.74718
851.50000      843.19499       52.82737        1.30521        2.13492       11.08204      102.54300
852.00000      905.92850       42.91341        1.17273        1.93023       10.71439       99.23864
852.50000      968.66201       34.65178        1.06756        1.72599       10.10012       97.03318
853.00000     1000.03356       33.54510        0.99530        1.57226        9.28317       95.19530
853.50000     1000.03836       34.08980        0.92871        1.40590        8.31912       92.62354
854.00000     1000.04315       35.18590        0.86658        1.31794        7.97558       90.78438
854.50000     1000.04795       39.30855        0.81800        1.25862        8.04314       89.31279
855.00000     1000.05514       43.15694        0.81284        1.22966        8.17996       88.20623
855.50000     1000.05994       44.52731        0.82145        1.22046        7.90860       87.83226
856.00000     1000.06473       44.24632        0.85959        1.24773        7.20786       87.82586
856.50000     1000.06953       44.24151        0.91781        1.27572        5.59650       88.55079
857.00000      932.30899       43.68529        0.96928        1.31029        4.41929       88.90942
857.50000      864.54846       42.85385        1.04820        1.37749        4.13093       90.00192
858.00000      796.78793       42.02336        1.14816        1.46843        4.53254       90.72684
858.50000      729.02739       41.74237        1.23871        1.54870        4.68806       91.81806
859.00000      690.83635       42.01183        1.35685        1.65234        4.97318       92.54427
859.50000      652.63615       42.00703        1.46386        1.75017        5.54949       93.26919
860.00000      595.34501       42.27649        1.59067        1.86950        5.36539       93.99411
860.50000      587.41028       46.67437        1.66016        1.96654        4.72777       94.35402
861.00000      583.44988       47.77048        1.72046        2.05125        4.60964       94.34635
861.50000      595.35940       52.44358        1.70774        2.08615        5.18739       94.70497
862.00000      607.26891       52.98923        1.67070        2.09939        5.54949       95.06488
862.50000      625.13319       52.70824        1.64040        2.07737        5.32033       95.05721
863.00000      637.04270       50.50065        1.60482        2.03986        4.60964       95.05081
863.50000      645.63721       48.84449        1.57001        1.99764        4.49447       95.04314
864.00000      650.90755       48.56349        1.54700        1.96306        5.41083       95.03547
864.50000      658.80849       47.73205        1.52923        1.92243        7.45518       95.02908
865.00000      664.07883       46.90156        1.51473        1.88916        8.97521       94.28881
865.50000      661.79426       44.96920        1.49732        1.88010        8.75096       94.28114
866.00000      659.50969       41.38548        1.50861        1.90131        7.64623       93.90845
866.50000      643.29659       41.10545        1.54231        1.94921        6.14058       93.16818
867.00000      618.96321       42.47582        1.58371        2.00845        4.64869       92.42791
867.50000      602.75011       43.02051        1.62635        2.06950        4.23679       92.05522
868.00000      601.53696       43.56616        1.64358        2.12164        4.34536       92.04755
868.50000      605.77251       39.70721        1.65876        2.17106        4.64869       91.67358
869.00000      615.45676       38.05008        1.63625        2.21302        5.14383       92.03348
869.50000      629.97855       34.46732        1.59941        2.18520        7.02777       92.39211
870.00000      634.82765       33.36064        1.58437        2.15264       10.10012       93.11703
870.50000      634.83245       33.90534        1.56908        2.12378       11.17590       94.20953
871.00000      626.41236       35.00144        1.57984        2.08967        9.60171       95.66706
871.50000      617.99228       34.17000        1.59658        2.05610        7.45518       97.12458
872.00000      605.41710       33.06332        1.61065        2.03059        5.88700       97.85078
872.50000      597.04280       38.83830        1.62772        2.01015        4.93141       98.94200
873.00000      588.67766       41.86004        1.65262        2.00845        5.01530      100.03450
873.50000      576.43891       43.50660        1.69168        2.03402        5.23133      100.02683
874.00000      560.32655       48.45493        1.74752        2.10133        5.88700      100.38546
874.50000      544.21418       53.67849        1.81206        2.15900        5.59650      101.47796
875.00000      538.04008       61.65529        1.83978        2.20241        4.23679      101.47029
875.50000      550.86534       62.47521        1.83823        2.20241        3.70194      102.19521
876.00000      580.63193       61.64376        1.77051        2.17601        3.82896      102.92141
876.50000      625.28183       56.40963        1.62224        2.10595        5.18739      103.28004
877.00000      655.04842       45.94522        1.53790        2.03814        6.29794      103.63867
877.50000      666.04219       37.95785        1.51307        1.98320        5.93687      103.99857
878.00000      688.83994       37.95305        1.47987        1.91935        5.32033      103.99090
878.50000      723.03199       38.77297        1.43585        1.86761        4.97318      102.88433
879.00000      745.82975       39.31766        1.38495        1.80748        4.68806      101.77905
879.50000      768.62750       38.48717        1.30665        1.69769        4.49447       99.93988
880.00000      838.13994       38.75663        1.23329        1.61133        5.36539       99.19962
880.50000      884.48157       38.47564        1.15078        1.51345        6.29794       98.82692
881.00000      930.82320       38.19561        1.07806        1.42271        6.68097       98.81925
881.50000     1000.33564       37.91462        1.02780        1.35331        6.40508       98.81158
882.00000     1000.34043       37.63363        0.97051        1.27432        6.24504       99.17149
882.50000     1000.34523       37.07837        0.95904        1.22831        6.29794       98.79752
883.00000     1000.35002       37.34783        0.97379        1.20370        5.69170       99.15742
883.50000      960.36652       39.26866        0.99036        1.20573        4.13093       99.14975
884.00000      920.38977       39.81431        1.05059        1.22810        3.18050       99.50838
884.50000      880.40386       40.90946        1.14710        1.30378        3.51926       99.86828
885.00000      779.06286       42.00557        1.27518        1.39550        4.45672       99.86061
885.50000      701.61372       43.65117        1.38740        1.49720        3.92708       99.85294
886.00000      648.04727       44.19586        1.50708        1.62895        2.85020      100.30075
886.50000      607.98811       42.53969        1.60617        1.74752        2.49039      100.74729
887.00000      594.87024       41.15779        1.68955        1.83823        3.26200      101.19383
887.50000      595.17723       40.32634        1.67889        1.93365        4.60964      101.56839
888.00000      595.48422       40.32153        1.62470        1.98739        5.01530      102.01492
888.50000      630.83927       40.31577        1.52781        2.00000        4.84892      102.00725
889.00000      666.03625       40.58523        1.44131        1.91208        4.84892      102.00086
