~Version ---------------------------------------------------
VERS. 2.0 : CWLS LOG ASCII STANDARD - VERSION 2.0
WRAP. NO  : One line per depth step
DLM . SPACE : Column Data Section Delimiter
~Well ------------------------------------------------------
STRT.F           40 : START DEPTH
STOP.F       1271.0 : STOP DEPTH
STEP.F          0.5 : STEP
NULL.       -999.25 : NULL VALUE
COMP.                 WALSH & WATTS, INC. : COMPANY
WELL.                         HOWARD G 17 : WELL
FLD .             MONTAGUE COUNTY REGULAR : FIELD
CNTY.                            MONTAGUE : COUNTY
STAT.                               TEXAS : STATE
CTRY.                                 USA : COUNTRY
SEC .                                     : SECTION
TWP .                                     : TOWNSHIP
RGE .                                     : RANGE
LOC . 520'FNL & 4250'FEL OF THE J.CHAMBLIS SURVEY, A-123 : LOCATION
EKB .F                      519 : ELEVATION KELLY BUSHING
EDF .F                      518 : ELEVATION DERRICK FLOOR
EGL .F                      512 : ELEVATION GROUND LEVEL
PDAT.                        GL : PERMANENT DATUM
EPD .                       512 : ELEVATION PERMANENT DATUM
APD .                         7 : ABOVE PERMANENT DATUM
LMF .                        KB : LOG MEASURED FROM
DMF .                        KB : DRILLING MEASURED FROM
API .            42337343900000 : API NUMBER
UWI .                           : UWI NUMBER
DIGC.                     NthDS : DIGITIZING COMPANY
~Params ----------------------------------------------------
SRVC. PIONEER WIRELINE SERVICES : LOGGING COMPANY
LOG .                      CNFD : LOG
DATE.                2010-10-13 : RUN DATE
RUN .                         1 : RUN NUMBER
TDD .F                     1298 : TOTAL DEPTH DRILLER
TDL .F                     1280 : TOTAL DEPTH LOGGER
BOTL.F                     1280 : BOTTOM LOGGED INTERVAL
TOPL.F                       50 : TOP LOGGED INTERVAL
CSGS.IN                         : CASING SIZE
CSGD.F                          : CASING DRILLER
CSGL.F                          : CASING LOGGER
BS  .IN                   7.875 : BIT SIZE
MUD .                  GEL-CHEM : MUD TYPE
MUDD.                           : MUD DENSITY
MUDV.                           : MUD VISCOSITY
PH  .                           : MUD PH
FL  .                           : FLUID LOSS
MUDS.                  FLOWLINE : SOURCE OF SAMPLE
RM  .OHMM                   3.6 : MUD RESISTIVITY
RMT .DEGF                    72 : RM TEMPERATURE
RMF .OHMM                   2.7 : MUD FILTRATE RESISTIVITY
RMFT.DEGF                    72 : RMF TEMPERATURE
RMC .OHMM                   4.5 : MUD CAKE RESISTIVITY
RMCT.DEGF                    72 : RMC TEMPERATURE
RMFS.                      CALC : RMF SOURCE
RMCS.                      CALC : RMC SOURCE
RMBH.OHMM                   3.0 : MUD RESISTIVITY AT BHT
BHT .DEGF                    85 : BOTTOM HOLE TEMPERATURE
TIMC.           0245 2010-10-13 : TIME CIRCULATION STOPPED
TIML.           0540 2010-10-13 : TIME LOGGER ON BOTTOM
TMAX.DEGF                    85 : MAXIMUM RECORDED TEMPERATURE
UNIT.                      M-19 : EQUIPMENT NUMBER
BASE.             GRAHAM, TEXAS : BASE LOCATION
ENG .                    WENDEL : RECORDED BY
WIT .           WOMBLE/BURLESON : WITNESSED BY
~Curve Information -----------------------------------------
DEPT.F          :DEPTH
CALI.IN         :
DPHI.PU         :
GRD.GAPI        :
MINV.OHMM       :
MNOR.OHMM       :
NPHI.PU         :
RHOC.G/CC       :
~ASCII ------------------------------------------------------
40.00000        -999.25        -999.25       48.11320        4.82535        5.22385        -999.25        -999.25
40.50000       13.46415        -999.25       46.98112        4.54940        4.77328       29.43556       -0.01940
41.00000       13.01264        -999.25       46.41508        5.89033        5.71571       27.46002       -0.03134
41.50000       12.50189        -999.25       47.97169        5.06710        5.44023       23.37197       -0.03134
42.00000       12.12830        -999.25       49.81131        6.00905        5.08966       20.38570        0.00149
42.50000       11.01887        -999.25       51.50942        5.50970        5.36045       21.84685        0.02463
43.00000       10.16981        -999.25       52.92452        7.24867        8.04418       25.12926        0.00784
43.50000        9.30566        -999.25       54.33961        7.61498        8.07169       27.41599       -0.01392
44.00000        8.36226        -999.25       54.90565        7.72009        8.21860       28.27244       -0.03067
44.50000        7.78623        -999.25       55.11791        6.84266        7.97698       27.72531       -0.02896
45.00000        7.74792        -999.25       58.05848        7.21345        7.39404       27.06943       -0.01892
45.50000        7.73924        -999.25       63.11319        7.28573        7.28573       26.52719        0.03332
46.00000        7.73075        -999.25       68.16791        6.08889        6.48740       25.87620        0.05914
46.50000        7.72038        -999.25       73.30187        4.83282        5.04178       25.33396        0.05985
47.00000        7.76226        -999.25       71.88678        4.11360        4.10613       22.84628        0.06381
47.50000        7.84151        -999.25       65.69715        4.58886        5.03662       19.65193        0.09179
48.00000        7.92321       29.47770       60.81791        5.40741        5.48203       17.03669        0.09802
48.50000        8.02132       27.02239       57.33395        8.31503        8.76278       16.25776        0.07063
49.00000        7.97906       25.02051       54.43018        7.41716        8.55149       16.88617        0.02090
49.50000        7.90566       24.73189       51.52357        6.66855        6.89243       18.84666        0.01343
50.00000        7.80075       25.60978       51.14150        5.77022        5.85978       21.94092        0.00597
50.50000        7.71635       26.91439       52.33018        5.51863        5.64848       22.66228        0.00821
51.00000        7.73083       27.72342       53.06603        6.21329        6.81031       21.81562        0.01007
51.50000        7.74812       28.70179       52.41508        7.10600        7.40450       22.13547        0.01231
52.00000        7.81071       29.28504       49.86791        8.55290        7.30216       23.55447        0.01716
52.50000        7.88590       29.33885       47.91225        9.93711        7.64860       23.44008        0.02649
53.00000        7.95959       29.25682       48.11320        9.93430        7.88207       21.88448        0.03769
53.50000        8.10056       29.09200       48.50942        9.88270        7.94242       20.51740        0.04048
54.00000        8.13346       28.98852       46.19433        8.13811        8.38736       20.32926        0.04190
54.50000        8.14530       28.93547       42.10754        9.37904        8.88203       21.09125        0.04306
55.00000        8.15940       28.92117       40.01886       10.67072        8.28267       21.23236        0.03433
55.50000        8.11861       28.98401       40.81131       10.51865        9.52314       20.63029        0.02090
56.00000        8.08647       29.21919       40.83678        9.77004        9.65064       19.39379        0.00970
56.50000        7.96898       28.90198       40.47169        8.47368        8.72293       17.80809        0.03209
57.00000        7.82801       28.20395       43.08395        4.98879        6.48132       17.77686        0.04840
57.50000        7.74812       27.68580       45.26037        5.50883        5.65809       19.02164        0.05541
58.00000        7.52256       27.59172       46.25376        5.50602        5.76721       22.56820        0.04925
58.50000        7.24060       28.43838       45.56603        5.62755        5.87681       24.43086        0.03806
59.00000        7.11147       29.25983       43.14056        5.12820        6.56103       24.32324        0.03582
59.50000        7.05545       29.80433       38.77358        5.49852        7.39403       22.84516        0.04328
60.00000        7.09173       29.70310       38.49056        5.86930        7.48571       21.04422        0.06194
60.50000        7.13496       29.27676       42.29150        5.58636        7.35949       20.37629        0.05075
61.00000        7.17011       28.76124       48.33112        5.86415        8.55070       20.98137        0.04142
61.50000        7.20545       28.01430       57.36508        8.10060        9.44387       22.03500        0.04250
62.00000        7.25470       27.34450       68.20753        7.20273        7.15348       23.42427        0.04545
62.50000        7.32519       26.31232       81.93394        5.25963        5.40889       28.19379        0.04840
63.00000        7.36410       25.80169       96.62262        5.49162        5.40654       29.51082        0.05026
63.50000        7.37763       25.18871      101.03771        6.89626        5.40373       29.20978        0.04899
64.00000        7.41917       24.64083      100.34715        6.72824        5.87899       28.75823        0.04750
64.50000        7.51842       24.03688       98.97168        6.66769        5.91098       29.96237        0.04627
65.00000        7.55526       23.31176       97.13205        7.00069        6.51562       29.95108        0.04504
65.50000        7.59944       22.70781       94.92451        6.81178        7.03566       29.94167        0.04354
66.00000        7.63609       21.49577       93.08488        7.85421        7.77958       29.00922        0.04825
66.50000        7.68459       20.40452       91.13205        8.92154       10.91108       26.45042        0.05571
67.00000        7.74229       19.17027       92.57262        9.49979       10.61023       25.35278        0.06194
67.50000        7.81165       18.59078       96.58583       10.16013       10.50789       26.63518        0.06567
68.00000        7.86955       18.68975       97.64149        9.95881       10.45582       27.93678        0.06567
68.50000        7.92744       19.01223       92.18205       10.00572       12.46839       29.54845        0.07063
69.00000        7.97237       19.01223       85.63300       13.13722       14.92872       30.00000        0.08556
69.50000        7.96898       18.56068       81.72168       12.41846       14.57815       29.22860        0.08310
70.00000        7.96504       17.75428       79.81130       13.58029       14.32655       27.39417        0.07687
70.50000        7.96165       17.13076       81.86319       14.05060       14.14463       25.52211        0.05769
71.00000        7.95752       16.89257       85.68394       13.42587       13.42587       23.82879        0.04168
71.50000        7.95526       16.71684       88.86790       14.76681       16.07277       24.88241        0.03638
72.00000        7.95714       16.48166       86.92356       18.79382       19.18188       28.49483        0.04358
72.50000        7.95940       16.45344       84.58866       12.97061       13.41837       29.39793        0.05075
73.00000        7.96109       16.78683       82.64149       13.11752       13.41603       27.64817        0.04328
73.50000        7.96335       17.88335       82.35847       11.24905       12.21919       26.93772        0.02231
74.00000        7.96523       18.84741       86.83866       13.11236       10.67506       26.72625        0.01280
74.50000        7.96748       19.65193       88.58489       12.01553       11.06926       25.18344        0.01798
75.00000        7.96917       20.06134       89.43394       12.47288       12.36094       23.22145        0.02317
