~Version ---------------------------------------------------
VERS. 2.0 : CWLS LOG ASCII STANDARD - VERSION 2.0
WRAP. NO  : One line per depth step
DLM . SPACE : Column Data Section Delimiter
~Well ------------------------------------------------------
STRT.F           11 : START DEPTH
STOP.F       1399.0 : STOP DEPTH
STEP.F          0.5 : STEP
NULL.       -999.25 : NULL VALUE
COMP.                 WALSH & WATTS, INC. : COMPANY
WELL.                      HOWARD AB E 4E : WELL
FLD .             MONTAGUE COUNTY REGULAR : FIELD
CNTY.                            MONTAGUE : COUNTY
STAT.                                     : STATE
CTRY.                                 USA : COUNTRY
SEC .                                     : SECTION
TWP .                                     : TOWNSHIP
RGE .                                     : RANGE
LOC . 3250'FEL & 1590'FSL OF THE J.CHAMBLIS SURVEY A-123 : LOCATION
EKB .F                          : ELEVATION KELLY BUSHING
EDF .F                          : ELEVATION DERRICK FLOOR
EGL .F                          : ELEVATION GROUND LEVEL
PDAT.                        GL : PERMANENT DATUM
EPD .                           : ELEVATION PERMANENT DATUM
APD .                         8 : ABOVE PERMANENT DATUM
LMF .                        KB : LOG MEASURED FROM
DMF .                        KB : DRILLING MEASURED FROM
API .            42337348780000 : API NUMBER
UWI .                           : UWI NUMBER
DIGC.                     NthDS : DIGITIZING COMPANY
~Params ----------------------------------------------------
SRVC. PIONEER WIRELINE SERVICES : LOGGING COMPANY
LOG .                      DIFL : LOG
DATE.                2012-08-01 : RUN DATE
RUN .                         1 : RUN NUMBER
TDD .F                     1400 : TOTAL DEPTH DRILLER
TDL .F                     1396 : TOTAL DEPTH LOGGER
BOTL.F                     1394 : BOTTOM LOGGED INTERVAL
TOPL.F                       50 : TOP LOGGED INTERVAL
CSGS.IN                         : CASING SIZE
CSGD.F                          : CASING DRILLER
CSGL.F                          : CASING LOGGER
BS  .IN                   7.875 : BIT SIZE
MUD .                  CHEM-GEL : MUD TYPE
MUDD.                           : MUD DENSITY
MUDV.                           : MUD VISCOSITY
PH  .                           : MUD PH
FL  .                           : FLUID LOSS
MUDS.                  FLOWLINE : SOURCE OF SAMPLE
RM  .OHMM                   2.4 : MUD RESISTIVITY
RMT .DEGF                    73 : RM TEMPERATURE
RMF .OHMM                   1.8 : MUD FILTRATE RESISTIVITY
RMFT.DEGF                    73 : RMF TEMPERATURE
RMC .OHMM                   3.0 : MUD CAKE RESISTIVITY
RMCT.DEGF                    73 : RMC TEMPERATURE
RMFS.                      CALC : RMF SOURCE
RMCS.                      CALC : RMC SOURCE
RMBH.OHMM                   2.0 : MUD RESISTIVITY AT BHT
BHT .DEGF                    86 : BOTTOM HOLE TEMPERATURE
TIMC.           0200 2012-08-01 : TIME CIRCULATION STOPPED
TIML.           0430 2012-08-01 : TIME LOGGER ON BOTTOM
TMAX.DEGF                    86 : MAXIMUM RECORDED TEMPERATURE
UNIT.                       110 : EQUIPMENT NUMBER
BASE.                GRAHAM, TX : BASE LOCATION
ENG .                    WENDEL : RECORDED BY
WIT .           OVERBY/BURLESON : WITNESSED BY
~Curve Information -----------------------------------------
DEPT.F          :DEPTH
CILD.MMHO       :
GRR.GAPI        :
ILD.OHMM        :
ILM.OHMM        :
SFL.OHMM        :
SP.MV           :
~ASCII ------------------------------------------------------
# ...
932.50000      389.91973      148.79998        2.51671        2.57356        2.55892      188.57864
933.00000      396.96591      151.00000        2.48373        2.53703        2.51579      188.07997
933.50000      401.13121      151.32000        2.45389        2.50608        2.47551      187.36797
934.00000      399.54138      150.20000        2.47293        2.53391        2.49457      186.66664
934.50000      395.31018      140.25398        2.54795        2.60966        2.57783      186.02131
935.00000      389.75497      131.59998        2.61543        2.67779        2.66795      185.58931
935.50000      384.19976      125.79998        2.67976        2.71752        2.77481      185.28797
936.00000      378.65121      125.79998        2.71552        2.74097        2.87411      185.48531
936.50000      373.09600      129.59998        2.73089        2.73324        2.91711      186.05331
937.00000      375.09897      133.79998        2.72470        2.71652        2.80443      187.06664
937.50000      373.10994      135.39998        2.69973        2.65277        2.65554      186.07731
938.00000      373.30985      131.98398        2.68042        2.59258        2.56993      184.34397
938.50000      377.87434      126.89998        2.67467        2.60806        2.54217      182.37864
939.00000      382.44549      119.19998        2.66959        2.63218        2.60214      180.66664
939.50000      384.94745      113.05798        2.66125        2.62218        2.69047      179.99998
940.00000      387.44941      110.79998        2.63686        2.61254        2.75902      180.64531
940.50000      387.25678      111.33398        2.61607        2.60246        2.76173      181.87998
941.00000      381.67496      113.29998        2.61607        2.61977        2.74214      182.89597
941.50000      377.98933      118.39998        2.63218        2.66272        2.72253      183.50131
942.00000      375.25513      121.27998        2.64838        2.71852        2.70803      183.40531
942.50000      372.51428      120.12598        2.67205        2.73592        2.70471      183.01864
943.00000      367.78408      116.28598        2.70587        2.75141        2.72136      182.67997
943.50000      363.04724      110.31998        2.76648        2.78095        2.74433      182.38398
944.00000      358.85596      107.94998        2.82966        2.83853        2.77311      182.46664
944.50000      355.76248      108.59998        2.90372        2.90603        2.84725      183.04531
945.00000      352.66235      111.64998        2.92877        2.95948        2.91264      183.62131
945.50000      349.26947      116.74998        2.93093        2.97405        2.92159      185.31197
946.00000      346.28244      123.79998        2.91908        2.96457        2.92159      187.33331
946.50000      345.29141      130.55598        2.90550        2.94951        2.92159      189.46664
947.00000      347.11474      133.46598        2.90372        2.93651        2.88595      190.79997
947.50000      349.53918      134.93398        2.90372        2.92159        2.85075      191.48531
948.00000      351.36250      134.99998        2.90372        2.92159        2.85075      191.33331
948.50000      350.91039      133.39998        2.89482        2.92159        2.85075      190.79997
949.00000      349.32056      131.86598        2.83331        2.92733        2.86302      190.47731
949.50000      347.73073      130.05398        2.79875        2.93903        2.90764      190.32264
950.00000      346.27397      128.79998        2.85075        2.94933        2.95313      190.07197
950.50000      345.08334      128.02798        2.91443        2.96112        2.97587      189.38664
951.00000      343.89271      127.19998        2.95767        2.97295        2.94553      188.82664
951.50000      342.70208      123.99998        2.95404        2.97587        2.88967      188.29864
952.00000      342.30985      121.19998        2.93957        2.97587        2.92033      187.86664
952.50000      343.64748      117.76598        2.93957        2.97587        2.93957      187.74931
953.00000      348.44484      117.95598        2.91264        2.96894        2.93291      187.64531
953.50000      352.26416      119.62798        2.85951        2.92016        2.88595      187.49864
954.00000      355.59778      122.74198        2.80735        2.86566        2.83331      187.35464
954.50000      358.93141      127.71398        2.77737        2.81857        2.78812      187.83197
955.00000      362.44468      133.31398        2.74534        2.79138        2.75192      188.32797
955.50000      366.04444      138.75998        2.72855        2.78095        2.72788      189.16797
956.00000      367.80123      140.99998        2.71219        2.76903        2.71569      189.93597
956.50000      369.55136      139.99998        2.70504        2.75970        2.71419      191.10131
957.00000      371.55433      139.74998        2.69709        2.74973        2.71419      192.21064
957.50000      374.05629      140.94998        2.69014        2.74113        2.71419      192.85597
958.00000      380.65004      141.87998        2.68207        2.73123        2.71419      192.81331
958.50000      387.24379      140.59998        2.60166        2.72152        2.69427      192.44531
959.00000      393.83755      136.42598        2.52460        2.70189        2.63864      191.66664
959.50000      402.50048      129.27998        2.44532        2.60518        2.50608      188.91731
960.00000      414.67637      119.71998        2.40278        2.52352        2.40071      185.53331
960.50000      420.95742      105.86598        2.38047        2.35273        2.48422      182.14664
961.00000      427.23846       96.66598        2.37070        2.32403        2.74265      179.59998
961.50000      428.44968       93.25798        2.35967        2.29175        3.02373      178.79998
962.00000      427.12599       98.15998        2.35692        2.28571        3.14484      179.39998
962.50000      423.69319      109.19998        2.38237        2.34250        2.93057      181.99998
963.00000      416.54784      117.79998        2.43275        2.40071        2.68932      184.79997
963.50000      404.07983      127.75998        2.49641        2.48693        2.58940      187.83997
964.00000      391.61183      134.99998        2.55437        2.58226        2.59481      189.51997
964.50000      377.87969      138.29998        2.62572        2.70089        2.63751      190.26664
965.00000      363.51549      138.35998        2.69427        2.78163        2.67566      189.79997
965.50000      366.37673      137.99998        2.72671        2.78163        2.79875      188.79997
966.00000      369.23132      139.32398        2.73089        2.76461        2.90728      188.66664
966.50000      366.86305      142.22398        2.75175        2.77413        3.00339      188.93331
967.00000      362.54536      144.74198        2.78402        2.81028        2.99419      189.81064
967.50000      359.55833      146.39998        2.81270        2.86092        2.91568      190.26664
968.00000      355.00112      143.55998        2.84900        2.92016        2.82169      189.99997
968.50000      350.45057      137.79998        2.88595        2.97587        2.77975      188.39997
969.00000      350.92992      130.79998        2.86373        3.05600        2.76461      185.34664
969.50000      353.93088      119.75998        2.84429        3.14484        2.91711      181.25331
970.00000      360.25850      109.66598        2.81598        3.26279        3.53004      178.74664
970.50000      368.24945       99.79998        2.78334        3.17392        3.81310      177.02664
971.00000      365.18259       95.08598        2.75006        3.00948        3.57736      176.25864
971.50000      362.12237       92.68998        2.77737        2.86830        3.04982      175.53331
972.00000      359.05551       90.58399        2.88153        2.79875        2.70870      175.03464
