~Version ---------------------------------------------------
VERS. 2.0 : CWLS LOG ASCII STANDARD - VERSION 2.0
WRAP. NO  : One line per depth step
DLM . SPACE : Column Data Section Delimiter
~Well ------------------------------------------------------
STRT.F           48 : START DEPTH
STOP.F       1432.0 : STOP DEPTH
STEP.F          0.5 : STEP
NULL.       -999.25 : NULL VALUE
COMP.                 WALSH & WATTS, INC. : COMPANY
WELL.                         HOWARD F 25 : WELL
FLD .                            MONTAGUE : FIELD
CNTY.                            MONTAGUE : COUNTY
STAT.                               TEXAS : STATE
CTRY.                                 USA : COUNTRY
SEC .                                     : SECTION
TWP .                                     : TOWNSHIP
RGE .                                     : RANGE
LOC . 1115'FEL & 2300'FSL OF THE J.CHAMBLIS SURVEY A-123 : LOCATION
EKB .F                      512 : ELEVATION KELLY BUSHING
EDF .F                      511 : ELEVATION DERRICK FLOOR
EGL .F                      505 : ELEVATION GROUND LEVEL
PDAT.                        GL : PERMANENT DATUM
EPD .                       505 : ELEVATION PERMANENT DATUM
APD .                         7 : ABOVE PERMANENT DATUM
LMF .                        KB : LOG MEASURED FROM
DMF .                        KB : DRILLING MEASURED FROM
API .            42337343120000 : API NUMBER
UWI .                           : UWI NUMBER
DIGC.                     NthDS : DIGITIZING COMPANY
~Params ----------------------------------------------------
SRVC. PIONEER WIRELINE SERVICES : LOGGING COMPANY
LOG .                   CNFD/ML : LOG
DATE.                2010-10-07 : RUN DATE
RUN .                         1 : RUN NUMBER
TDD .F                     1450 : TOTAL DEPTH DRILLER
TDL .F                     1452 : TOTAL DEPTH LOGGER
BOTL.F                     1452 : BOTTOM LOGGED INTERVAL
TOPL.F                       50 : TOP LOGGED INTERVAL
CSGS.IN                         : CASING SIZE
CSGD.F                          : CASING DRILLER
CSGL.F                          : CASING LOGGER
BS  .IN                   7.875 : BIT SIZE
MUD .                  GEL-CHEM : MUD TYPE
MUDD.                           : MUD DENSITY
MUDV.                           : MUD VISCOSITY
PH  .                           : MUD PH
FL  .                           : FLUID LOSS
MUDS.                  FLOWLINE : SOURCE OF SAMPLE
RM  .OHMM                   4.0 : MUD RESISTIVITY
RMT .DEGF                    72 : RM TEMPERATURE
RMF .OHMM                   3.0 : MUD FILTRATE RESISTIVITY
RMFT.DEGF                    72 : RMF TEMPERATURE
RMC .OHMM                   5.0 : MUD CAKE RESISTIVITY
RMCT.DEGF                    72 : RMC TEMPERATURE
RMFS.                      CALC : RMF SOURCE
RMCS.                      CALC : RMC SOURCE
RMBH.OHMM                     3 : MUD RESISTIVITY AT BHT
BHT .DEGF                    88 : BOTTOM HOLE TEMPERATURE
TIMC.           0730 2010-10-07 : TIME CIRCULATION STOPPED
TIML.           1020 2010-10-07 : TIME LOGGER ON BOTTOM
TMAX.DEGF                    88 : MAXIMUM RECORDED TEMPERATURE
UNIT.                      M-19 : EQUIPMENT NUMBER
BASE.                GRAHAM, TX : BASE LOCATION
ENG .                    WENDEL : RECORDED BY
WIT .           WOMBLE/BURLESON : WITNESSED BY
~Curve Information -----------------------------------------
DEPT.F          :DEPTH
CALD.IN         :
DPHI.%          :
GRD.GAPI        :
MINV.OHMM       :
MNOR.OHMM       :
NPHI.%          :
RHOC.G/CC       :
~ASCII ------------------------------------------------------
# ...
1304.50000        8.23709       15.84335      104.75452        4.30109        3.16073       21.18594        0.04000
1305.00000        8.23800       15.97342      104.10270        4.35345        3.15200       20.42467        0.03636
1305.50000        8.23909       16.10349      103.32543        4.32000        3.14182       21.36316        0.04000
1306.00000        8.24018       16.01292      102.54543        4.29382        3.13309       22.90238        0.04000
1306.50000        8.24109       15.84483      105.46634        4.26182        3.12291       22.01768        0.04000
1307.00000        8.24218       15.64766      106.09089        4.22836        3.11273       19.36901        0.04727
1307.50000        8.24309       15.30887      102.24816        4.20218        3.10400       18.10592        0.04727
1308.00000        8.24418       15.12893       97.63634        4.17018        3.09382       19.16749        0.04727
1308.50000        8.24527       15.12054       98.35089        4.14254        3.08363       20.05201        0.04727
1309.00000        8.24618       15.22277      100.13180        4.11054        3.07345       21.11321        0.05455
1309.50000        8.24727       15.30802      102.27270        4.07854        3.06327       22.17477        0.05818
1310.00000        8.24818       15.56996      106.36361        4.05382        3.05454       22.59409        0.05455
1310.50000        8.24927       15.83433      108.81816        4.02618        3.06618       22.46922        0.04727
1311.00000        8.25036       16.24719      108.54543        4.00291        3.07636       21.08782        0.04000
1311.50000        8.25127       16.66004      106.90907        3.97382        3.08800       19.43035        0.03273
1312.00000        8.25236       16.88522      103.36361        3.95054        3.09818       19.01598        0.03636
1312.50000        8.25327       16.61126       99.27271        3.96654        3.10982       20.09109        0.04727
1313.00000        8.25436       15.76282       97.63634        4.20509        3.12291       21.41053        0.05818
1313.50000        8.25527       14.78118       99.75816        4.29091        3.13163       21.96795        0.06909
1314.00000        8.25618       14.23970      101.60998        4.19200        3.14473       21.66102        0.06909
1314.50000        8.25727       14.01336      102.54543        4.38982        3.15345       21.72589        0.06545
1315.00000        8.25818       14.47883      104.39725        4.26036        3.16654       21.93459        0.04364
1315.50000        8.25927       15.03747      106.61725        3.98982        3.17673       22.18517        0.03636
1316.00000        8.26036       15.33421      107.56361        4.36363        3.18836       22.39387        0.03273
1316.50000        8.26127       15.47221      107.29089        4.07273        3.20000       21.80380        0.04364
1317.00000        8.26236       15.63781      105.36270        4.07273        3.16073       20.96195        0.04727
1317.50000        8.26327       15.77581      104.30452        4.07273        3.11418       20.70265        0.05455
1318.00000        8.26436       15.97548      104.00725        4.07273        3.07491       20.52014        0.05455
1318.50000        8.26545       16.24291      102.90816        4.07273        3.02691       20.53922        0.04727
1319.00000        8.26636       16.46626      100.63634        3.96945        2.98036       22.26891        0.04364
1319.50000        8.26745       16.41721      100.57634        3.86473        2.94109       24.75318        0.04727
1320.00000        8.26836       15.94679      101.78725        3.95636        2.92073       24.71719        0.06182
1320.50000        8.26945       15.38236      102.27270        4.12073        2.94836       22.52017        0.07636
1321.00000        8.27054       15.21303      102.71998        4.21818        2.98182       20.93950        0.07273
1321.50000        8.27145       15.46545      104.95089        4.21818        3.00945       20.37873        0.05818
1322.00000        8.27254       15.84936      107.04543        4.21818        3.04291       20.47095        0.05455
1322.50000        8.27454       15.81960      105.29725        4.21818        3.06763       21.06512        0.05455
1323.00000        8.27727       15.36396      101.27998        4.24436        3.08509       21.72143        0.05818
1323.50000        8.28000       14.98401       99.06816        4.28363        3.10545       23.28263        0.04000
1324.00000        8.28218       14.77013       99.72816        4.31709        3.12291       23.66544        0.03636
1324.50000        8.28509       14.69202       99.43634        4.35636        3.14182       23.00198        0.02545
1325.00000        8.28727       14.59865       96.43634        4.28073        3.15927       20.17310        0.02545
1325.50000        8.29000       14.50527       88.90907        4.15563        3.17963       17.81588        0.01818
1326.00000        8.32727       14.13962       77.45453        4.31563        3.20000       15.45829        0.01455
1326.50000        8.37273       13.57372       65.18180        5.33382        3.67854       13.45650        0.01818
1327.00000        8.37273       13.04945       57.27271        6.52072        6.54545       11.57693        0.02182
1327.50000        8.32727       12.42019       52.45362        7.12727        8.00000       11.55316        0.02182
1328.00000        8.23636       12.87870       52.48090       10.09454       11.29745       12.06515        0.01091
1328.50000        8.12727       14.53990       56.45453       10.22981       11.49090       13.63551        0.00000
1329.00000        8.07273       16.33552       60.35180        7.20000        7.18545       15.20623       -0.00364
1329.50000        8.07273       17.55130       67.90908        9.76145        8.50909       16.51492        0.01091
1330.00000        8.07273       18.27135       75.40907        6.20654        6.19200       18.35780        0.02182
1330.50000        8.07273       18.19373       80.48998        4.26036        3.28000       19.56735        0.04000
1331.00000        8.07273       18.12880       85.33634        4.84800        3.47782       20.54723        0.04000
1331.50000        8.07273       18.21748       89.83634        4.71273        3.61018       21.81306        0.04000
1332.00000        8.07273       18.35598       91.63634        4.30982        3.53018       22.62811        0.04364
1332.50000        8.07273       18.33390       87.92725        4.03636        3.50691       22.39078        0.04364
1333.00000        8.07273       18.30720       82.03635        4.36363        3.55491       21.01781        0.04727
1333.50000        8.07273       18.34447       77.76271        4.87273        3.59563       20.74372        0.04727
1334.00000        8.07273       18.67490       75.54544        4.38836        3.62182       20.41482        0.04364
1334.50000        8.07273       19.04441       75.13635        4.94545        3.53454       20.08592        0.04000
1335.00000        8.07273       19.51623       76.29544        4.65454        3.73382       20.25139        0.03636
1335.50000        8.07273       19.84154       78.88635        8.00000        5.67272       20.32322        0.03273
1336.00000        8.07273       19.86819       80.72725        4.36363        3.49091       20.21141        0.03273
1336.50000        8.07273       19.53928       79.09089        4.68363        3.68436       19.63525        0.03273
1337.00000        8.07273       19.25458       77.45453        5.72072        4.29091       18.57949        0.03636
1337.50000        8.07273       18.86304       78.15544        4.65454        3.34545       17.38576        0.04000
1338.00000        8.07273       18.53657       79.90907        5.14909        3.47927       17.41680        0.04000
1338.50000        8.07273       18.14504       78.68180        4.30545        3.59127       19.23587        0.04364
