~Version ---------------------------------------------------
VERS. 2.0 : CWLS LOG ASCII STANDARD - VERSION 2.0
WRAP. NO  : One line per depth step
DLM . SPACE : Column Data Section Delimiter
~Well ------------------------------------------------------
STRT.F           40 : START DEPTH
STOP.F       1271.0 : STOP DEPTH
STEP.F          0.5 : STEP
NULL.       -999.25 : NULL VALUE
COMP.                 WALSH & WATTS, INC. : COMPANY
WELL.                         HOWARD G 17 : WELL
FLD .             MONTAGUE COUNTY REGULAR : FIELD
CNTY.                            MONTAGUE : COUNTY
STAT.                               TEXAS : STATE
CTRY.                                 USA : COUNTRY
SEC .                                     : SECTION
TWP .                                     : TOWNSHIP
RGE .                                     : RANGE
LOC . 520'FNL & 4250'FEL OF THE J.CHAMBLIS SURVEY, A-123 : LOCATION
EKB .F                      519 : ELEVATION KELLY BUSHING
EDF .F                      518 : ELEVATION DERRICK FLOOR
EGL .F                      512 : ELEVATION GROUND LEVEL
PDAT.                        GL : PERMANENT DATUM
EPD .                       512 : ELEVATION PERMANENT DATUM
APD .                         7 : ABOVE PERMANENT DATUM
LMF .                        KB : LOG MEASURED FROM
DMF .                        KB : DRILLING MEASURED FROM
API .            42337343900000 : API NUMBER
UWI .                           : UWI NUMBER
DIGC.                     NthDS : DIGITIZING COMPANY
~Params ----------------------------------------------------
SRVC. PIONEER WIRELINE SERVICES : LOGGING COMPANY
LOG .                      CNFD : LOG
DATE.                2010-10-13 : RUN DATE
RUN .                         1 : RUN NUMBER
TDD .F                     1298 : TOTAL DEPTH DRILLER
TDL .F                     1280 : TOTAL DEPTH LOGGER
BOTL.F                     1280 : BOTTOM LOGGED INTERVAL
TOPL.F                       50 : TOP LOGGED INTERVAL
CSGS.IN                         : CASING SIZE
CSGD.F                          : CASING DRILLER
CSGL.F                          : CASING LOGGER
BS  .IN                   7.875 : BIT SIZE
MUD .                  GEL-CHEM : MUD TYPE
MUDD.                           : MUD DENSITY
MUDV.                           : MUD VISCOSITY
PH  .                           : MUD PH
FL  .                           : FLUID LOSS
MUDS.                  FLOWLINE : SOURCE OF SAMPLE
RM  .OHMM                   3.6 : MUD RESISTIVITY
RMT .DEGF                    72 : RM TEMPERATURE
RMF .OHMM                   2.7 : MUD FILTRATE RESISTIVITY
RMFT.DEGF                    72 : RMF TEMPERATURE
RMC .OHMM                   4.5 : MUD CAKE RESISTIVITY
RMCT.DEGF                    72 : RMC TEMPERATURE
RMFS.                      CALC : RMF SOURCE
RMCS.                      CALC : RMC SOURCE
RMBH.OHMM                   3.0 : MUD RESISTIVITY AT BHT
BHT .DEGF                    85 : BOTTOM HOLE TEMPERATURE
TIMC.           0245 2010-10-13 : TIME CIRCULATION STOPPED
TIML.           0540 2010-10-13 : TIME LOGGER ON BOTTOM
TMAX.DEGF                    85 : MAXIMUM RECORDED TEMPERATURE
UNIT.                      M-19 : EQUIPMENT NUMBER
BASE.             GRAHAM, TEXAS : BASE LOCATION
ENG .                    WENDEL : RECORDED BY
WIT .           WOMBLE/BURLESON : WITNESSED BY
~Curve Information -----------------------------------------
DEPT.F          :DEPTH
CALI.IN         :
DPHI.PU         :
GRD.GAPI        :
MINV.OHMM       :
MNOR.OHMM       :
NPHI.PU         :
RHOC.G/CC       :
~ASCII ------------------------------------------------------
# ...
740.50000        8.11321       20.80906      113.67167        3.01887        2.21434       29.60789        0.04404
741.00000        8.14849       21.24348      114.05658        3.01887        1.96226       27.76525        0.04906
741.50000        8.19094       22.09933      110.34054        2.85434        2.05283       27.64679        0.04906
742.00000        8.22641       23.08913      107.33488        2.71698        2.11321       28.77519        0.06038
742.50000        8.24057       23.04273      105.47262        2.71698        2.11321       28.47515        0.10517
743.00000        8.22755       22.00961      104.64620        2.77736        2.49056       27.61635        0.14015
743.50000        8.19811       20.99517      103.30186        3.07924        1.96226       26.59664        0.14936
744.00000        8.16283       20.33599      102.45281        3.24528        2.56604       25.24398        0.13992
744.50000        8.13830       20.09748      103.74620        2.86792        2.50566       24.40923        0.13208
745.00000        8.11321       19.69631      107.40564        2.36528        2.06340       24.01283        0.13113
745.50000        8.08962       19.04277      107.34620        3.34189        2.36528       23.85490        0.14811
746.00000        8.06604       18.02833      105.63677        4.58868        3.21962       23.73030        0.16226
746.50000        7.99623       16.82604      101.60375        3.77358        3.92453       22.76586        0.12287
747.00000        7.92075       16.46310       97.69809        2.79245        2.69132       21.26281        0.09558
747.50000        7.83641       16.76556       97.35847        2.60377        2.56604       21.20701        0.07472
748.00000        7.79717       17.97642       98.77356        2.82717        2.33962       22.42940        0.06113
748.50000        7.78245       19.05181      100.18866        2.34717        1.96226       24.30980        0.05887
749.00000        7.80906       20.66379      101.88677        1.98792        1.68906       24.49836        0.06340
749.50000        7.83132       21.28205      103.62167        2.04981        1.73585       25.00019        0.05849
750.00000        7.85698       21.49061      105.56601        2.11321        1.78264       25.92455        0.05472
750.50000        7.90491       21.40366      108.67922        2.59625        1.64794       27.41582        0.06704
751.00000        7.94491       20.53984      109.38677        2.18127        1.98052       27.87301        0.07640
751.50000        7.99283       19.88874      108.51790        2.41798        2.24719       29.17183        0.08850
752.00000        8.03264       19.66858      106.76884        2.74007        2.42697       29.96487        0.09858
752.50000        8.08962       19.68703      104.52733        2.99625        2.44644       29.87754        0.11243
753.00000        8.18868       19.70196      101.60375        2.99625        2.24719       27.85298        0.13352
753.50000        8.23585       18.94784       98.77356        2.99625        2.24719       26.36943        0.14757
754.00000        8.19811       18.04289       95.09432        3.59550        2.92135       26.39342        0.13719
754.50000        8.11943       17.40953       93.55753        4.56929        3.41573       27.19828        0.10607
755.00000        7.99377       17.35465       93.96224        4.83745        3.47565       28.13849        0.08015
755.50000        7.95509       17.66404       97.58488        4.19475        3.19550       27.93165        0.05891
756.00000        7.96943       17.79369      101.07734        3.59550        2.69663       25.44169        0.08139
756.50000        7.99094       16.98950      105.09337        3.31386        2.79700       23.29135        0.12094
757.00000        8.01566       16.04670      106.98111        3.65992        2.91685       22.70704        0.13820
757.50000        8.04019       15.21711      106.24526        4.34457        3.03371       22.85341        0.12509
758.00000        8.06981       14.94110      104.43394        4.34457        3.22097       23.06004        0.10187
758.50000        8.09434       15.45577      104.49620        4.14532        3.37078       24.62414        0.07266
759.00000        8.08811       16.23787      104.87545        3.64494        3.35580       27.03038        0.07532
759.50000        8.08283       17.17669      103.55658        3.54607        3.37078       27.37071        0.07854
760.00000        8.07755       17.63539      101.15092        3.89513        3.29588       23.93736        0.07906
760.50000        8.03774       17.71157       98.71696        4.14532        3.29588       21.71155        0.07640
761.00000        7.99057       17.28085       96.87734        3.74532        3.91610       19.90083        0.06517
761.50000        7.94340       16.85012       93.67922        3.99550        3.70786       19.71287        0.05580
762.00000        7.94340       16.43989       91.98111        4.25917        3.52060       20.24176        0.04644
762.50000        7.94340       16.27558       92.45375        4.64419        3.70187       20.64801        0.05393
763.00000        7.99057       16.73855       96.50941        4.45693        3.84120       20.29174        0.04667
763.50000        7.94340       17.51725      100.18866        4.26966        3.70487       20.43233        0.03936
764.00000        7.94943       18.45180      104.31224        4.19475        3.38577       22.50851        0.03064
764.50000        7.95434       19.23364      106.88771        3.69588        2.86142       25.37701        0.04457
765.00000        7.95924       19.00027      109.10375        3.29588        2.69663       26.69847        0.08389
765.50000        7.97849       17.43873      109.35280        4.64419        2.99625       26.13303        0.10075
766.00000        7.99774       16.28008      108.25469        4.42996        3.31086       25.50166        0.09749
766.50000        7.98453       15.69087      105.28299        4.77303        3.40075       25.24301        0.08213
767.00000        7.97340       15.43422      102.04809        4.75056        3.33333       24.93493        0.06933
767.50000        7.96226       15.70425       98.71696        3.89513        3.05168       24.55074        0.05648
768.00000        8.00000       16.37276       94.64149        3.95505        3.44569       23.83435        0.05536
768.50000        7.96623       17.29422       93.20658        4.44494        3.38127       23.49532        0.05682
769.00000        7.92585       18.06198       92.83017        5.20000        3.59550       24.90471        0.05595
769.50000        7.89226       19.68533       94.24526        4.37453        3.22097       27.45887        0.05307
770.00000        7.85849       21.03799       96.84054        3.37078        2.84644       29.00033        0.05019
770.50000        7.81811       22.00096       97.35847        3.01723        2.39700       28.78092        0.07715
771.00000        7.84151       22.21551       95.15658        2.99625        2.56329       28.21560        0.09888
771.50000        7.88679       22.01811       93.20658        3.84569        3.11610       27.65016        0.11011
772.00000        7.92453       21.89606       96.50941        3.26592        4.19475       26.40547        0.09513
772.50000        7.92453       21.80232      102.20941        3.23595        2.29213       23.65148        0.08951
773.00000        7.92453       21.53888      106.86790        3.54607        2.56180       22.54831        0.09858
773.50000        7.92453       21.27532      108.05658        3.14607        2.89588       22.33682        0.09715
774.00000        7.92453       20.42686      107.26413        3.10861        2.99625       23.95526        0.09569
774.50000        7.89623       19.76267      105.84903        4.08839        3.29588       25.66906        0.07715
775.00000        7.82075       19.39043      101.74526        3.65992        3.08165       27.25466        0.06517
