~Version ---------------------------------------------------
VERS. 2.0 : CWLS LOG ASCII STANDARD - VERSION 2.0
WRAP. NO  : One line per depth step
DLM . SPACE : Column Data Section Delimiter
~Well ------------------------------------------------------
STRT.F           11 : START DEPTH
STOP.F       1399.0 : STOP DEPTH
STEP.F          0.5 : STEP
NULL.       -999.25 : NULL VALUE
COMP.                 WALSH & WATTS, INC. : COMPANY
WELL.                      HOWARD AB E 4E : WELL
FLD .             MONTAGUE COUNTY REGULAR : FIELD
CNTY.                            MONTAGUE : COUNTY
STAT.                                     : STATE
CTRY.                                 USA : COUNTRY
SEC .                                     : SECTION
TWP .                                     : TOWNSHIP
RGE .                                     : RANGE
LOC . 3250'FEL & 1590'FSL OF THE J.CHAMBLIS SURVEY A-123 : LOCATION
EKB .F                          : ELEVATION KELLY BUSHING
EDF .F                          : ELEVATION DERRICK FLOOR
EGL .F                          : ELEVATION GROUND LEVEL
PDAT.                        GL : PERMANENT DATUM
EPD .                           : ELEVATION PERMANENT DATUM
APD .                         8 : ABOVE PERMANENT DATUM
LMF .                        KB : LOG MEASURED FROM
DMF .                        KB : DRILLING MEASURED FROM
API .            42337348780000 : API NUMBER
UWI .                           : UWI NUMBER
DIGC.                     NthDS : DIGITIZING COMPANY
~Params ----------------------------------------------------
SRVC. PIONEER WIRELINE SERVICES : LOGGING COMPANY
LOG .                      DIFL : LOG
DATE.                2012-08-01 : RUN DATE
RUN .                         1 : RUN NUMBER
TDD .F                     1400 : TOTAL DEPTH DRILLER
TDL .F                     1396 : TOTAL DEPTH LOGGER
BOTL.F                     1394 : BOTTOM LOGGED INTERVAL
TOPL.F                       50 : TOP LOGGED INTERVAL
CSGS.IN                         : CASING SIZE
CSGD.F                          : CASING DRILLER
CSGL.F                          : CASING LOGGER
BS  .IN                   7.875 : BIT SIZE
MUD .                  CHEM-GEL : MUD TYPE
MUDD.                           : MUD DENSITY
MUDV.                           : MUD VISCOSITY
PH  .                           : MUD PH
FL  .                           : FLUID LOSS
MUDS.                  FLOWLINE : SOURCE OF SAMPLE
RM  .OHMM                   2.4 : MUD RESISTIVITY
RMT .DEGF                    73 : RM TEMPERATURE
RMF .OHMM                   1.8 : MUD FILTRATE RESISTIVITY
RMFT.DEGF                    73 : RMF TEMPERATURE
RMC .OHMM                   3.0 : MUD CAKE RESISTIVITY
RMCT.DEGF                    73 : RMC TEMPERATURE
RMFS.                      CALC : RMF SOURCE
RMCS.                      CALC : RMC SOURCE
RMBH.OHMM                   2.0 : MUD RESISTIVITY AT BHT
BHT .DEGF                    86 : BOTTOM HOLE TEMPERATURE
TIMC.           0200 2012-08-01 : TIME CIRCULATION STOPPED
TIML.           0430 2012-08-01 : TIME LOGGER ON BOTTOM
TMAX.DEGF                    86 : MAXIMUM RECORDED TEMPERATURE
UNIT.                       110 : EQUIPMENT NUMBER
BASE.                GRAHAM, TX : BASE LOCATION
ENG .                    WENDEL : RECORDED BY
WIT .           OVERBY/BURLESON : WITNESSED BY
~Curve Information -----------------------------------------
DEPT.F          :DEPTH
CILD.MMHO       :
GRR.GAPI        :
ILD.OHMM        :
ILM.OHMM        :
SFL.OHMM        :
SP.MV           :
~ASCII ------------------------------------------------------
# ...
772.50000      260.24972      123.08998        3.85356        3.79071        3.85073      170.74131
773.00000      261.50919      119.90998        3.81685        3.78049        3.80960      171.51198
773.50000      263.51482      117.73398        3.78049        3.78049        3.75045      172.10398
774.00000      263.52179      118.89998        3.73942        3.78049        3.69562      171.89598
774.50000      264.12170      123.09998        3.71996        3.77214        3.60491      171.39998
775.00000      265.01475      127.99998        3.70084        3.75528        3.56203      170.37331
775.50000      265.91446      129.09998        3.70197        3.73850        3.57736      168.84531
776.00000      266.21457      125.68798        3.73300        3.71540        3.57736      167.06664
776.50000      265.96839      121.24998        3.76844        3.69313        3.67188      165.19998
777.00000      265.22920      118.47998        3.80002        3.72270        3.73437      164.06664
777.50000      264.48335      120.16598        3.82435        3.75690        3.77284      163.97864
778.00000      262.91139      124.07998        3.81474        3.78699        3.78049      164.15464
778.50000      260.91971      125.49998        3.80376        3.82177        3.78049      164.31198
779.00000      258.92803      125.75998        3.78049        3.85238        3.77122      164.93331
779.50000      256.53662      125.19998        3.79909        3.88586        3.79606      165.39998
780.00000      254.57159      124.90998        3.82318        3.91289        3.83657      165.22131
780.50000      253.47265      123.99998        3.85474        3.94399        3.91265      165.54398
781.00000      252.36704      120.79998        3.88228        3.97143        3.93625      165.99998
781.50000      251.96762      116.97198        3.89827        3.99514        3.95490      167.33331
782.00000      252.97393      115.79998        3.89827        3.99514        3.97143      169.19998
782.50000      258.31065      119.99998        3.88943        3.91169        3.99049      171.97331
783.00000      263.31426      127.06598        3.84482        3.79792        3.97485      174.53331
783.50000      268.31788      134.86598        3.74884        3.69449        3.88228      176.66664
784.00000      274.22988      137.66598        3.71905        3.62576        3.74585      176.81598
784.50000      271.95172      138.09998        3.68543        3.60270        3.52290      175.99998
785.00000      269.67357      137.17798        3.65637        3.66288        3.39910      173.19998
785.50000      273.27813      135.37198        3.65884        3.68317        3.39118      169.99998
786.00000      275.18383      132.08998        3.67978        3.67527        3.49985      166.63998
786.50000      273.69181      126.99998        3.73758        3.66626        3.69789      164.31198
787.00000      267.70282      121.90998        3.80889        3.66626        3.73437      163.06664
787.50000      261.71383      116.24398        3.88633        3.71951        3.75736      162.13331
788.00000      257.72117      111.64998        3.92227        3.79559        3.75736      161.19998
788.50000      251.73219      108.96598        3.90067        3.85073        3.85971      160.13331
789.00000      251.83243      105.84998        3.86303        3.85073        3.89827      158.85865
789.50000      254.98396      104.59998        3.82036        3.85073        3.88633      157.40798
790.00000      259.08384      104.55998        3.78350        3.81053        3.87158      155.74931
790.50000      259.09082      105.06598        3.74011        3.71153        3.86043      154.51198
791.00000      258.43158      104.93398        3.73735        3.69381        3.85073      153.19998
791.50000      251.58084      103.25798        3.94956        3.67369        3.77724      152.33865
792.00000      241.31473       99.96598        4.14498        3.73117        3.61421      151.09865
792.50000      231.04196       96.03998        4.42626        3.91818        3.63936      149.34931
793.00000      220.76918       88.99999        4.60073        4.11962        3.90522      147.41065
793.50000      210.49641       83.47999        4.71997        4.54461        4.68621      146.19998
794.00000      205.70661       82.28599        4.82718        4.95229        5.59893      145.79998
794.50000      198.78492       87.29999        4.95229        5.09469        6.44762      146.41598
795.00000      187.59943       93.99998        5.31015        5.04430        5.82534      147.45065
795.50000      176.41393       97.19998        5.75110        4.98277        4.82303      147.41331
796.00000      165.22844       95.22398        6.31876        5.45547        4.32690      146.62131
796.50000      149.24618       88.11399        7.06926        6.53967        4.60073      145.19998
797.00000      133.26391       76.24999        7.43270        7.33439        5.84467      143.33331
797.50000      119.56678       63.17599        7.87065        8.46118        8.76290      141.33332
798.00000      105.86964       57.39999        8.70929        9.75868       13.46465      140.05598
798.50000       94.64417       54.37399       10.17824       11.48680       20.37418      139.59998
799.00000       84.65788       55.59999       11.55893       13.24828       24.71875      139.79465
799.50000       77.06996       57.19999       12.77487       14.89020       24.46073      140.57065
800.00000       76.00972       59.27199       13.49609       14.85370       21.33376      141.06665
800.50000       75.75090       61.59999       13.79923       14.77280       17.55180      141.34665
801.00000       78.22295       59.79999       13.54753       14.55683       15.53706      141.54665
801.50000       83.64516       56.51199       12.75685       15.01038       16.00542      141.73332
802.00000       89.06072       53.02599       11.27520       15.12967       17.94384      142.20798
802.50000       98.53606       50.39999       10.38135       14.03665       19.10285      142.90665
803.00000      108.01140       50.05799        9.50514       12.05071       17.50340      143.90131
803.50000      117.48674       50.75599        8.79414       10.36162       15.13710      145.03998
804.00000      126.96208       51.99999        8.39446        9.22642       13.21905      145.95998
804.50000      139.42743       54.53399        7.72235        8.31041       12.47048      146.94398
805.00000      151.89278       54.79999        6.97447        7.74418       12.52416      148.16798
805.50000      164.35814       54.19999        6.26048        7.15919       13.61670      149.63465
806.00000      176.82349       52.79999        5.74969        6.66035       15.00025      151.06665
806.50000      186.13271       51.59999        5.40019        6.25280       16.03787      152.77331
807.00000      195.44194       52.28599        5.15476        5.79930       15.66534      154.53331
807.50000      202.62493       52.94999        4.94895        5.42976       13.91915      156.39998
808.00000      207.08369       54.15999        4.89188        5.12763       11.70525      157.70398
808.50000      206.09398       55.27999        4.89188        4.98277        9.84650      158.22131
809.00000      205.10427       56.19999        4.90812        5.10659        9.24626      158.26665
809.50000      205.22418       56.44399        4.92199        5.36353       10.15329      158.26665
810.00000      205.89559       56.59999        4.92199        5.59893       11.98287      158.26665
810.50000      204.92581       56.59999        4.94227        5.63616       13.24585      159.10131
811.00000      203.13875       56.46599        4.98277        5.55172       12.24301      160.56265
811.50000      201.35170       55.93399        5.01344        5.47862       10.55025      162.23198
812.00000      202.28889       55.16399        5.01344        5.39654        8.98781      163.63731
