~Version ---------------------------------------------------
VERS. 2.0 : CWLS LOG ASCII STANDARD - VERSION 2.0
WRAP. NO  : One line per depth step
DLM . SPACE : Column Data Section Delimiter
~Well ------------------------------------------------------
STRT.F           40 : START DEPTH
STOP.F       1271.0 : STOP DEPTH
STEP.F          0.5 : STEP
NULL.       -999.25 : NULL VALUE
COMP.                 WALSH & WATTS, INC. : COMPANY
WELL.                         HOWARD G 17 : WELL
FLD .             MONTAGUE COUNTY REGULAR : FIELD
CNTY.                            MONTAGUE : COUNTY
STAT.                               TEXAS : STATE
CTRY.                                 USA : COUNTRY
SEC .                                     : SECTION
TWP .                                     : TOWNSHIP
RGE .                                     : RANGE
LOC . 520'FNL & 4250'FEL OF THE J.CHAMBLIS SURVEY, A-123 : LOCATION
EKB .F                      519 : ELEVATION KELLY BUSHING
EDF .F                      518 : ELEVATION DERRICK FLOOR
EGL .F                      512 : ELEVATION GROUND LEVEL
PDAT.                        GL : PERMANENT DATUM
EPD .                       512 : ELEVATION PERMANENT DATUM
APD .                         7 : ABOVE PERMANENT DATUM
LMF .                        KB : LOG MEASURED FROM
DMF .                        KB : DRILLING MEASURED FROM
API .            42337343900000 : API NUMBER
UWI .                           : UWI NUMBER
DIGC.                     NthDS : DIGITIZING COMPANY
~Params ----------------------------------------------------
SRVC. PIONEER WIRELINE SERVICES : LOGGING COMPANY
LOG .                      CNFD : LOG
DATE.                2010-10-13 : RUN DATE
RUN .                         1 : RUN NUMBER
TDD .F                     1298 : TOTAL DEPTH DRILLER
TDL .F                     1280 : TOTAL DEPTH LOGGER
BOTL.F                     1280 : BOTTOM LOGGED INTERVAL
TOPL.F                       50 : TOP LOGGED INTERVAL
CSGS.IN                         : CASING SIZE
CSGD.F                          : CASING DRILLER
CSGL.F                          : CASING LOGGER
BS  .IN                   7.875 : BIT SIZE
MUD .                  GEL-CHEM : MUD TYPE
MUDD.                           : MUD DENSITY
MUDV.                           : MUD VISCOSITY
PH  .                           : MUD PH
FL  .                           : FLUID LOSS
MUDS.                  FLOWLINE : SOURCE OF SAMPLE
RM  .OHMM                   3.6 : MUD RESISTIVITY
RMT .DEGF                    72 : RM TEMPERATURE
RMF .OHMM                   2.7 : MUD FILTRATE RESISTIVITY
RMFT.DEGF                    72 : RMF TEMPERATURE
RMC .OHMM                   4.5 : MUD CAKE RESISTIVITY
RMCT.DEGF                    72 : RMC TEMPERATURE
RMFS.                      CALC : RMF SOURCE
RMCS.                      CALC : RMC SOURCE
RMBH.OHMM                   3.0 : MUD RESISTIVITY AT BHT
BHT .DEGF                    85 : BOTTOM HOLE TEMPERATURE
TIMC.           0245 2010-10-13 : TIME CIRCULATION STOPPED
TIML.           0540 2010-10-13 : TIME LOGGER ON BOTTOM
TMAX.DEGF                    85 : MAXIMUM RECORDED TEMPERATURE
UNIT.                      M-19 : EQUIPMENT NUMBER
BASE.             GRAHAM, TEXAS : BASE LOCATION
ENG .                    WENDEL : RECORDED BY
WIT .           WOMBLE/BURLESON : WITNESSED BY
~Curve Information -----------------------------------------
DEPT.F          :DEPTH
CALI.IN         :
DPHI.PU         :
GRD.GAPI        :
MINV.OHMM       :
MNOR.OHMM       :
NPHI.PU         :
RHOC.G/CC       :
~ASCII ------------------------------------------------------
# ...
425.50000        8.15356       16.77448       88.56483        7.09063        7.20749       20.91759        0.07891
426.00000        8.09026       17.21462       87.81201        8.20973        8.20674       20.69219        0.07202
426.50000        8.08127       17.78520       85.43231        8.38951        8.42696       21.44092        0.07049
427.00000        8.07060       18.33193       83.74058        8.02996        8.23970       21.63511        0.06891
427.50000        8.06180       18.74457       88.59584        7.19101        7.98951       20.69421        0.06075
428.00000        8.07865       18.99763       94.39284        7.64045        8.16479       20.86805        0.05393
428.50000        8.10674       19.20877       97.04885        7.41573        8.19625       25.32825        0.06142
429.00000        8.21910       19.61626       97.47178        7.00374        7.34082       27.40040        0.06768
429.50000        8.41760       20.29104       98.77723        6.08239        6.89138       28.39545        0.06618
430.00000        8.57678       21.47404      100.65787        5.84269        5.99251       28.15499        0.06210
430.50000        8.65918       22.45957       98.28945        5.74232        5.99251       28.60768        0.06517
431.00000        8.64906       22.92079       95.58268        5.43670        5.99251       28.46175        0.09483
431.50000        8.57715       22.39646       96.00562        5.52659        5.99251       28.09248        0.13041
432.00000        8.50506       21.84376       97.08550        5.11011        5.20599       26.57568        0.14232
432.50000        8.43708       21.29143       94.61558        5.24344        5.19401       23.11113        0.13367
433.00000        8.41573       20.62021       89.37968        4.58427        5.14307       22.32717        0.12026
433.50000        8.41161       20.02683       87.21709        4.94382        5.16854       22.29122        0.11528
434.00000        8.40112       19.43345       87.68795        6.92884        8.68913       22.43506        0.11183
434.50000        8.37828       18.93284       88.11088       11.08614       11.47565       23.56559        0.10195
435.00000        8.29082       19.16432       88.53381        6.74157        7.04120       27.40809        0.08150
435.50000        8.23221       19.87124       88.53381        6.87041        6.70412       28.31263        0.06517
436.00000        8.18727       20.75507       88.53381        6.72060        6.59176       25.45083        0.06517
436.50000        8.14981       21.00688       88.53381        5.69288        6.05243       21.10756        0.06891
437.00000        8.13989       20.61437       85.18419        7.09063        6.59176       20.36729        0.07850
437.50000        8.15019       19.96600       81.06201        7.79026        8.20224       21.68615        0.08888
438.00000        8.12678       19.43929       79.60430       10.30711       10.71161       23.98440        0.08764
438.50000        8.07322       19.12626       78.77818        9.17603       10.18726       24.26747        0.07517
439.00000        8.02865       19.17129       80.35712        7.90711        8.00449       22.81056        0.06667
439.50000        7.98408       19.33660       83.17667        7.80674        7.91910       22.49854        0.05768
440.00000        8.02247       19.22231       84.95017        8.50936        8.56030       23.39668        0.06330
440.50000        8.03427       18.94042       84.34397       10.60674        9.28839       25.04220        0.06891
441.00000        8.04588       18.60215       82.89472       11.68539       11.53558       26.16030        0.06142
441.50000        8.05992       18.37675       83.95205        8.08988        8.23970       25.44275        0.05041
442.00000        8.04438       18.47150       87.96990        9.43820        9.13857       22.09383        0.03719
442.50000        8.02565       18.84095       86.74904        9.88764        9.02621       20.24885        0.02618
443.00000        8.02247       19.21969       84.72742        9.61797        8.74606       19.77223        0.03022
443.50000        8.02247       19.69761       85.43231        8.80898        8.06442       23.12509        0.03959
444.00000        8.01124       20.48276       92.76314        7.34082        7.19101       27.41957        0.04644
444.50000        7.98315       21.56633       96.42855        6.92884        6.76254       29.79303        0.05270
445.00000        7.99157       22.49309       98.59114        4.64419        5.29288       30.01963        0.06019
445.50000        8.03371       23.35368       97.13344        4.40449        4.34457       30.02027        0.07764
446.00000        8.07584       23.20362       95.48964        5.12359        5.13108       30.02090        0.10198
446.50000        8.12640       22.42568       93.55261        5.99251        5.61797       30.02154        0.11217
447.00000        8.12228       21.34831       93.32705        5.77827        5.65543       30.02218        0.11554
447.50000        8.06610       19.98330       95.65317        4.94382        5.09363       30.02292        0.12228
448.00000        8.00374       18.99106       96.76689        6.22771        6.37753       28.42277        0.13007
448.50000        7.96404       18.04664       95.51220        6.74157        7.02022       26.77252        0.13633
449.00000        7.95693       17.14340       92.72366        5.99251        6.77153       24.45033        0.13633
449.50000        7.95112       16.58430       91.11088        6.04944        6.14232       23.13278        0.10824
450.00000        7.95412       16.40371       90.46802        6.14232        6.24269       22.14577        0.08015
450.50000        7.98139       16.69737       89.99436        7.55555        7.45629       20.79876        0.04370
451.00000        7.99793       16.92669       90.16852        8.42370        8.71555       19.50621        0.02552
451.50000        8.01128       17.12759       90.16852       10.07407       10.05777       19.70147        0.02304
452.00000        8.01128       17.19503       87.35953       10.00000        9.97481       21.28891        0.02100
452.50000        8.00451       16.96614       86.47751        9.92592        9.30370       21.71515        0.01893
453.00000        7.98402       16.70807       87.41571        7.70370        7.43703       21.84119        0.02315
453.50000        7.98120       16.62603       88.76402        6.87407        7.08148       22.35757        0.02778
454.00000        8.00000       16.84709       88.36234        6.88889        8.14814       22.94032        0.03333
454.50000        8.02256       17.37361       85.50560        7.03703        7.09185       22.40645        0.03844
455.00000        8.04135       17.78735       82.13481        7.40740        7.55555       20.18483        0.04559
455.50000        8.06767       18.16364       80.61796        7.85185        8.22222       17.91313        0.05415
456.00000        8.07350       18.47709       80.05616        8.69185        9.11111       17.56330        0.05133
456.50000        8.05169       18.85339       79.55054        9.22814        9.54074       20.33319        0.04496
457.00000        8.03289       19.27350       82.07863        8.44444        8.87407       25.62953        0.04174
457.50000        8.04737       19.85287       87.69661        6.22222        6.48889       29.65275        0.04681
458.00000        8.06184       20.62052       92.83706        5.54666        5.92592       29.45215        0.05556
458.50000        8.09267       21.56008       94.66290        5.13629        5.77778       28.05781        0.07407
459.00000        8.12406       22.68754       93.09829        4.00000        4.14815       27.36733        0.08718
459.50000        8.20338       23.52681       91.06739        4.22222        4.71111       27.14257        0.09430
460.00000        8.21598       23.85315       87.86515        5.48148        5.80740       26.33201        0.10222
