~Version ---------------------------------------------------
VERS. 2.0 : CWLS LOG ASCII STANDARD - VERSION 2.0
WRAP. NO  : One line per depth step
DLM . SPACE : Column Data Section Delimiter
~Well ------------------------------------------------------
STRT.F         48.5 : START DEPTH
STOP.F       1449.0 : STOP DEPTH
STEP.F          0.5 : STEP
NULL.       -999.25 : NULL VALUE
COMP.                 WALSH & WATTS, INC. : COMPANY
WELL.                         HOWARD F 14 : WELL
FLD .             MONTAGUE COUNTY REGULAR : FIELD
CNTY.                            MONTAGUE : COUNTY
STAT.                               TEXAS : STATE
CTRY.                                 USA : COUNTRY
SEC .                                     : SECTION
TWP .                                     : TOWNSHIP
RGE .                                     : RANGE
LOC . 1430'FEL & 2600'FSL OF THE J.CHAMBLIS SURVEY A-123 : LOCATION
EKB .F                      849 : ELEVATION KELLY BUSHING
EDF .F                      848 : ELEVATION DERRICK FLOOR
EGL .F                      841 : ELEVATION GROUND LEVEL
PDAT.                        GL : PERMANENT DATUM
EPD .                       841 : ELEVATION PERMANENT DATUM
APD .                         8 : ABOVE PERMANENT DATUM
LMF .                        KB : LOG MEASURED FROM
DMF .                        KB : DRILLING MEASURED FROM
API .            42337351020000 : API NUMBER
UWI .                           : UWI NUMBER
DIGC.                     NthDS : DIGITIZING COMPANY
~Params ----------------------------------------------------
SRVC. PIONEER WIRELINE SERVICES : LOGGING COMPANY
LOG .                      DIFL : LOG
DATE.                2013-08-01 : RUN DATE
RUN .                         1 : RUN NUMBER
TDD .F                     1450 : TOTAL DEPTH DRILLER
TDL .F                     1449 : TOTAL DEPTH LOGGER
BOTL.F                     1449 : BOTTOM LOGGED INTERVAL
TOPL.F                       50 : TOP LOGGED INTERVAL
CSGS.IN                         : CASING SIZE
CSGD.F                          : CASING DRILLER
CSGL.F                          : CASING LOGGER
BS  .IN                   7.875 : BIT SIZE
MUD .                       GEL : MUD TYPE
MUDD.                       9.2 : MUD DENSITY
MUDV.                        75 : MUD VISCOSITY
PH  .                           : MUD PH
FL  .                           : FLUID LOSS
MUDS.                  FLOWLINE : SOURCE OF SAMPLE
RM  .OHMM                   2.8 : MUD RESISTIVITY
RMT .DEGF                    72 : RM TEMPERATURE
RMF .OHMM                   2.1 : MUD FILTRATE RESISTIVITY
RMFT.DEGF                    72 : RMF TEMPERATURE
RMC .OHMM                   3.5 : MUD CAKE RESISTIVITY
RMCT.DEGF                    72 : RMC TEMPERATURE
RMFS.                      CALC : RMF SOURCE
RMCS.                      CALC : RMC SOURCE
RMBH.OHMM                   2.3 : MUD RESISTIVITY AT BHT
BHT .DEGF                    87 : BOTTOM HOLE TEMPERATURE
TIMC.           0130 2018-08-01 : TIME CIRCULATION STOPPED
TIML.           0400 2018-08-01 : TIME LOGGER ON BOTTOM
TMAX.DEGF                    87 : MAXIMUM RECORDED TEMPERATURE
UNIT.                     C-052 : EQUIPMENT NUMBER
BASE.                GRAHAM, TX : BASE LOCATION
ENG .                    WENDEL : RECORDED BY
WIT .                  BURLESON : WITNESSED BY
~Curve Information -----------------------------------------
DEPT.F          :DEPTH
CILD.MMHO       :
GRR.GAPI        :
RILD.OHMM       :
RILM.OHMM       :
RSFL.OHMM       :
SP.MV           :
~ASCII ------------------------------------------------------
# ...
409.50000       84.56861       74.86237       11.88564       12.39616       13.25900      157.35291
410.00000       91.92000       93.57796       10.83702       11.20406        9.11219      157.35291
410.50000       96.51511      103.41190       10.32441       10.61322        9.38830      158.08820
411.00000      100.19281      107.79080        9.91609       10.08516        9.77367      158.45585
411.50000      103.87050      112.50548        9.44705        9.48527        9.46455      158.45585
412.00000      109.38705      116.21007        9.06019        8.92180        9.26597      158.82349
412.50000      111.22990      120.32474        8.99584        8.76578        9.07183      159.92643
413.00000      113.99017      123.77887        8.91892        8.58187        9.86615      159.58820
413.50000      116.75445      125.64217        8.85557        8.43109       10.11679      159.30511
414.00000      117.67988      122.49630        8.70705        8.25419        9.86296      158.87129
414.50000      119.52273      117.09080        8.54734        8.18361        9.29737      158.47055
415.00000      119.53073      110.60364        8.59149        8.16729        8.69107      157.99261
415.50000      118.62532      106.98163        8.64434        8.14801        7.98853      157.51099
416.00000      119.55075      109.32108        8.68826        8.13175        7.59404      156.98526
416.50000      120.47618      111.37704        8.49382        8.09756        8.12143      156.24996
417.00000      124.15787      111.92750        8.30442        8.04928        9.36820      155.51467
417.50000      125.08330      109.08163        8.14891        8.00893        9.60619      155.14702
418.00000      125.09131      107.32016        8.03654        7.96118        9.20895      154.04408
418.50000      126.01674      106.95410        7.93905        7.91372        9.05400      154.04408
419.00000      126.94617      106.51374        7.85883        7.78056        8.60689      153.30879
419.50000      128.78902      107.61465        7.76742        7.62373        8.12289      152.90805
420.00000      131.54929      108.53117        7.70706        7.49545        7.92932      152.81982
420.50000      133.39214      109.90731        7.61870        7.34436        7.77668      152.72055
421.00000      137.99126      111.33851        7.45133        7.19632        8.38676      152.61761
421.50000      138.91669      112.29355        7.31425        7.16989        8.96921      152.52938
422.00000      138.00728      111.13209        7.28166        7.23344        8.38405      152.42644
422.50000      134.34960      108.22566        7.40847        7.37055        7.64201      152.34188
423.00000      131.60534      105.47337        7.56330        7.53853        7.45028      152.23894
423.50000      128.86107      102.71833        7.72201        7.71033        7.51188      152.38232
424.00000      125.19939       98.88713        7.85582        7.96628        8.30846      152.60658
424.50000      119.70687       94.28530        8.11842        8.37716       10.51299      152.87497
425.00000      113.29292       92.61466        8.51444        8.80949       12.12726      153.09555
425.50000      107.79639       94.06787        9.01556        9.50059       11.24112      153.36394
426.00000      105.05213       97.00181        9.54618        9.95286       10.59650      153.63232
426.50000      100.47702       99.08255        9.88467       10.22117       12.64185      153.62129
427.00000      100.48503       99.90823       10.07174       10.45060       13.74876      153.53673
427.50000       99.57561      100.18346       10.23077       10.60311       12.74452      153.44849
428.00000       98.66620      101.28438       10.38502       10.78926       12.95844      153.37864
428.50000       96.84336      103.21099       10.50353       10.97775       14.33216      153.19482
429.00000       95.93395      104.03667       10.60228       11.04095       14.57316      152.62864
429.50000       97.77680      104.03667       10.72327       10.96313       12.62924      151.95217
430.00000       98.70222      103.21099       10.63189       10.83684       10.86605      151.90438
430.50000      101.46650      102.66053       10.37474       10.63718       11.86329      151.97055
431.00000      105.14420      102.66053       10.12295       10.39212       13.50156      152.04776
431.50000      105.15220      102.66053        9.91752       10.19151       14.80821      152.12864
432.00000      103.32937      101.00915        9.67764        9.95673       15.44155      152.21688
432.50000      100.58511      101.00915        9.65886        9.87076       13.84008      152.28673
433.00000       99.67569      100.18346        9.82541       10.04181       10.30882      152.34555
433.50000       99.68370       98.25686       10.02991       10.25081        8.00837      152.41173
434.00000      102.44797       97.43117       10.11315       10.36025        8.78340      152.48158
434.50000      102.45598       97.43117       10.05200       10.16423       13.71489      152.94114
435.00000      100.62914      100.18346        9.99039       10.46342       16.08921      152.94114
435.50000       98.80230      101.83484       10.05552       10.80531       16.63681      153.30879
436.00000       95.14462      102.38530       10.34803       10.93414       14.05836      153.67644
436.50000       96.98747       97.98163       10.59843       10.79819       11.10678      154.04408
437.00000       98.83032       93.57796       10.40578       10.63674        9.22884      154.77938
437.50000       99.75575       94.12842       10.12169       10.51833       11.48278      155.14702
438.00000       99.76776       98.53209       10.15175       10.49558       13.93160      155.88232
438.50000       99.77577      102.11007       10.18759       10.67175       11.38293      156.24996
439.00000       99.78377      101.83484       10.21871       10.82113        9.86484      156.61761
439.50000       98.87836       99.63301       10.25479       10.70246        9.69857      156.98526
440.00000       99.80379       96.88071       10.31006       10.58599       11.28195      157.35291
440.50000       97.97695       92.20181       10.43680       10.58800       14.39646      157.72055
441.00000       96.15011       88.34860       10.59147       10.67106       15.92262      158.08820
441.50000       94.32727       92.75227       10.72167       10.74063       14.27127      158.49261
442.00000       95.25270      102.11007       10.66582       10.80669       10.90164      158.72055
442.50000       97.09555      106.78897       10.61026       10.78572        9.77073      158.91173
443.00000       98.93840      103.21099       10.56418       10.76782       10.89812      159.13967
443.50000       99.86784       99.97704       10.40361       10.74693       14.02373      159.33085
444.00000       98.95842       95.16053       10.14258       10.72517       15.12433      159.55879
444.50000       97.13158       93.34126       10.21214       10.68668       14.62136      159.45217
445.00000       99.89586       96.81190       10.38356       10.54196       12.99482      159.36026
445.50000      101.73871      101.55961       10.38815       10.42316       10.43105      159.25364
446.00000      105.41640      106.23851       10.28201       10.12155        9.16752      159.14702
446.50000      108.17668      105.13759        9.87175        9.67610       10.76423      159.05511
447.00000      109.10611      103.76144        9.49490        9.32003       12.03963      158.94849
447.50000      108.19669      102.11007        9.19692        9.10303       12.55456      158.86026
448.00000      105.45243      100.73392        9.16854        9.25143       10.43213      158.94482
448.50000      104.54301       99.63301        9.31773        9.43366        8.96486      159.12864
449.00000      102.72018       99.90823        9.47015        9.64378        8.10273      159.05511
