~Version ---------------------------------------------------
VERS. 2.0 : CWLS LOG ASCII STANDARD - VERSION 2.0
WRAP. NO  : One line per depth step
DLM . SPACE : Column Data Section Delimiter
~Well ------------------------------------------------------
STRT.F           40 : START DEPTH
STOP.F       1271.0 : STOP DEPTH
STEP.F          0.5 : STEP
NULL.       -999.25 : NULL VALUE
COMP.                 WALSH & WATTS, INC. : COMPANY
WELL.                         HOWARD G 17 : WELL
FLD .             MONTAGUE COUNTY REGULAR : FIELD
CNTY.                            MONTAGUE : COUNTY
STAT.                               TEXAS : STATE
CTRY.                                 USA : COUNTRY
SEC .                                     : SECTION
TWP .                                     : TOWNSHIP
RGE .                                     : RANGE
LOC . 520'FNL & 4250'FEL OF THE J.CHAMBLIS SURVEY, A-123 : LOCATION
EKB .F                      519 : ELEVATION KELLY BUSHING
EDF .F                      518 : ELEVATION DERRICK FLOOR
EGL .F                      512 : ELEVATION GROUND LEVEL
PDAT.                        GL : PERMANENT DATUM
EPD .                       512 : ELEVATION PERMANENT DATUM
APD .                         7 : ABOVE PERMANENT DATUM
LMF .                        KB : LOG MEASURED FROM
DMF .                        KB : DRILLING MEASURED FROM
API .            42337343900000 : API NUMBER
UWI .                           : UWI NUMBER
DIGC.                     NthDS : DIGITIZING COMPANY
~Params ----------------------------------------------------
SRVC. PIONEER WIRELINE SERVICES : LOGGING COMPANY
LOG .                      CNFD : LOG
DATE.                2010-10-13 : RUN DATE
RUN .                         1 : RUN NUMBER
TDD .F                     1298 : TOTAL DEPTH DRILLER
TDL .F                     1280 : TOTAL DEPTH LOGGER
BOTL.F                     1280 : BOTTOM LOGGED INTERVAL
TOPL.F                       50 : TOP LOGGED INTERVAL
CSGS.IN                         : CASING SIZE
CSGD.F                          : CASING DRILLER
CSGL.F                          : CASING LOGGER
BS  .IN                   7.875 : BIT SIZE
MUD .                  GEL-CHEM : MUD TYPE
MUDD.                           : MUD DENSITY
MUDV.                           : MUD VISCOSITY
PH  .                           : MUD PH
FL  .                           : FLUID LOSS
MUDS.                  FLOWLINE : SOURCE OF SAMPLE
RM  .OHMM                   3.6 : MUD RESISTIVITY
RMT .DEGF                    72 : RM TEMPERATURE
RMF .OHMM                   2.7 : MUD FILTRATE RESISTIVITY
RMFT.DEGF                    72 : RMF TEMPERATURE
RMC .OHMM                   4.5 : MUD CAKE RESISTIVITY
RMCT.DEGF                    72 : RMC TEMPERATURE
RMFS.                      CALC : RMF SOURCE
RMCS.                      CALC : RMC SOURCE
RMBH.OHMM                   3.0 : MUD RESISTIVITY AT BHT
BHT .DEGF                    85 : BOTTOM HOLE TEMPERATURE
TIMC.           0245 2010-10-13 : TIME CIRCULATION STOPPED
TIML.           0540 2010-10-13 : TIME LOGGER ON BOTTOM
TMAX.DEGF                    85 : MAXIMUM RECORDED TEMPERATURE
UNIT.                      M-19 : EQUIPMENT NUMBER
BASE.             GRAHAM, TEXAS : BASE LOCATION
ENG .                    WENDEL : RECORDED BY
WIT .           WOMBLE/BURLESON : WITNESSED BY
~Curve Information -----------------------------------------
DEPT.F          :DEPTH
CALI.IN         :
DPHI.PU         :
GRD.GAPI        :
MINV.OHMM       :
MNOR.OHMM       :
NPHI.PU         :
RHOC.G/CC       :
~ASCII ------------------------------------------------------
# ...
1158.50000        7.89401       12.79245      102.02828        4.43609        3.19549       19.18076        0.03459
1159.00000        7.91105       13.40566       99.90564        4.43609        2.91278       18.29094        0.02090
1159.50000        7.91573       13.87434      100.75469        4.33534        3.28722       17.48415        0.02913
1160.00000        7.92135       14.11849      104.99998        3.89774        3.20752       18.25661        0.03583
1160.50000        7.92603       14.22642      109.85092        3.45865        2.79098       19.74717        0.04210
1161.00000        7.93165       14.61472      114.81224        3.72932        2.70677       22.53774        0.04962
1161.50000        7.93633       14.93811      113.37733        3.10827        2.48120       24.16981        0.05590
1162.00000        7.94101       15.06415      108.96224        3.60902        2.55639       25.45925        0.06214
1162.50000        7.94663       14.77359      104.05752        3.20752        2.70677       26.06604        0.06966
1163.00000        7.93876       14.41510      102.16979        3.45865        2.54586       26.20755        0.07218
1163.50000        7.92547       14.23396      102.16979        3.12782        2.49624       25.44151        0.07218
1164.00000        7.91461       14.50302      100.81130        2.82707        2.43609       23.12264        0.05966
1164.50000        7.90356       15.10679       96.50941        2.97744        2.44962       19.73585        0.05056
1165.00000        7.89026       15.69811       88.44338        3.30827        2.55639       18.11321        0.05526
1165.50000        7.87921       16.83019       80.66036        7.30376        4.36090       17.57547        0.05714
1166.00000        7.84064       17.84415       70.84810        9.12330       11.61654       17.43396        0.05241
1166.50000        7.78708       19.14151       67.07546        7.59398        5.51428       17.95811        0.04447
1167.00000        7.73352       20.13208       66.41602        7.81955        4.66165       18.86793        0.03500
1167.50000        7.73839       20.61321       72.11319        7.86917        5.71428       19.38113        0.02707
1168.00000        7.75412       20.15094       77.83017        3.39398        3.45865       18.94340        0.04376
1168.50000        7.77285       19.33321       78.60847        3.23308        2.55639       16.18868        0.06466
1169.00000        7.78839       18.94340       73.07545        5.48872        3.40902       15.20755        0.08346
1169.50000        7.80393       19.22642       64.03300        8.30827        4.66165       14.86793        0.07688
1170.00000        7.80618       19.86528       53.20753        8.97894        8.12030       14.70755        0.05996
1170.50000        7.78071       20.41510       47.68867        8.72180       11.87969       14.61321        0.04586
1171.00000        7.76816       20.06793       49.03301        9.84962       11.12781       14.69811        0.03477
1171.50000        7.78783       19.08302       57.64244        9.28571        8.67819       15.09434        0.03579
1172.00000        7.81161       17.93208       75.51791        4.96240        3.15789       17.21396        0.03665
1172.50000        7.83127       16.79245       92.54715        5.06316        3.60902       20.26415        0.03748
1173.00000        7.83315       15.52830      102.16979        4.06015        3.05714       23.00000        0.03759
1173.50000        7.83034       15.02830      108.11318        4.06015        2.55639       22.90566        0.03383
1174.00000        7.82790       15.07547      107.83016        3.95489        2.42406       22.05283        0.03007
1174.50000        7.82491       15.33170      106.55658        3.32331        2.26466       21.26038        0.02556
1175.00000        7.82247       15.50944      104.37733        3.60902        2.13233       20.92453        0.02545
1175.50000        7.81985       15.39623      101.45375        4.12030        2.76240       21.41774        0.03083
1176.00000        7.81704       15.11321       97.94432        4.30075        3.10075       21.84906        0.03440
1176.50000        7.81086       14.79774       94.33866        3.90977        2.85714       20.94340        0.03737
1177.00000        7.80243       14.60378       86.03772        4.09774        2.79699       19.09434        0.04034
1177.50000        7.79532       15.20755       73.24527        8.22105        6.81052       17.37359        0.03699
1178.00000        7.78839       16.38151       63.25470       14.90375       14.19999       16.69547        0.02842
1178.50000        7.77996       18.18453       51.50942       16.67067       25.26315       16.07547        0.01673
1179.00000        7.77285       19.98755       48.96225       13.50375       17.96992       15.29925       -0.00301
1179.50000        7.76442       20.68868       56.15093       14.28571       18.28119       15.41774        0.00639
1180.00000        7.75749       20.30679       69.05659        7.84962       11.99248       16.21019        0.01579
1180.50000        7.74869       19.62264       80.83017        4.36090        3.45865       17.07283        0.02237
1181.00000        7.74157       19.04038       85.01885        4.66165        3.24361       18.10793        0.02590
1181.50000        7.73221       18.84264       84.19809       11.12781        4.36090       18.97019        0.02944
1182.00000        7.72734       18.71698       81.22640        7.36842        5.67669       19.86415        0.03492
1182.50000        7.74963       18.22642       80.94338        6.06466        3.60902       21.08679        0.04004
1183.00000        7.77640       17.45472       85.11790        7.66917        6.46616       22.35208        0.04519
1183.50000        7.79869       16.52830       89.71696        4.28571        3.00752       23.79245        0.05132
1184.00000        7.81648       15.81132       91.83960        4.09774        2.44361       24.38491        0.05338
1184.50000        7.81648       15.69811       89.71696        3.90977        2.63158       23.58491        0.05338
1185.00000        7.81573       15.91585       86.88677        4.00000        2.70677       20.64151        0.04718
1185.50000        7.81124       16.27849       85.18866        4.66165        3.25865       19.24528        0.03944
1186.00000        7.80749       16.67283       84.48111        8.22105        4.17744       19.24528        0.03173
1186.50000        7.80374       16.83019       84.11319        5.11278        3.17895       19.14453        0.02707
1187.00000        7.79925       16.71698       86.07734        5.51428        3.38346       18.40415        0.02707
1187.50000        7.81124       16.55925       87.09904        5.11278        3.45865       18.09057        0.02707
1188.00000        7.83820       16.35962       87.16979        4.44661        3.22105       18.65396        0.02707
1188.50000        7.86067       16.12000       85.75470        4.66165        3.28271       19.90189        0.02707
1189.00000        7.88315       15.92000       86.67451        4.12481        2.63158       20.79245        0.02707
1189.50000        7.91011       15.67925       90.23488        4.10977        2.61053       21.41283        0.02707
1190.00000        7.90075       15.47887       93.30281        3.83458        2.81654       21.45510        0.02707
1190.50000        7.88951       15.13208       96.30847        3.69925        2.70677       20.91811        0.02639
1191.00000        7.88015       14.92453       97.68677        3.95940        2.60000       20.03774        0.02229
1191.50000        7.86142       15.01887       97.82262        3.79248        2.70677       19.84906        0.01880
1192.00000        7.83333       15.67547       97.93583        4.21052        2.77443       19.72944        0.01504
1192.50000        7.81648       16.18227       98.04903        4.29323        2.85714       20.07547        0.00575
