~Version ---------------------------------------------------
VERS. 2.0 : CWLS LOG ASCII STANDARD - VERSION 2.0
WRAP. NO  : One line per depth step
DLM . SPACE : Column Data Section Delimiter
~Well ------------------------------------------------------
STRT.F         48.5 : START DEPTH
STOP.F       1455.5 : STOP DEPTH
STEP.F          0.5 : STEP
NULL.       -999.25 : NULL VALUE
COMP.                 WALSH & WATTS, INC. : COMPANY
WELL.                         HOWARD F 25 : WELL
FLD .                            MONTAGUE : FIELD
CNTY.                            MONTAGUE : COUNTY
STAT.                               TEXAS : STATE
CTRY.                                 USA : COUNTRY
SEC .                                     : SECTION
TWP .                                     : TOWNSHIP
RGE .                                     : RANGE
LOC . 1115'FEL & 2300'FSL OF THE J.CHAMBLIS SURVEY A-123 : LOCATION
EKB .F                      512 : ELEVATION KELLY BUSHING
EDF .F                      511 : ELEVATION DERRICK FLOOR
EGL .F                      505 : ELEVATION GROUND LEVEL
PDAT.                        GL : PERMANENT DATUM
EPD .                       505 : ELEVATION PERMANENT DATUM
APD .                         7 : ABOVE PERMANENT DATUM
LMF .                        KB : LOG MEASURED FROM
DMF .                        KB : DRILLING MEASURED FROM
API .            42337343120000 : API NUMBER
UWI .                           : UWI NUMBER
DIGC.                     NthDS : DIGITIZING COMPANY
~Params ----------------------------------------------------
SRVC. PIONEER WIRELINE SERVICES : LOGGING COMPANY
LOG .                      DIFL : LOG
DATE.                2010-10-07 : RUN DATE
RUN .                         1 : RUN NUMBER
TDD .F                     1450 : TOTAL DEPTH DRILLER
TDL .F                     1452 : TOTAL DEPTH LOGGER
BOTL.F                     1452 : BOTTOM LOGGED INTERVAL
TOPL.F                       50 : TOP LOGGED INTERVAL
CSGS.IN                         : CASING SIZE
CSGD.F                          : CASING DRILLER
CSGL.F                          : CASING LOGGER
BS  .IN                   7.875 : BIT SIZE
MUD .                  GEL-CHEM : MUD TYPE
MUDD.                           : MUD DENSITY
MUDV.                           : MUD VISCOSITY
PH  .                           : MUD PH
FL  .                           : FLUID LOSS
MUDS.                  FLOWLINE : SOURCE OF SAMPLE
RM  .OHMM                   4.0 : MUD RESISTIVITY
RMT .DEGF                    72 : RM TEMPERATURE
RMF .OHMM                   3.0 : MUD FILTRATE RESISTIVITY
RMFT.DEGF                    72 : RMF TEMPERATURE
RMC .OHMM                   5.0 : MUD CAKE RESISTIVITY
RMCT.DEGF                    72 : RMC TEMPERATURE
RMFS.                      CALC : RMF SOURCE
RMCS.                      CALC : RMC SOURCE
RMBH.OHMM                     3 : MUD RESISTIVITY AT BHT
BHT .DEGF                    88 : BOTTOM HOLE TEMPERATURE
TIMC.           0730 2010-10-07 : TIME CIRCULATION STOPPED
TIML.           1020 2010-10-07 : TIME LOGGER ON BOTTOM
TMAX.DEGF                    88 : MAXIMUM RECORDED TEMPERATURE
UNIT.                      M-19 : EQUIPMENT NUMBER
BASE.                GRAHAM, TX : BASE LOCATION
ENG .                    WENDEL : RECORDED BY
WIT .           WOMBLE/BURLESON : WITNESSED BY
~Curve Information -----------------------------------------
DEPT.F          :DEPTH
CILD.MMHO       :
GRR.GAPI        :
RILD.OHMM       :
RILM.OHMM       :
RSFL.OHMM       :
SP.MV           :
~ASCII ------------------------------------------------------
# ...
1209.50000      342.71748       87.91207        2.91409        3.15746        3.78491      146.15381
1210.00000      342.72709       91.75822        2.91357        3.16090        3.65880      146.38092
1210.50000      342.73671       94.23075        2.91314        3.16363        3.81573      146.71792
1211.00000      344.93179       95.32965        2.88038        3.16708        3.78301      146.85345
1211.50000      351.52096       92.03295        2.84783        3.13657        3.59580      146.75455
1212.00000      355.91068       89.28569        2.80940        3.04223        3.50534      146.65198
1212.50000      360.30040       90.10987        2.77172        2.95072        3.56434      146.57140
1213.00000      364.69012       91.75822        2.74040        2.90584        3.56382      146.41389
1213.50000      371.27011       96.97800        2.70342        2.86155        3.38736      146.23440
1214.00000      372.44592       98.35163        2.68363        2.85414        3.30224      146.01828
1214.50000      373.63091       98.62635        2.66991        2.84498        3.41494      145.80583
1215.00000      374.80672       98.07690        2.65373        2.83610        3.38566      145.62634
1215.50000      376.57502       97.80218        2.65065        2.82875        3.32854      145.41389
1216.00000      377.75083       96.70327        2.65019        2.81968        3.41323      145.23440
1216.50000      376.76872       98.35163        2.64972        2.81087        3.41273      145.05491
1217.00000      374.78571       99.45053        2.66344        2.82114        3.35505      145.05491
1217.50000      371.81579       99.99998        2.68440        2.83376        3.35446      145.05491
1218.00000      369.83278       98.07690        2.70194        2.87863        3.32580      144.95601
1218.50000      367.85895       96.15382        2.72205        2.93326        3.41042      144.78751
1219.00000      365.87594       93.68130        2.74000        2.98414        3.55679      144.76187
1219.50000      363.98038       92.30767        2.75489        3.00720        3.64730      144.90839
1220.00000      362.72280       90.38460        2.77305        3.03546        3.64665      145.02927
1220.50000      361.45603       86.81317        2.78835        3.05118        3.67700      145.05491
1221.00000      360.19845       87.08789        2.80673        3.03269        3.80249      145.05491
1221.50000      358.30289       87.36262        2.80624        3.01405        3.58386      145.05491
1222.00000      357.58708       87.63734        2.80583        2.99991        3.46446      145.05491
1222.50000      357.41304       89.01097        2.80533        2.98928        3.52277      145.42121
1223.00000      357.23901       89.83514        2.80492        2.98053        3.49267      145.42121
1223.50000      356.97795       89.28569        2.80442        2.98327        3.52163      145.78751
1224.00000      356.80392       89.01097        2.82339        2.99965        3.61124      145.78751
1224.50000      351.85492       89.83514        2.87196        3.01341        3.61070      146.52011
1225.00000      346.90593       91.48350        2.93166        3.08071        3.51987      146.52011
1225.50000      341.95694       92.03295        2.98209        3.22652        3.54916      146.88641
1226.00000      334.53345       91.48350        3.02514        3.35074        3.89351      146.88641
1226.50000      331.44852       87.63734        3.03022        3.41865        4.23540      147.25271
1227.00000      330.23685       87.36262        3.03463        3.42970        4.27065      147.25271
1227.50000      329.02518       89.28569        3.03999        3.39628        4.12824      147.61901
1228.00000      327.20308       94.23075        3.04510        3.34151        3.89099      147.98531
1228.50000      327.05660       95.60437        3.04953        3.27729        3.79310      147.98531
1229.00000      327.98447       94.78020        3.05491        3.21403        3.76058      147.98531
1229.50000      328.91235       92.58240        3.05936        3.21004        3.79187      148.35161
1230.00000      330.30417       90.65932        3.06450        3.21977        3.79120      148.35161
1230.50000      326.64074       88.73624        3.06991        3.22927        3.72724      149.08422
1231.00000      322.97731       86.26372        3.07802        3.41074        3.69528      149.08422
1231.50000      319.31388       85.43954        3.08787        3.60992        3.88641      149.45052
1232.00000      322.77179       83.79119        3.08820        3.64764        5.00466      149.45052
1232.50000      325.07705       82.14284        3.05115        3.51710        5.82413      149.81682
1233.00000      327.38232       82.96701        3.01455        3.30929        4.79644      149.81682
1233.50000      329.68759       85.16482        2.98400        3.23976        3.75505      149.81682
1234.00000      333.14549       96.42855        2.94597        3.15826        3.36450      150.18312
1234.50000      338.39838       98.35163        2.91464        3.10654        3.28382      150.54942
1235.00000      343.66045       99.72525        2.87749        3.07109        3.27633      150.91572
1235.50000      351.54437      100.82415        2.84082        3.10623        3.39130      150.91572
1236.00000      351.09485       99.72525        2.82344        3.14771        3.68919      151.28202
1236.50000      350.64534       98.62635        2.86395        3.19826        3.88001      151.28202
1237.00000      347.90017       92.30767        2.91216        3.24096        4.01255      151.28202
1237.50000      340.56851       92.85712        2.95303        3.29857        4.01184      151.64832
1238.00000      335.68379       93.95602        3.00274        3.35806        3.97745      151.28202
1238.50000      330.78990      100.27470        3.04462        3.38372        3.94346      151.28202
1239.00000      325.90518      102.74723        3.08805        3.37059        3.87681      151.28202
1239.50000      325.34548      101.92305        3.09245        3.35779        3.81140      151.28202
1240.00000      324.51510      101.37360        3.09617        3.34684        3.77872      150.91572
1240.50000      323.96458      100.27470        3.10033        3.33385        3.87487      150.91572
1241.00000      323.40487       98.90108        3.10406        3.32298        3.87430      150.91572
1241.50000      322.85435       97.80218        3.10849        3.31036        3.80882      150.91572
1242.00000      321.38119       96.15382        3.11897        3.31508        3.71300      150.18312
1242.50000      319.55428       97.52745        3.13328        3.39438        3.80759      149.81682
1243.00000      314.97260       99.72525        3.14517        3.49163        3.97089      148.35161
1243.50000      314.98221       97.25273        3.15400        3.55800        4.10654      146.15381
1244.00000      325.90558       95.05492        3.11879        3.55737        4.17566      144.68861
1244.50000      336.81495       95.46701        2.99452        3.40412        4.00252      143.22341
1245.00000      347.73351       99.58789        2.89475        3.28156        3.80445      141.02561
1245.50000      364.10216      100.27470        2.75304        3.11198        3.40876      139.92671
1246.00000      375.01153       93.68130        2.60572        2.89862        3.13268      138.46151
1246.50000      385.93009       85.43954        2.54195        2.78320        3.29461      137.36261
1247.00000      402.29874       75.54943        2.49646        2.68473        4.13645      137.36261
1247.50000      412.40923       65.65933        2.40658        2.66740        5.14993      136.99631
1248.00000      422.51971       57.41757        2.30291        2.64074        8.68619      136.63001
1248.50000      428.96196       51.00823        2.27394        2.58890       10.10879      136.26371
1249.00000      421.62549       49.65658        2.30994        2.54651        9.13412      135.89741
