~Version ---------------------------------------------------
VERS. 2.0 : CWLS LOG ASCII STANDARD - VERSION 2.0
WRAP. NO  : One line per depth step
DLM . SPACE : Column Data Section Delimiter
~Well ------------------------------------------------------
STRT.F           11 : START DEPTH
STOP.F       1399.0 : STOP DEPTH
STEP.F          0.5 : STEP
NULL.       -999.25 : NULL VALUE
COMP.                 WALSH & WATTS, INC. : COMPANY
WELL.                      HOWARD AB E 4E : WELL
FLD .             MONTAGUE COUNTY REGULAR : FIELD
CNTY.                            MONTAGUE : COUNTY
STAT.                                     : STATE
CTRY.                                 USA : COUNTRY
SEC .                                     : SECTION
TWP .                                     : TOWNSHIP
RGE .                                     : RANGE
LOC . 3250'FEL & 1590'FSL OF THE J.CHAMBLIS SURVEY A-123 : LOCATION
EKB .F                          : ELEVATION KELLY BUSHING
EDF .F                          : ELEVATION DERRICK FLOOR
EGL .F                          : ELEVATION GROUND LEVEL
PDAT.                        GL : PERMANENT DATUM
EPD .                           : ELEVATION PERMANENT DATUM
APD .                         8 : ABOVE PERMANENT DATUM
LMF .                        KB : LOG MEASURED FROM
DMF .                        KB : DRILLING MEASURED FROM
API .            42337348780000 : API NUMBER
UWI .                           : UWI NUMBER
DIGC.                     NthDS : DIGITIZING COMPANY
~Params ----------------------------------------------------
SRVC. PIONEER WIRELINE SERVICES : LOGGING COMPANY
LOG .                      DIFL : LOG
DATE.                2012-08-01 : RUN DATE
RUN .                         1 : RUN NUMBER
TDD .F                     1400 : TOTAL DEPTH DRILLER
TDL .F                     1396 : TOTAL DEPTH LOGGER
BOTL.F                     1394 : BOTTOM LOGGED INTERVAL
TOPL.F                       50 : TOP LOGGED INTERVAL
CSGS.IN                         : CASING SIZE
CSGD.F                          : CASING DRILLER
CSGL.F                          : CASING LOGGER
BS  .IN                   7.875 : BIT SIZE
MUD .                  CHEM-GEL : MUD TYPE
MUDD.                           : MUD DENSITY
MUDV.                           : MUD VISCOSITY
PH  .                           : MUD PH
FL  .                           : FLUID LOSS
MUDS.                  FLOWLINE : SOURCE OF SAMPLE
RM  .OHMM                   2.4 : MUD RESISTIVITY
RMT .DEGF                    73 : RM TEMPERATURE
RMF .OHMM                   1.8 : MUD FILTRATE RESISTIVITY
RMFT.DEGF                    73 : RMF TEMPERATURE
RMC .OHMM                   3.0 : MUD CAKE RESISTIVITY
RMCT.DEGF                    73 : RMC TEMPERATURE
RMFS.                      CALC : RMF SOURCE
RMCS.                      CALC : RMC SOURCE
RMBH.OHMM                   2.0 : MUD RESISTIVITY AT BHT
BHT .DEGF                    86 : BOTTOM HOLE TEMPERATURE
TIMC.           0200 2012-08-01 : TIME CIRCULATION STOPPED
TIML.           0430 2012-08-01 : TIME LOGGER ON BOTTOM
TMAX.DEGF                    86 : MAXIMUM RECORDED TEMPERATURE
UNIT.                       110 : EQUIPMENT NUMBER
BASE.                GRAHAM, TX : BASE LOCATION
ENG .                    WENDEL : RECORDED BY
WIT .           OVERBY/BURLESON : WITNESSED BY
~Curve Information -----------------------------------------
DEPT.F          :DEPTH
CILD.MMHO       :
GRR.GAPI        :
ILD.OHMM        :
ILM.OHMM        :
SFL.OHMM        :
SP.MV           :
~ASCII ------------------------------------------------------
# ...
572.50000      195.94864       78.22639        5.04090        5.32450        5.70330      154.27502
573.00000      198.12749       78.99996        4.90788        5.32359        5.83685      153.89419
573.50000      205.75167       79.51433        4.78083        5.29023        5.83598      152.46431
574.00000      211.46814       77.90792        4.63956        5.16108        5.84681      151.03176
574.50000      217.18461       75.10233        4.52157        4.96147        6.06517      150.06427
575.00000      222.90108       71.56193        4.46932        4.81526        6.33029      149.32771
575.50000      229.40368       70.62352        4.41052        4.71706        6.45352      149.32022
576.00000      231.57587       71.08389        4.35955        4.56459        6.79804      149.87165
576.50000      230.25041       76.87742        4.33666        4.40316        6.79688      150.63749
577.00000      226.52656       82.97175        4.41864        4.27804        6.51893      152.22891
577.50000      222.93596       85.81531        4.49151        4.33420        5.97319      154.35366
578.00000      216.22079       84.08370        4.57642        4.49047        5.96484      156.31948
578.50000      209.50562       81.15330        4.74822        4.72236        6.19521      158.66290
579.00000      202.79046       81.70487        4.97191        4.98566        6.27834      160.73006
579.50000      196.46170       86.44122        5.13770        5.12196        6.17046      161.90548
580.00000      190.91907       91.78555        5.29135        5.28259        5.74095      162.27665
580.50000      185.37645       95.90510        5.39138        5.41725        5.48347      162.09743
581.00000      180.56667       97.82346        5.45613        5.52181        5.40846      161.41527
581.50000      177.24255      102.43900        5.49349        5.64383        5.40754      160.95604
582.00000      173.81184      107.44134        5.58374        5.75242        5.44000      161.03548
582.50000      170.15462      113.07087        5.73909        5.90050        5.49881      161.65198
583.00000      166.00439      113.99924        5.90420        6.03954        5.67160      162.89941
583.50000      160.86816      111.27884        6.11269        6.20224        5.84241      164.05724
584.00000      155.73860      107.78645        6.34630        6.46025        6.01565      165.04867
584.50000      153.74692      105.75884        6.40639        6.57445        6.06664      165.65450
585.00000      153.75389      103.97443        6.44155        6.66552        6.03590      165.21927
585.50000      155.35979      103.16802        6.48779        6.70266        6.01097      164.22405
586.00000      157.76516      103.56240        6.47951        6.70686        6.01806      163.28323
586.50000      158.63156      106.11595        6.34386        6.59715        6.05964      163.03734
587.00000      159.49129      110.12430        6.23716        6.49694        6.03498      163.80050
587.50000      160.78407      115.51783        6.14191        6.36952        5.88765      165.83726
588.00000      161.92362      121.19616        6.15910        6.26007        5.73769      168.49641
588.50000      162.33033      126.93169        6.17887        6.22568        5.66674      172.04248
589.00000      163.00352      128.72606        6.19907        6.24527        5.68317      175.08189
589.50000      163.80996      128.51964        6.20004        6.26391        5.80568      176.50106
590.00000      166.31526      125.89004        6.13955        6.28671        5.95404      177.61782
590.50000      168.82055      124.05763        6.04777        6.11457        5.98171      178.14365
591.00000      171.77221      124.10121        5.90592        5.92371        5.82494      178.13509
591.50000      175.62327      128.09556        5.75220        5.73845        5.64381      178.12759
592.00000      179.47433      131.87110        5.64886        5.57516        5.47582      177.71903
592.50000      183.32538      135.20346        5.55611        5.37733        5.28994      176.61715
593.00000      187.17644      135.14303        5.42524        5.22913        5.15458      175.48966
593.50000      190.58113      133.27143        5.23754        5.14959        5.04605      173.56111
594.00000      193.98582      131.46502        5.13671        5.11438        5.09059      171.60697
594.50000      197.39051      132.05940        5.05558        5.06832        5.12964      168.82510
595.00000      201.19493      135.75294        4.96160        5.01579        5.15748      167.13655
595.50000      205.19922      138.52730        4.88054        4.97030        5.18304      167.36372
596.00000      205.77915      139.44087        4.78982        4.84896        5.09294      169.25381
596.50000      205.49965      136.88447        4.73494        4.77520        4.89506      171.11296
597.00000      205.22015      135.22886        4.70469        4.75052        4.79946      173.23772
597.50000      207.00593      134.10245        4.71950        4.72587        4.76255      174.60088
598.00000      208.78505      133.48283        4.73213        4.71387        4.84139      174.76298
598.50000      210.57083      132.32242        4.74702        4.70035        4.95141      174.36775
599.00000      211.77700      132.92799        4.74126        4.70590        4.97992      173.11760
599.50000      212.58344      133.99836        4.70663        4.71328        4.99437      171.77572
600.00000      212.52054      136.09998        4.70062        4.76977        5.04431      171.22664
600.50000      212.12779      135.99998        4.68551        4.77257        5.04355      171.19998
601.00000      209.86962      134.59998        4.75159        4.78289        4.99802      171.97331
601.50000      203.88063      130.11998        4.84598        4.85312        4.91968      172.96798
602.00000      197.89164      124.24998        5.03211        5.10990        5.03489      173.46664
602.50000      192.90198      116.67398        5.41382        5.61755        5.46355      172.66664
603.00000      185.38069      110.19998        5.88545        6.25944        6.44141      171.86664
603.50000      171.79681      106.59998        6.31599        6.88130        6.76450      169.87464
604.00000      162.32350      102.27198        6.65751        7.28015        6.61273      168.13331
604.50000      154.90881       95.73398        6.69749        7.59854        6.72095      166.77598
605.00000      152.46410       88.61599        6.66518        7.77027        7.45866      165.51998
605.50000      165.77112       85.39999        6.47261        7.61056        8.30294      164.30131
606.00000      183.19971       86.79999        5.91924        7.32655        8.53395      163.94931
606.50000      200.62163       92.39998        5.34572        6.68729        7.61683      163.40531
607.00000      218.04356       95.19998        4.89080        5.99702        6.74315      162.04798
607.50000      235.47215       97.19998        4.37673        4.91885        5.96627      160.86131
608.00000      252.90740       94.10998        3.85565        4.30645        5.38666      160.10398
608.50000      270.36263       88.14599        3.45088        3.83337        5.03822      159.86665
609.00000      287.81121       83.19999        3.35261        3.55975        5.07085      160.13331
609.50000      301.59791       80.59999        3.33365        3.39038        5.23352      161.54398
610.00000      290.61228       84.09999        3.33308        3.33308        5.33180      163.33331
610.50000      275.48944       97.39998        3.53913        3.55437        5.29644      167.19998
611.00000      260.35993      109.64998        3.79027        3.82532        5.17380      170.58398
611.50000      250.08483      118.86598        4.08555        4.19607        5.12185      173.19998
612.00000      234.38904      123.57198        4.45128        4.68904        5.14397      174.53331
