~Version ---------------------------------------------------
VERS. 2.0 : CWLS LOG ASCII STANDARD - VERSION 2.0
WRAP. NO  : One line per depth step
DLM . SPACE : Column Data Section Delimiter
~Well ------------------------------------------------------
STRT.F           11 : START DEPTH
STOP.F       1368.0 : STOP DEPTH
STEP.F          0.5 : STEP
NULL.       -999.25 : NULL VALUE
COMP.                 WALSH & WATTS, INC. : COMPANY
WELL.                      HOWARD AB E 4E : WELL
FLD .             MONTAGUE COUNTY REGULAR : FIELD
CNTY.                            MONTAGUE : COUNTY
STAT.                                     : STATE
CTRY.                                 USA : COUNTRY
SEC .                                     : SECTION
TWP .                                     : TOWNSHIP
RGE .                                     : RANGE
LOC . 3250'FEL & 1590'FSL OF THE J.CHAMBLIS SURVEY A-123 : LOCATION
EKB .F                          : ELEVATION KELLY BUSHING
EDF .F                          : ELEVATION DERRICK FLOOR
EGL .F                          : ELEVATION GROUND LEVEL
PDAT.                        GL : PERMANENT DATUM
EPD .                           : ELEVATION PERMANENT DATUM
APD .                         8 : ABOVE PERMANENT DATUM
LMF .                        KB : LOG MEASURED FROM
DMF .                        KB : DRILLING MEASURED FROM
API .            42337348780000 : API NUMBER
UWI .                           : UWI NUMBER
DIGC.                     NthDS : DIGITIZING COMPANY
~Params ----------------------------------------------------
SRVC. PIONEER WIRELINE SERVICES : LOGGING COMPANY
LOG .                      CNFD : LOG
DATE.                2012-08-01 : RUN DATE
RUN .                         1 : RUN NUMBER
TDD .F                     1400 : TOTAL DEPTH DRILLER
TDL .F                     1396 : TOTAL DEPTH LOGGER
BOTL.F                     1368 : BOTTOM LOGGED INTERVAL
TOPL.F                       50 : TOP LOGGED INTERVAL
CSGS.IN                         : CASING SIZE
CSGD.F                          : CASING DRILLER
CSGL.F                          : CASING LOGGER
BS  .IN                   7.875 : BIT SIZE
MUD .                  CHEM-GEL : MUD TYPE
MUDD.                           : MUD DENSITY
MUDV.                           : MUD VISCOSITY
PH  .                           : MUD PH
FL  .                           : FLUID LOSS
MUDS.                  FLOWLINE : SOURCE OF SAMPLE
RM  .OHMM                   2.4 : MUD RESISTIVITY
RMT .DEGF                    73 : RM TEMPERATURE
RMF .OHMM                   1.8 : MUD FILTRATE RESISTIVITY
RMFT.DEGF                    73 : RMF TEMPERATURE
RMC .OHMM                   3.0 : MUD CAKE RESISTIVITY
RMCT.DEGF                    73 : RMC TEMPERATURE
RMFS.                      CALC : RMF SOURCE
RMCS.                      CALC : RMC SOURCE
RMBH.OHMM                   2.0 : MUD RESISTIVITY AT BHT
BHT .DEGF                    86 : BOTTOM HOLE TEMPERATURE
TIMC.           0200 2012-08-01 : TIME CIRCULATION STOPPED
TIML.           0430 2012-08-01 : TIME LOGGER ON BOTTOM
TMAX.DEGF                    86 : MAXIMUM RECORDED TEMPERATURE
UNIT.                       110 : EQUIPMENT NUMBER
BASE.                GRAHAM, TX : BASE LOCATION
ENG .                    WENDEL : RECORDED BY
WIT .           OVERBY/BURLESON : WITNESSED BY
~Curve Information -----------------------------------------
DEPT.F          :DEPTH
CALD.IN         :
DPHI.V/V        :
GRD.GAPI        :
NPHI.%          :
PEC.B/E         :
RLML.OHMM       :
RNML.OHMM       :
ZCOR.G/C3       :
~ASCII ------------------------------------------------------
# ...
1159.00000        7.73112        0.28007       65.19336       17.45226        2.25459       11.72563       13.86281        0.00505
1159.50000        7.73112        0.27411       68.50827       17.30020        2.17912       10.68592       13.64620        0.01664
1160.00000        7.71271        0.27301       67.12706       17.85304        2.08818        8.73646       12.49097        0.03058
1160.50000        7.71271        0.27135       61.04971       18.51644        2.07901        8.27436       10.27075        0.03935
1161.00000        7.69429        0.25662       54.97236       18.25160        2.18844        9.50685       12.46714        0.04476
1161.50000        7.73112        0.22143       48.89502       16.02183        2.27963       10.10830       14.95378        0.03574
1162.00000        7.74954        0.18241       45.30386       13.63950        2.38283        7.34224       10.83032        0.02448
1162.50000        7.76796        0.12809       42.81767       11.25754        2.46413        9.81371       16.55523        0.01476
1163.00000        7.76796        0.09715       41.98894        9.84433        2.42997       12.77978       19.42237        0.00455
1163.50000        7.76796        0.08783       41.16021        9.38428        2.37941       10.40722       14.79494        0.00195
1164.00000        7.74954        0.09569       41.43645        9.38471        2.31924       10.10830        9.24187       -0.00112
1164.50000        7.76796        0.10688       47.23756        9.72723        2.26867       16.42093       10.39711       -0.00217
1165.00000        7.74954        0.12542       60.22098       10.13797        2.28286       18.77255       18.19494        0.00072
1165.50000        7.74954        0.14086       79.55799       10.61052        2.40446       16.78700       19.49458        0.01227
1166.00000        7.76796        0.14616       93.92263       11.41204        2.55052       11.94223        3.66787        0.03863
1166.50000        7.74954        0.14013      105.24859       14.93983        2.69658        3.34512        2.44837        0.08014
1167.00000        7.74954        0.13402      106.90605       19.17303        2.59619        3.05054        2.40866        0.11758
1167.50000        7.71271        0.13865      102.76241       23.13109        2.47595        3.84115        2.45487        0.12809
1168.00000        7.71271        0.16202       94.47512       25.15206        2.33564        4.45848        3.97112        0.13448
1168.50000        7.71271        0.18149       85.08285       24.46335        2.16705        7.03971       11.98555        0.11365
1169.00000        7.69429        0.20486       75.13810       22.18894        2.02637        9.65126       14.10324        0.08863
1169.50000        7.73112        0.21919       67.95579       19.91416        2.09515       13.63176       18.91696        0.07227
1170.00000        7.74954        0.22715       64.91711       17.62767        2.19146       10.25270       13.71841        0.05393
1170.50000        7.74954        0.23055       62.98341       18.00850        2.30749       10.97472       13.89891        0.04264
1171.00000        7.74954        0.21901       62.70717       18.81923        2.36754        9.74729       14.38628        0.03628
1171.50000        7.76796        0.19753       64.64087       18.93008        2.42862       12.99638       17.49963        0.03097
1172.00000        7.80479        0.17175       67.95579       17.12867        2.47952        7.84621       10.97472        0.02776
1172.50000        7.80479        0.15027       74.30938       15.24468        2.54060        5.66281        3.82671        0.03032
1173.00000        7.82320        0.14069       79.28175       13.68261        2.58234        6.23321        3.63899        0.03343
1173.50000        7.86004        0.13959       86.46407       13.77990        2.58957        4.18772        3.17040        0.03339
1174.00000        7.91529        0.14328       92.81766       14.21745        2.59541        3.30686        2.18556        0.03260
1174.50000        7.93370        0.14457      103.59114       15.47570        2.60265        3.25920        2.51697        0.03191
1175.00000        7.93370        0.14089      112.43091       16.52467        2.60849        2.97473        2.50902        0.03112
1175.50000        7.95212        0.13464      118.23202       17.87021        2.61572        3.01155        2.48592        0.03032
1176.00000        7.98895        0.12942      122.37566       19.42231        2.71827        2.93357        2.47292        0.03393
1176.50000        7.98895        0.12276      124.86185       21.99437        2.84162        3.20433        2.36462        0.05560
1177.00000        7.97053        0.10780      126.51931       23.55686        2.94416        3.17040        2.25271        0.07365
1177.50000        7.97053        0.09534      125.96682       23.42830        3.29169        2.69747        2.03105        0.09531
1178.00000        7.95212        0.08769      121.54693       22.07801        3.58141        2.41155        1.80505        0.10253
1178.50000        7.95212        0.08891      115.19334       20.00772        3.60440        2.81588        2.17617        0.08415
1179.00000        7.95212        0.09175      106.07732       18.40439        3.43075        6.35379        3.02238        0.06119
1179.50000        7.95212        0.08971      103.03865       17.42618        3.22297        4.82743        3.88086        0.05527
1180.00000        7.95212        0.08787      110.49721       18.16318        3.01481        3.44765        2.52707        0.07166
1180.50000        7.97053        0.09050      122.09942       20.27041        3.03897        2.72924        2.16606        0.08765
1181.00000        7.97053        0.10565      133.97787       22.53596        3.06782        2.83393        2.24621        0.08538
1181.50000        7.97053        0.12027      137.84527       23.43141        3.08282        2.59928        2.07004        0.06740
1182.00000        7.97053        0.13782      137.56903       22.98977        3.05782        2.83971        1.70902        0.04606
1182.50000        7.97053        0.13800      135.08284       22.32721        2.97099        2.94801        2.25920        0.03137
1183.00000        7.97053        0.12862      133.42538       22.20492        2.81338        2.91191        2.00072        0.03393
1183.50000        7.97053        0.11849      134.80660       22.71657        2.68223        2.78484        2.02960        0.05560
1184.00000        7.97053        0.11549      137.29279       23.25247        2.79166        2.65632        2.07004        0.06242
1184.50000        7.97053        0.12131      138.67400       23.01790        2.95355        2.59278        1.97040        0.06372
1185.00000        7.95212        0.13121      136.74030       22.56853        3.12049        2.92058        1.84476        0.05018
1185.50000        7.95212        0.13674      133.14914       22.32395        3.06699        3.13357        2.08087        0.04476
1186.00000        7.97053        0.13285      130.38671       22.52806        2.74675        2.71047        2.17617        0.04476
1186.50000        7.97053        0.12717      130.93920       22.69858        2.52695        2.94368        1.80505        0.04704
1187.00000        7.95212        0.12883      133.42538       22.52957        2.52869        3.13790        2.00578        0.04509
1187.50000        7.95212        0.13215      135.91157       22.44669        2.69094        2.96029        2.08375        0.03523
1188.00000        7.97053        0.13492      136.46406       22.87400        2.75165        2.74368        1.87726        0.03123
1188.50000        7.97053        0.12953      134.80660       23.56054        2.69010        2.80866        2.11336        0.03393
1189.00000        7.97053        0.12099      131.21544       24.35801        2.61638        2.86281        2.31047        0.04296
1189.50000        7.95212        0.11209      129.55798       24.57200        2.64750        2.92780        2.09386        0.04476
