~Version ---------------------------------------------------
VERS. 2.0 : CWLS LOG ASCII STANDARD - VERSION 2.0
WRAP. NO  : One line per depth step
DLM . SPACE : Column Data Section Delimiter
~Well ------------------------------------------------------
STRT.F           48 : START DEPTH
STOP.F       1439.0 : STOP DEPTH
STEP.F          0.5 : STEP
NULL.       -999.25 : NULL VALUE
COMP.                 WALSH & WATTS, INC. : COMPANY
WELL.                         HOWARD F 14 : WELL
FLD .             MONTAGUE COUNTY REGULAR : FIELD
CNTY.                            MONTAGUE : COUNTY
STAT.                               TEXAS : STATE
CTRY.                                 USA : COUNTRY
SEC .                                     : SECTION
TWP .                                     : TOWNSHIP
RGE .                                     : RANGE
LOC . 1430'FEL & 2600'FSL OF THE J.CHAMBLIS SURVEY A-123 : LOCATION
EKB .F                      849 : ELEVATION KELLY BUSHING
EDF .F                      848 : ELEVATION DERRICK FLOOR
EGL .F                      841 : ELEVATION GROUND LEVEL
PDAT.                        GL : PERMANENT DATUM
EPD .                       841 : ELEVATION PERMANENT DATUM
APD .                         8 : ABOVE PERMANENT DATUM
LMF .                        KB : LOG MEASURED FROM
DMF .                        KB : DRILLING MEASURED FROM
API .            42337351020000 : API NUMBER
UWI .                           : UWI NUMBER
DIGC.                     NthDS : DIGITIZING COMPANY
~Params ----------------------------------------------------
SRVC.                   PIONEER : LOGGING COMPANY
LOG .                      CNFD : LOG
DATE.                2013-08-01 : RUN DATE
RUN .                         1 : RUN NUMBER
TDD .F                     1450 : TOTAL DEPTH DRILLER
TDL .F                     1449 : TOTAL DEPTH LOGGER
BOTL.F                     1429 : BOTTOM LOGGED INTERVAL
TOPL.F                       50 : TOP LOGGED INTERVAL
CSGS.IN                         : CASING SIZE
CSGD.F                          : CASING DRILLER
CSGL.F                          : CASING LOGGER
BS  .IN                   7.875 : BIT SIZE
MUD .                       GEL : MUD TYPE
MUDD.                       9.2 : MUD DENSITY
MUDV.                        75 : MUD VISCOSITY
PH  .                           : MUD PH
FL  .                           : FLUID LOSS
MUDS.                  FLOWLINE : SOURCE OF SAMPLE
RM  .OHMM                   2.8 : MUD RESISTIVITY
RMT .DEGF                    72 : RM TEMPERATURE
RMF .OHMM                   2.1 : MUD FILTRATE RESISTIVITY
RMFT.DEGF                    72 : RMF TEMPERATURE
RMC .OHMM                   3.5 : MUD CAKE RESISTIVITY
RMCT.DEGF                    72 : RMC TEMPERATURE
RMFS.                      CALC : RMF SOURCE
RMCS.                      CALC : RMC SOURCE
RMBH.OHMM                   2.3 : MUD RESISTIVITY AT BHT
BHT .DEGF                    87 : BOTTOM HOLE TEMPERATURE
TIMC.           0130 2018-08-01 : TIME CIRCULATION STOPPED
TIML.           0400 2018-08-01 : TIME LOGGER ON BOTTOM
TMAX.DEGF                    87 : MAXIMUM RECORDED TEMPERATURE
UNIT.                     C-052 : EQUIPMENT NUMBER
BASE.                GRAHAM, TX : BASE LOCATION
ENG .                    WENDEL : RECORDED BY
WIT .                  BURLESON : WITNESSED BY
~Curve Information -----------------------------------------
DEPT.F          :DEPTH
CALD.IN         :
DPHI.%          :
GRD.GAPI        :
MINV.OHMM       :
MNOR.OHMM       :
NPHI.%          :
RHOC.G/CC       :
~ASCII ------------------------------------------------------
# ...
1132.00000        8.52285       17.57104      106.94696        3.55345        2.65018       17.71769        0.00364
1132.50000        8.52285       17.61687      109.14074        3.60436        2.74764       17.81302        0.00000
1133.00000        8.52285       17.50431      109.68919        3.41018        2.91854       18.15032        0.00000
1133.50000        8.52285       17.27113      111.33453        3.38909        2.96364       18.43153        0.00364
1134.00000        8.52285       17.06985      114.89943        3.47636        3.17600       18.30431        0.00364
1134.50000        8.52285       17.05041      114.89943        3.96363        3.05454       18.04766        0.00364
1135.00000        8.52285       16.93712      110.23764        4.19418        3.54254       17.77635        0.00727
1135.50000        8.52285       16.72777      106.12429        7.12727        4.72727       18.00770        0.02909
1136.00000        8.53510       15.71952      103.93051        3.83054        3.37600       18.58772        0.02545
1136.50000        8.56545       15.62787      105.57584        3.49091        3.12145       18.78094        0.02545
1137.00000        8.59598       15.89514      107.49541        3.46182        2.90909       18.59249        0.01818
1137.50000        8.59598       16.27461      107.49541        3.58182        3.12727       18.44033        0.00120
1138.00000        8.59598       16.66068      109.96341        4.17236        3.00873       18.59762       -0.00335
1138.50000        8.59598       16.69514      114.35098        3.44727        2.86036       19.88598       -0.00276
1139.00000        8.59598       16.71421      118.46432        3.63636        3.10327       21.27406       -0.00229
1139.50000        8.59598       16.73731      121.20655        3.21454        2.87709       22.39487       -0.00171
1140.00000        8.59598       16.75674      124.77145        3.28873        2.83636       22.39487       -0.00124
1140.50000        8.59598       16.90193      128.06213        3.46182        2.92364       21.86068       -0.00065
1141.00000        8.59598       17.07388      128.06213        3.28727        3.01091       20.71677       -0.00011
1141.50000        8.59598       17.27993      127.78791        3.22400        3.03345       19.13291        0.00447
1142.00000        8.57770       17.22640      129.15902        3.25818        2.97164       18.15765        0.01120
1142.50000        8.53382       16.58992      129.70747        3.22182        2.91927       18.52429        0.01818
1143.00000        8.51554       15.97507      126.41679        2.83636        2.45454       18.82970        0.02909
1143.50000        8.49086       15.23740      118.46432        2.86764        2.49091       18.78094        0.02909
1144.00000        8.46801       14.87003      114.35098        3.78182        3.41818       17.98644        0.02182
1144.50000        8.39488       14.50339      113.80253        3.41818        3.00945       17.19927        0.01455
1145.00000        8.39488       14.19799      114.07676        2.88800        2.77818       16.57049        0.01818
1145.50000        8.39488       14.33731      111.60875        3.20000        2.80727       15.92557        0.02545
1146.00000        8.39488       15.09001      106.67274        3.40218        2.83127       15.57067        0.01455
1146.50000        8.39488       16.33914       96.52649        4.07273        3.20000       15.14427        0.00364
1147.00000        8.39488       17.69569       87.47713        5.34545        3.27273       14.90193        0.00000
1147.50000        8.39488       19.07425       82.54111        3.85454        3.24218       15.21540        0.00000
1148.00000        8.39488       19.33602       89.12247        4.76363        3.09091       16.84986        0.00000
1148.50000        8.39488       18.82273      100.91405        3.52727        2.90909       20.01283        0.02182
1149.00000        8.39488       17.64436      112.15720        3.25818        2.80218       23.01925        0.05818
1149.50000        8.39488       14.83960      119.01277        2.83636        2.67345       22.97269        0.09091
1150.00000        8.39488       13.48671      120.10966        2.74545        2.56654       21.01742        0.10545
1150.50000        8.35294       13.35009      119.39336        3.58974        2.69231       18.73395        0.09744
1151.00000        8.35294       13.74312      118.01468        3.40659        2.96703       18.00000        0.07179
1151.50000        8.35294       14.73395      117.46321        3.80952        3.07692       18.12220        0.04249
1152.00000        8.35294       14.71193      116.36027        3.66300        3.07692       18.64697        0.04615
1152.50000        8.35294       14.49541      113.87865        3.83370        3.10330       19.28440        0.05348
1153.00000        8.35294       14.33945      110.56983        3.63077        3.23663       19.84697        0.04249
1153.50000        8.35294       14.35303      110.84556        4.02930        3.29670       21.07340        0.03516
1154.00000        8.35294       14.37615      115.80880        3.05568        2.93040       22.97725        0.03150
1154.50000        8.35294       14.40367      120.77203        2.93040        2.68864       23.75523        0.02784
1155.00000        8.35294       14.88514      123.80512        3.25568        2.65201       23.58312        0.02051
1155.50000        8.35294       15.58312      123.80512        3.84615        3.36996       22.96807        0.01319
1156.00000        8.35294       16.15303      120.49630        3.83077        3.15018       22.25688        0.01319
1156.50000        8.35294       16.12844      116.36027        3.62637        3.04029       22.08807        0.01685
1157.00000        8.35294       15.98165      113.60292        3.51648        3.22344       23.07890        0.03150
1157.50000        8.35294       15.45872      115.80880        3.47253        3.12088       23.90826        0.02418
1158.00000        8.35294       15.57798      122.70218        3.29670        2.90110       23.19890        0.02418
1158.50000        8.35221       16.23853      127.94115        3.19414        2.63736       21.70642        0.02051
1159.00000        8.34761       16.97248      132.07718        2.78388        2.41758       21.37615        0.02784
1159.50000        8.34375       17.44954      134.28306        2.78388        2.37729       22.22532        0.04249
1160.00000        8.33915       16.91376      133.73159        2.58828        2.34432       22.18349        0.08278
1160.50000        8.33529       15.03266      132.90438        2.54945        2.28132       21.21725        0.10476
1161.00000        8.33676       13.14789      132.07718        2.78388        2.47399       19.13762        0.10842
1161.50000        8.33897       12.65835      132.35291        3.41905        2.77802       17.92661        0.08278
1162.00000        8.34154       13.37615      131.52571        3.84615        2.97949       17.49138        0.07179
1162.50000        8.34375       15.01945      128.76835        4.17582        3.12601       17.80734        0.04249
1163.00000        8.34632       15.89615      123.80512        3.99267        3.16117       18.70202        0.02418
1163.50000        8.34853       16.67890      119.39336        3.93187        3.17802       19.40661        0.02418
1164.00000        8.35110       16.91743      115.53306        3.98022        3.19267       18.75046        0.03150
1164.50000        8.35294       16.86239      113.32718        3.77802        3.20952       17.72991        0.03516
1165.00000        8.35294       16.97248      110.84556        3.66300        3.22344       17.37615        0.03516
1165.50000        8.35294       16.71560      111.67277        3.88278        3.13553       17.90826        0.03516
1166.00000        8.35294       15.94496      117.46321        3.07692        3.02491       19.02752        0.06081
