~Version ---------------------------------------------------
VERS. 2.0 : CWLS LOG ASCII STANDARD - VERSION 2.0
WRAP. NO  : One line per depth step
DLM . SPACE : Column Data Section Delimiter
~Well ------------------------------------------------------
STRT.F           40 : START DEPTH
STOP.F       1271.0 : STOP DEPTH
STEP.F          0.5 : STEP
NULL.       -999.25 : NULL VALUE
COMP.                 WALSH & WATTS, INC. : COMPANY
WELL.                         HOWARD G 17 : WELL
FLD .             MONTAGUE COUNTY REGULAR : FIELD
CNTY.                            MONTAGUE : COUNTY
STAT.                               TEXAS : STATE
CTRY.                                 USA : COUNTRY
SEC .                                     : SECTION
TWP .                                     : TOWNSHIP
RGE .                                     : RANGE
LOC . 520'FNL & 4250'FEL OF THE J.CHAMBLIS SURVEY, A-123 : LOCATION
EKB .F                      519 : ELEVATION KELLY BUSHING
EDF .F                      518 : ELEVATION DERRICK FLOOR
EGL .F                      512 : ELEVATION GROUND LEVEL
PDAT.                        GL : PERMANENT DATUM
EPD .                       512 : ELEVATION PERMANENT DATUM
APD .                         7 : ABOVE PERMANENT DATUM
LMF .                        KB : LOG MEASURED FROM
DMF .                        KB : DRILLING MEASURED FROM
API .            42337343900000 : API NUMBER
UWI .                           : UWI NUMBER
DIGC.                     NthDS : DIGITIZING COMPANY
~Params ----------------------------------------------------
SRVC. PIONEER WIRELINE SERVICES : LOGGING COMPANY
LOG .                      CNFD : LOG
DATE.                2010-10-13 : RUN DATE
RUN .                         1 : RUN NUMBER
TDD .F                     1298 : TOTAL DEPTH DRILLER
TDL .F                     1280 : TOTAL DEPTH LOGGER
BOTL.F                     1280 : BOTTOM LOGGED INTERVAL
TOPL.F                       50 : TOP LOGGED INTERVAL
CSGS.IN                         : CASING SIZE
CSGD.F                          : CASING DRILLER
CSGL.F                          : CASING LOGGER
BS  .IN                   7.875 : BIT SIZE
MUD .                  GEL-CHEM : MUD TYPE
MUDD.                           : MUD DENSITY
MUDV.                           : MUD VISCOSITY
PH  .                           : MUD PH
FL  .                           : FLUID LOSS
MUDS.                  FLOWLINE : SOURCE OF SAMPLE
RM  .OHMM                   3.6 : MUD RESISTIVITY
RMT .DEGF                    72 : RM TEMPERATURE
RMF .OHMM                   2.7 : MUD FILTRATE RESISTIVITY
RMFT.DEGF                    72 : RMF TEMPERATURE
RMC .OHMM                   4.5 : MUD CAKE RESISTIVITY
RMCT.DEGF                    72 : RMC TEMPERATURE
RMFS.                      CALC : RMF SOURCE
RMCS.                      CALC : RMC SOURCE
RMBH.OHMM                   3.0 : MUD RESISTIVITY AT BHT
BHT .DEGF                    85 : BOTTOM HOLE TEMPERATURE
TIMC.           0245 2010-10-13 : TIME CIRCULATION STOPPED
TIML.           0540 2010-10-13 : TIME LOGGER ON BOTTOM
TMAX.DEGF                    85 : MAXIMUM RECORDED TEMPERATURE
UNIT.                      M-19 : EQUIPMENT NUMBER
BASE.             GRAHAM, TEXAS : BASE LOCATION
ENG .                    WENDEL : RECORDED BY
WIT .           WOMBLE/BURLESON : WITNESSED BY
~Curve Information -----------------------------------------
DEPT.F          :DEPTH
CALI.IN         :
DPHI.PU         :
GRD.GAPI        :
MINV.OHMM       :
MNOR.OHMM       :
NPHI.PU         :
RHOC.G/CC       :
~ASCII ------------------------------------------------------
# ...
915.50000        7.72641       17.01986       92.68866        3.80524        2.90637       21.29041        0.09738
916.00000        7.75000       16.37895       91.61602        5.31835        3.44569       19.66195        0.10371
916.50000        7.83962       16.39086       89.19055        4.86891        3.44569       18.43614        0.08888
917.00000        7.87415       17.25270       84.33960        5.24344        4.43445       17.89911        0.05142
917.50000        7.80019       18.72687       75.24338        8.88839        6.74157       17.70159        0.02022
918.00000        7.72698       20.49550       65.99149       10.48689        8.17977       17.97174        0.01723
918.50000        7.66585       21.96967       54.90565        8.66816        6.94082       18.45233        0.01472
919.00000        7.58170       23.93377       49.48018        7.87565        6.44194       18.66575        0.01101
919.50000        7.66434       25.73322       46.09244        7.94007        7.01123       18.44005        0.00064
920.00000        7.68472       27.89241       45.88867        8.31460        8.30412       18.46592       -0.00802
920.50000        7.70491       28.70545       45.36508        8.68913        8.83895       19.08286       -0.00476
921.00000        7.69132       29.23446       43.99244        8.60674        8.68913       19.15892        0.00273
921.50000        7.64830       28.85770       42.31131        8.19925        7.34082       17.81198        0.00899
922.00000        7.61057       28.09879       40.29339        7.75730        7.79026       16.05836        0.01210
922.50000        7.59038       27.51297       39.05659        7.59101        7.82771       15.96574        0.01109
923.00000        7.57000       27.47583       39.52924        7.53408        8.01498       17.02293        0.01004
923.50000        7.56887       27.59352       44.71697        7.64045        7.68988       19.25269        0.00873
924.00000        7.57170       27.86355       49.77169        8.01498        7.19101       20.28233        0.00738
924.50000        7.57509       28.13357       52.64150        8.53932        7.83970       19.12569        0.00577
925.00000        7.57811       28.22824       50.75376        9.41273        8.83895       18.09610        0.01150
925.50000        7.58094       27.99488       46.30188        8.98876        8.83895       17.85141        0.02187
926.00000        7.58434       27.54578       43.58490        8.94531        8.59925       17.71250        0.02322
926.50000        7.58491       27.11090       43.86791        8.65917        8.28314       17.85460        0.02247
927.00000        7.58491       26.67602       46.13206        8.01498        8.57678       17.89003        0.02157
927.50000        7.58491       26.42202       46.69810        8.88839        9.51310       17.35591        0.02082
928.00000        7.58491       26.39431       46.69810        8.92883       10.18726       16.82179        0.02007
928.50000        7.58491       26.66056       48.71886       10.03745       10.78651       16.18099        0.01925
929.00000        7.58019       27.28806       51.75282        8.87191       10.93632       16.07479        0.01858
929.50000        7.57453       27.81130       55.38961        7.64045        8.38951       16.22633        0.01771
930.00000        7.56981       27.54031       58.19716        7.56554        8.51385       17.01949        0.01704
930.50000        7.57075       26.05412       60.84904        9.22397       10.63670       18.03140        0.01899
931.00000        7.59906       23.35661       65.70848        9.81273       12.58426       18.40079        0.03595
931.50000        7.65019       20.54326       73.01885        8.57678        7.71535       18.16855        0.05843
932.00000        7.70830       17.77669       75.84904        5.66292        4.89438       17.54650        0.07577
932.50000        7.77792       16.98495       77.28677        5.19401        3.38577       17.02269        0.06685
933.00000        7.83604       17.24970       78.15564        7.34082        4.34457       16.68781        0.03794
933.50000        7.90566       17.96739       79.40659        8.08988        5.75281       16.42011        0.01022
934.00000        7.93868       17.89251       81.08489        6.62172        4.44494       16.76044        0.01648
934.50000        7.97170       17.39310       84.62262        7.34082        7.91011       18.42781        0.02273
935.00000        8.01132       16.87495       94.81130        5.54307        3.74532       21.44096        0.02771
935.50000        8.03906       17.05177      106.69809        3.94457        2.54682       24.35977        0.02067
936.00000        8.04660       18.10606      117.96224        3.74532        2.09738       25.55545        0.01955
936.50000        8.05283       19.07231      121.20280        3.23146        2.08240       26.21277        0.02464
937.00000        8.03151       20.23150      121.01035        3.44569        2.30712       26.11260        0.03521
937.50000        8.01887       21.59511      119.53865        2.87191        2.21723       26.01282        0.05768
938.00000        8.02717       23.35053      117.24054        2.99625        1.99251       26.42598        0.06891
938.50000        8.05245       24.61526      115.94431        2.88389        1.44869       26.99261        0.06667
939.00000        8.07340       25.52163      115.47167        2.97828        1.64794       25.56691        0.05918
939.50000        8.09434       25.22034      112.92450        2.74007        2.28464       22.20903        0.05977
940.00000        8.11321       23.19264      107.10281        2.69663        3.16704       19.48134        0.09472
940.50000        8.06245       19.46684      102.73583        3.07116        2.95281       19.27438        0.12697
941.00000        8.01170       16.95801      100.69809        3.47565        2.74007       19.41094        0.14434
941.50000        7.99057       15.56250      100.38960        4.19475        2.71011       20.16625        0.13101
942.00000        8.00623       15.69894      101.40281        3.74532        2.72359       21.65110        0.10449
942.50000        8.02509       16.03915      102.76130        3.46667        2.73858       22.92226        0.07266
943.00000        8.03774       16.21835      103.91884        3.83520        2.75206       23.46473        0.07667
943.50000        8.03774       16.17706      104.15092        3.74532        2.76554       23.71261        0.08067
944.00000        8.03774       16.25022      103.13205        3.92509        2.78052       25.54414        0.08049
944.50000        8.03774       16.43421      102.53488        3.54607        2.79401       27.75503        0.07198
945.00000        8.03774       16.52537      103.01884        3.74532        2.80899       26.69902        0.07479
945.50000        8.03774       16.05816      104.15092        3.39625        2.82247       22.02039        0.09888
946.00000        8.03774       15.32932      101.69715        3.64494        2.83595       19.39836        0.10719
946.50000        8.03774       14.44917       94.44620        3.93258        2.94682       17.30474        0.10779
947.00000        8.03774       13.56196       84.13866        5.64344        3.19550       16.60081        0.09270
947.50000        8.03774       13.57010       73.01885       11.38576       11.08614       16.58895        0.07453
948.00000        8.03774       13.89798       72.16979        5.93708        8.16479       16.96022        0.05940
948.50000        8.03774       14.45819       77.12262        5.65543        3.29588       17.20082        0.04427
949.00000        8.03774       15.57210       86.83017        4.71910        3.12509       17.64756        0.03037
949.50000        8.03774       15.95005       90.94243        4.79401        3.07116       19.04966        0.02629
950.00000        8.03774       16.03279       90.42451        4.74457        3.25843       20.04119        0.03779
