~Version ---------------------------------------------------
VERS. 2.0 : CWLS LOG ASCII STANDARD - VERSION 2.0
WRAP. NO  : One line per depth step
DLM . SPACE : Column Data Section Delimiter
~Well ------------------------------------------------------
STRT.F           48 : START DEPTH
STOP.F       1439.0 : STOP DEPTH
STEP.F          0.5 : STEP
NULL.       -999.25 : NULL VALUE
COMP.                 WALSH & WATTS, INC. : COMPANY
WELL.                         HOWARD F 14 : WELL
FLD .             MONTAGUE COUNTY REGULAR : FIELD
CNTY.                            MONTAGUE : COUNTY
STAT.                               TEXAS : STATE
CTRY.                                 USA : COUNTRY
SEC .                                     : SECTION
TWP .                                     : TOWNSHIP
RGE .                                     : RANGE
LOC . 1430'FEL & 2600'FSL OF THE J.CHAMBLIS SURVEY A-123 : LOCATION
EKB .F                      849 : ELEVATION KELLY BUSHING
EDF .F                      848 : ELEVATION DERRICK FLOOR
EGL .F                      841 : ELEVATION GROUND LEVEL
PDAT.                        GL : PERMANENT DATUM
EPD .                       841 : ELEVATION PERMANENT DATUM
APD .                         8 : ABOVE PERMANENT DATUM
LMF .                        KB : LOG MEASURED FROM
DMF .                        KB : DRILLING MEASURED FROM
API .            42337351020000 : API NUMBER
UWI .                           : UWI NUMBER
DIGC.                     NthDS : DIGITIZING COMPANY
~Params ----------------------------------------------------
SRVC.                   PIONEER : LOGGING COMPANY
LOG .                      CNFD : LOG
DATE.                2013-08-01 : RUN DATE
RUN .                         1 : RUN NUMBER
TDD .F                     1450 : TOTAL DEPTH DRILLER
TDL .F                     1449 : TOTAL DEPTH LOGGER
BOTL.F                     1429 : BOTTOM LOGGED INTERVAL
TOPL.F                       50 : TOP LOGGED INTERVAL
CSGS.IN                         : CASING SIZE
CSGD.F                          : CASING DRILLER
CSGL.F                          : CASING LOGGER
BS  .IN                   7.875 : BIT SIZE
MUD .                       GEL : MUD TYPE
MUDD.                       9.2 : MUD DENSITY
MUDV.                        75 : MUD VISCOSITY
PH  .                           : MUD PH
FL  .                           : FLUID LOSS
MUDS.                  FLOWLINE : SOURCE OF SAMPLE
RM  .OHMM                   2.8 : MUD RESISTIVITY
RMT .DEGF                    72 : RM TEMPERATURE
RMF .OHMM                   2.1 : MUD FILTRATE RESISTIVITY
RMFT.DEGF                    72 : RMF TEMPERATURE
RMC .OHMM                   3.5 : MUD CAKE RESISTIVITY
RMCT.DEGF                    72 : RMC TEMPERATURE
RMFS.                      CALC : RMF SOURCE
RMCS.                      CALC : RMC SOURCE
RMBH.OHMM                   2.3 : MUD RESISTIVITY AT BHT
BHT .DEGF                    87 : BOTTOM HOLE TEMPERATURE
TIMC.           0130 2018-08-01 : TIME CIRCULATION STOPPED
TIML.           0400 2018-08-01 : TIME LOGGER ON BOTTOM
TMAX.DEGF                    87 : MAXIMUM RECORDED TEMPERATURE
UNIT.                     C-052 : EQUIPMENT NUMBER
BASE.                GRAHAM, TX : BASE LOCATION
ENG .                    WENDEL : RECORDED BY
WIT .                  BURLESON : WITNESSED BY
~Curve Information -----------------------------------------
DEPT.F          :DEPTH
CALD.IN         :
DPHI.%          :
GRD.GAPI        :
MINV.OHMM       :
MNOR.OHMM       :
NPHI.%          :
RHOC.G/CC       :
~ASCII ------------------------------------------------------
# ...
398.50000        8.53473       24.48551       37.83179       14.81536       17.64381       15.47119        0.09223
399.00000        8.53233       22.07596       38.65948       19.87433       19.87068       14.02019        0.09777
399.50000        8.52962       19.18422       40.03662       19.91754       19.89929       12.42826        0.09026
400.00000        8.50425       17.50459       40.51167       19.73322       19.70267       11.72477        0.06713
400.50000        8.50155       17.41908       41.33885       19.77627       19.73045       11.70459        0.05463
401.00000        8.50425       19.18239       41.89131       18.06343       19.75433       11.84294        0.05470
401.50000        8.51141       21.00000       41.34989       17.38649       19.78211       12.61762        0.05660
402.00000        8.51758       23.58716       39.98630        5.75154        8.29698       13.51376        0.05848
402.50000        8.51689       25.74312       37.52883        7.27359        8.58922       14.23230        0.06583
403.00000        8.51321       28.58092       36.98641        9.09991        9.71299       15.10092        0.05499
403.50000        8.50868       30.00000       36.99243        7.79216        9.80451       15.83486        0.03689
404.00000        8.50500       30.00000       36.72372        9.28902       10.79155       16.97248        0.02968
404.50000        8.50047       30.00000       35.63486       10.66343       11.99896       17.88991        0.02613
405.00000        8.49679       30.00000       35.36616        9.32395       11.88393       18.33028        0.02256
405.50000        8.49245       30.00000       34.82473       12.01644       13.28189       17.65762        0.04446
406.00000        8.48859       30.00000       35.10347       11.29051       13.42358       16.97248        0.04452
406.50000        8.48972       29.75963       37.02554       11.20093       12.38274       16.60551        0.07006
407.00000        8.49498       28.31853       38.94660       12.11452       12.82070       16.01395        0.07376
407.50000        8.50159       27.30899       41.14238       11.06423       12.96775       15.39450        0.06657
408.00000        8.52564       27.21101       42.51600       10.16911       13.98726       15.48367        0.04845
408.50000        8.64466       28.10642       44.98551       10.55589       12.32606       16.45872        0.03762
409.00000        8.74390       28.85248       51.83354        6.15025        6.65934       17.56477        0.03042
409.50000        8.81729       29.52294       67.16792        4.12178        4.87668       18.47707        0.05232
410.00000        8.90886       29.30275       83.59719        3.52821        4.78592       19.19266        0.08875
410.50000        9.01875       28.20184       99.47901        4.45125        5.37634       19.27229        0.12883
411.00000        9.07620       26.42202      106.87448        4.22931        5.45066       19.66606        0.15435
411.50000        9.10617       22.73395      113.44980        3.33783        4.27019       21.37615        0.16897
412.00000        9.09884       19.94496      116.19202        2.87153        3.78061       23.74092        0.15086
412.50000        9.09322       18.62385      117.84037        3.67312        5.07893       26.18862        0.14366
413.00000        9.09355       20.04734      120.30887        3.60827        5.58671       26.39853        0.11100
413.50000        9.09395       24.62385      124.42070        3.53060        5.02877       26.27743        0.08199
414.00000        9.09429       28.43780      124.69944        3.92611        4.49556       26.11413        0.06024
414.50000        9.09469       29.96440      119.50476        4.40044        4.98807       25.91853        0.08214
415.00000        9.09502       29.96587      113.48792        4.33486        4.78722       25.68184        0.11130
415.50000        9.09542       29.96734      107.19837        3.31829        4.40919       25.33945        0.11865
416.00000        9.09576       29.96881      107.20338        3.53780        3.94507       24.08844        0.12235
416.50000        9.09616       29.97064      110.22033        3.24849        4.36339       22.58716        0.12607
417.00000        9.09649       29.97211      111.86767        3.64400        4.30218       23.54532        0.12977
417.50000        9.09690       29.97358      109.95764        4.11833        3.80924       26.31817        0.14803
418.00000        9.09723       29.97505      108.04662        4.01130        3.39821       28.43780        0.15901
418.50000        9.13814       29.97651      106.95775        3.73217        3.18163       29.18202        0.13000
419.00000        9.05745       29.97835      106.68905        3.53059        3.05860       30.00000        0.10097
419.50000        9.02537       29.97945      106.42135        3.43474        3.18456       29.77982        0.09378
420.00000        9.02578       29.98128      107.52125        3.35535        2.96771       27.11303        0.09748
420.50000        9.02611       29.98275      109.71703        3.26022        2.85149       24.42202        0.14847
421.00000        9.02651       29.98422      110.81693        3.83318        3.35682       22.24771        0.14854
421.50000        9.02685       29.98569      111.64411        3.04497        3.96278       22.44037        0.09043
422.00000        9.02725       29.98716      111.64913        3.33721        3.77357       23.10092        0.06505
422.50000        9.02758       29.98862      109.19166        3.15190        3.44790       24.05505        0.07239
423.00000        9.02798       29.99046      106.45947        3.41287        3.63105       25.37615        0.10520
423.50000        9.02832       29.99156      103.45456        3.19629        4.29374       26.17615        0.13799
424.00000        9.02872       29.99339       99.62749        4.38743        5.58451       26.48440        0.14898
424.50000        8.95606       29.99486       94.98025        5.81738        6.38902       26.44954        0.14177
425.00000        8.90172       29.99633       92.52178        5.00054        5.81872       25.21725        0.11276
425.50000        8.90205       29.99817       93.07524        3.20215        4.66542       23.79340        0.08738
426.00000        8.90245       29.99927       95.81747        4.80347        6.89437       22.84404        0.09836
426.50000        8.90279       26.66385       98.56069        7.27778        7.93232       23.35780        0.09843
427.00000        8.90319       22.49358      100.20804        6.04276        7.57002       23.22569        0.08760
427.50000        8.90352       19.38239      100.48778        4.54837        6.49308       21.28807        0.08403
428.00000        8.90393       18.88074      101.04023        7.51477        8.73658       19.52918        0.08411
428.50000        8.90426       21.18055      102.96230        7.37456        7.62328       20.52220        0.07000
429.00000        8.90466       23.87156      104.33592        6.60644        5.88717       21.84000        0.04171
429.50000        8.90500       27.10092      104.34194        3.83933        3.14116       22.25688        0.03825
430.00000        8.90540       27.54128      103.25207        6.31337        6.49592       20.27927        0.08233
430.50000        8.90573       25.88147      102.71065        8.30769        9.06404       18.63853        0.09018
431.00000        8.89044       24.49835      102.98939        7.70611        9.21810       18.58716        0.08273
431.50000        8.87782       23.91743      102.44796        8.54334        8.96516       19.65982        0.05553
432.00000        8.88296       25.21945      101.63282        7.30832        7.06760       22.27083        0.03379
432.50000        8.90447       28.38202      101.09040        5.36084        5.36812       25.40440        0.02658
433.00000        8.93717       29.96807      100.27525        3.80583        3.83492       26.45505        0.03394
