~Version ---------------------------------------------------
VERS. 2.0 : CWLS LOG ASCII STANDARD - VERSION 2.0
WRAP. NO  : One line per depth step
DLM . SPACE : Column Data Section Delimiter
~Well ------------------------------------------------------
STRT.F           48 : START DEPTH
STOP.F       1439.0 : STOP DEPTH
STEP.F          0.5 : STEP
NULL.       -999.25 : NULL VALUE
COMP.                 WALSH & WATTS, INC. : COMPANY
WELL.                         HOWARD F 14 : WELL
FLD .             MONTAGUE COUNTY REGULAR : FIELD
CNTY.                            MONTAGUE : COUNTY
STAT.                               TEXAS : STATE
CTRY.                                 USA : COUNTRY
SEC .                                     : SECTION
TWP .                                     : TOWNSHIP
RGE .                                     : RANGE
LOC . 1430'FEL & 2600'FSL OF THE J.CHAMBLIS SURVEY A-123 : LOCATION
EKB .F                      849 : ELEVATION KELLY BUSHING
EDF .F                      848 : ELEVATION DERRICK FLOOR
EGL .F                      841 : ELEVATION GROUND LEVEL
PDAT.                        GL : PERMANENT DATUM
EPD .                       841 : ELEVATION PERMANENT DATUM
APD .                         8 : ABOVE PERMANENT DATUM
LMF .                        KB : LOG MEASURED FROM
DMF .                        KB : DRILLING MEASURED FROM
API .            42337351020000 : API NUMBER
UWI .                           : UWI NUMBER
DIGC.                     NthDS : DIGITIZING COMPANY
~Params ----------------------------------------------------
SRVC.                   PIONEER : LOGGING COMPANY
LOG .                      CNFD : LOG
DATE.                2013-08-01 : RUN DATE
RUN .                         1 : RUN NUMBER
TDD .F                     1450 : TOTAL DEPTH DRILLER
TDL .F                     1449 : TOTAL DEPTH LOGGER
BOTL.F                     1429 : BOTTOM LOGGED INTERVAL
TOPL.F                       50 : TOP LOGGED INTERVAL
CSGS.IN                         : CASING SIZE
CSGD.F                          : CASING DRILLER
CSGL.F                          : CASING LOGGER
BS  .IN                   7.875 : BIT SIZE
MUD .                       GEL : MUD TYPE
MUDD.                       9.2 : MUD DENSITY
MUDV.                        75 : MUD VISCOSITY
PH  .                           : MUD PH
FL  .                           : FLUID LOSS
MUDS.                  FLOWLINE : SOURCE OF SAMPLE
RM  .OHMM                   2.8 : MUD RESISTIVITY
RMT .DEGF                    72 : RM TEMPERATURE
RMF .OHMM                   2.1 : MUD FILTRATE RESISTIVITY
RMFT.DEGF                    72 : RMF TEMPERATURE
RMC .OHMM                   3.5 : MUD CAKE RESISTIVITY
RMCT.DEGF                    72 : RMC TEMPERATURE
RMFS.                      CALC : RMF SOURCE
RMCS.                      CALC : RMC SOURCE
RMBH.OHMM                   2.3 : MUD RESISTIVITY AT BHT
BHT .DEGF                    87 : BOTTOM HOLE TEMPERATURE
TIMC.           0130 2018-08-01 : TIME CIRCULATION STOPPED
TIML.           0400 2018-08-01 : TIME LOGGER ON BOTTOM
TMAX.DEGF                    87 : MAXIMUM RECORDED TEMPERATURE
UNIT.                     C-052 : EQUIPMENT NUMBER
BASE.                GRAHAM, TX : BASE LOCATION
ENG .                    WENDEL : RECORDED BY
WIT .                  BURLESON : WITNESSED BY
~Curve Information -----------------------------------------
DEPT.F          :DEPTH
CALD.IN         :
DPHI.%          :
GRD.GAPI        :
MINV.OHMM       :
MNOR.OHMM       :
NPHI.%          :
RHOC.G/CC       :
~ASCII ------------------------------------------------------
# ...
783.50000        8.83443       16.94776      117.85712        2.91957        2.88294       21.56370        0.04013
784.00000        8.83883       16.69111      122.52744        3.83693        4.20323       21.83318        0.02554
784.50000        8.83883       17.24106      124.72525        3.50128        4.32691       23.51714        0.02562
785.00000        8.83883       17.77525      124.99997        3.54684        3.64428       25.83685        0.02203
785.50000        8.82711       18.01100      123.35162        3.46687        3.80899       26.09789        0.04042
786.00000        8.80348       17.80678      120.87909        3.67800        4.20913       24.69478        0.05148
786.50000        8.78388       17.63667      119.23074        4.36652        4.57677       22.51329        0.06255
787.00000        8.74725       17.54794      112.52745        3.94322        4.02161       18.18369        0.06628
787.50000        8.74725       17.57104      107.21151        4.18925        4.27936       17.05775        0.07002
788.00000        8.74725       17.75949       98.90108        4.14178        4.40332       17.08928        0.07741
788.50000        8.74725       17.91677       94.23075        3.95998        4.57242       17.72832        0.07017
789.00000        8.74725       18.01100       92.30767        5.39015        5.82970       17.35106        0.06657
789.50000        8.74725       17.82768       91.20877        5.14754        5.58709       16.37324        0.06299
790.00000        8.74725       16.99908       91.75822       15.16080        8.90956       15.20000        0.06306
790.50000        8.74725       16.19249       92.03295       19.90010       15.48035       15.20990        0.06314
791.00000        8.74927       15.91201       93.13185        8.12131        5.32280       15.86508        0.05174
791.50000        8.76154       16.21448       98.07690        4.70876        4.59154       16.46893        0.03764
792.00000        8.81502       16.87443      104.12086        4.83711        3.95799       17.19377        0.02306
792.50000        8.91392       17.69166      110.98899        4.00842        3.82893       18.13932        0.01581
793.00000        8.93461       18.39853      115.65931        4.30307        3.63055       18.96425        0.00856
793.50000        8.94084       19.01302      118.95602        4.12126        3.37328       20.53786        0.01596
794.00000        8.94615       18.78094      120.32964        3.07892        2.62105       21.84931        0.03801
794.50000        8.95238       17.87901      121.70327        2.76891        3.61653       23.60990        0.05274
795.00000        8.95769       17.21650      121.70327        3.31265        3.62546       25.84235        0.08211
795.50000        8.96392       17.13107      121.42854        3.16234        3.39457       28.04766        0.07487
796.00000        8.96703       17.41925      121.70327        3.21304        3.32293       27.80752        0.05662
796.50000        8.96703       17.58937      122.80217        3.03123        3.26346       25.68983        0.05670
797.00000        8.96703       17.73309      123.90107        3.52734        3.74346       23.99633        0.05310
797.50000        8.96703       18.26471      123.62635        4.53600        4.46274       23.61137        0.03853
798.00000        8.96703       18.70761      122.80217        3.57059        4.24458       22.42273        0.02395
798.50000        8.96703       18.86490      120.32964        2.95142        3.14703       19.92154        0.02769
799.00000        8.96703       18.42640      114.83514        4.08270        4.02775       17.49771        0.04241
799.50000        8.96703       18.19432      105.21976        4.35144        4.09576       16.45023        0.04615
800.00000        8.96703       18.59285       96.97800        5.22628        4.08759       15.84785        0.03212
800.50000        8.96703       19.31136       90.65932        6.02919        4.96350       15.68388       -0.00073
801.00000        8.96703       19.38645       88.73624        4.81752        4.45255       15.71429       -0.00073
801.50000        8.96703       18.60806       89.28569        5.13065        4.45255       17.10220        0.00292
802.00000        8.96703       17.81429       94.23075        4.67153        4.27737       17.26484       -0.00073
802.50000        8.96703       17.57729      100.27470        4.52555        4.14452       16.97802       -0.00073
803.00000        8.96703       17.98535      104.39558        4.40073        4.04671       16.61172       -0.00803
803.50000        8.96703       18.83846      103.29668        4.30657        4.04233       17.05641       -0.01168
804.00000        8.96703       19.43993       97.52745        4.30657        4.06350       17.58901       -0.01168
804.50000        8.96703       19.98791       93.13185        4.30657        3.94160       17.80220       -0.00803
805.00000        8.96703       20.01465       89.83514        4.74452        3.94160       17.59817       -0.00073
805.50000        8.96703       19.37729       89.28569        4.45255        3.94160       17.17949        0.01752
806.00000        8.96703       19.51648       92.85712        5.18248        4.08759       16.97583        0.02482
806.50000        8.97015       21.23150       97.52745        4.70803        4.20657       17.02491        0.02482
807.00000        8.97399       24.12784      104.94503        4.16058        4.04233       17.24213        0.00241
807.50000        8.97711       27.83883      108.24173        3.72263        4.01460       17.49707       -0.02263
808.00000        8.98095       29.12088      108.79118        2.55474        2.86496       17.65971       -0.00865
808.50000        8.98407       27.11136      109.06591        2.80511        2.43285       17.66630        0.06131
809.00000        8.71978       22.55898      109.61536        4.30657        3.77153       17.74982        0.12701
809.50000        8.69231       18.90110      109.06591        5.08832        4.81752       17.94872        0.11971
810.00000        8.69231       19.28572      104.12086        5.10949        5.10000       18.13187        0.06131
810.50000        8.68443       22.25275       96.42855        5.25547        4.96350       18.93773        0.02847
811.00000        8.63736       24.66410       81.31866        6.13138        7.51824       19.59707        0.00292
811.50000        8.54579       27.53956       71.97801        7.59124        8.10219       19.68865        0.00292
812.00000        8.51172       28.98645       66.75823        8.23795        8.78321       19.36813        0.00292
812.50000        8.51483       29.96337       68.40658        9.24598        9.83941       18.98352        0.00292
813.00000        8.51868       29.93297       72.25273        5.51095        5.34087       18.49817        0.00292
813.50000        8.52179       29.06410       73.62636        5.91241        5.65985       17.61905        0.01022
814.00000        8.52564       27.68242       75.54943        5.31971        5.12628       17.20879        0.01752
814.50000        8.52582       26.02381       78.57141        4.83868        4.48613       17.52491        0.03212
815.00000        8.52088       24.64213       84.06592        4.65693        4.23357       18.38828        0.05036
815.50000        8.51667       23.23077       86.26372        4.48175        4.01460       18.82784        0.05036
816.00000        8.51172       23.28462       84.61537        4.85401        4.25474       19.10879        0.05036
816.50000        8.51154       24.51539       79.67031        5.94890        5.32846       19.37729        0.02482
817.00000        8.51868       26.39707       73.07691       11.75182       12.39051       18.64469        0.01752
817.50000        8.52454       28.36777       69.78020       10.07299        7.66423       18.05861        0.01752
818.00000        8.53168       28.81575       69.50548        7.24452        7.67007       17.66081        0.03212
