~Version ---------------------------------------------------
VERS. 2.0 : CWLS LOG ASCII STANDARD - VERSION 2.0
WRAP. NO  : One line per depth step
DLM . SPACE : Column Data Section Delimiter
~Well ------------------------------------------------------
STRT.F         48.5 : START DEPTH
STOP.F       1455.5 : STOP DEPTH
STEP.F          0.5 : STEP
NULL.       -999.25 : NULL VALUE
COMP.                 WALSH & WATTS, INC. : COMPANY
WELL.                         HOWARD F 25 : WELL
FLD .                            MONTAGUE : FIELD
CNTY.                            MONTAGUE : COUNTY
STAT.                               TEXAS : STATE
CTRY.                                 USA : COUNTRY
SEC .                                     : SECTION
TWP .                                     : TOWNSHIP
RGE .                                     : RANGE
LOC . 1115'FEL & 2300'FSL OF THE J.CHAMBLIS SURVEY A-123 : LOCATION
EKB .F                      512 : ELEVATION KELLY BUSHING
EDF .F                      511 : ELEVATION DERRICK FLOOR
EGL .F                      505 : ELEVATION GROUND LEVEL
PDAT.                        GL : PERMANENT DATUM
EPD .                       505 : ELEVATION PERMANENT DATUM
APD .                         7 : ABOVE PERMANENT DATUM
LMF .                        KB : LOG MEASURED FROM
DMF .                        KB : DRILLING MEASURED FROM
API .            42337343120000 : API NUMBER
UWI .                           : UWI NUMBER
DIGC.                     NthDS : DIGITIZING COMPANY
~Params ----------------------------------------------------
SRVC. PIONEER WIRELINE SERVICES : LOGGING COMPANY
LOG .                      DIFL : LOG
DATE.                2010-10-07 : RUN DATE
RUN .                         1 : RUN NUMBER
TDD .F                     1450 : TOTAL DEPTH DRILLER
TDL .F                     1452 : TOTAL DEPTH LOGGER
BOTL.F                     1452 : BOTTOM LOGGED INTERVAL
TOPL.F                       50 : TOP LOGGED INTERVAL
CSGS.IN                         : CASING SIZE
CSGD.F                          : CASING DRILLER
CSGL.F                          : CASING LOGGER
BS  .IN                   7.875 : BIT SIZE
MUD .                  GEL-CHEM : MUD TYPE
MUDD.                           : MUD DENSITY
MUDV.                           : MUD VISCOSITY
PH  .                           : MUD PH
FL  .                           : FLUID LOSS
MUDS.                  FLOWLINE : SOURCE OF SAMPLE
RM  .OHMM                   4.0 : MUD RESISTIVITY
RMT .DEGF                    72 : RM TEMPERATURE
RMF .OHMM                   3.0 : MUD FILTRATE RESISTIVITY
RMFT.DEGF                    72 : RMF TEMPERATURE
RMC .OHMM                   5.0 : MUD CAKE RESISTIVITY
RMCT.DEGF                    72 : RMC TEMPERATURE
RMFS.                      CALC : RMF SOURCE
RMCS.                      CALC : RMC SOURCE
RMBH.OHMM                     3 : MUD RESISTIVITY AT BHT
BHT .DEGF                    88 : BOTTOM HOLE TEMPERATURE
TIMC.           0730 2010-10-07 : TIME CIRCULATION STOPPED
TIML.           1020 2010-10-07 : TIME LOGGER ON BOTTOM
TMAX.DEGF                    88 : MAXIMUM RECORDED TEMPERATURE
UNIT.                      M-19 : EQUIPMENT NUMBER
BASE.                GRAHAM, TX : BASE LOCATION
ENG .                    WENDEL : RECORDED BY
WIT .           WOMBLE/BURLESON : WITNESSED BY
~Curve Information -----------------------------------------
DEPT.F          :DEPTH
CILD.MMHO       :
GRR.GAPI        :
RILD.OHMM       :
RILM.OHMM       :
RSFL.OHMM       :
SP.MV           :
~ASCII ------------------------------------------------------
# ...
249.50000       87.46786       80.21976       11.43640       13.55144       16.91869      154.57872
250.00000       84.28614       74.72526       11.91354       13.69489       13.15165      154.57872
250.50000       83.74960       72.93576       11.75779       14.01093       12.57484      154.86235
251.00000       85.01724       71.00916       11.57435       14.27587       14.17827      154.86235
251.50000       87.91019       72.11008       11.06454       13.84609       15.98615      155.22932
252.00000       90.81233       72.93576       10.79877       13.27185       17.39041      155.22932
252.50000       93.09486       78.88072       10.69335       12.26444       13.15523      155.22932
253.00000       91.88319       87.63301       10.69146       11.72868       11.03092      155.59630
253.50000       92.65496       93.63301       10.62953       11.77258       10.70215      155.96327
254.00000       93.43592       92.75227       10.53823       11.75958       12.77371      155.96327
254.50000       94.59817       92.47704       10.42333       11.45123       14.25187      156.33024
255.00000       95.36994       93.30273       10.25637       11.38944       13.43242      156.33024
255.50000       96.14171       96.05502       10.09124       11.40474       12.34377      156.69721
256.00000       98.10722       99.35778        9.91816       11.49100       11.93251      157.43116
256.50000      102.85069       95.72200        9.53755       11.46378       12.65599      157.06418
257.00000      106.00994       91.35686        9.17077       10.75309       14.48237      157.79813
257.50000      109.16001       88.07337        8.82358        9.99606       13.99945      158.16510
258.00000      112.31926       84.49539        8.42496        9.24510       10.68609      158.16510
258.50000      117.06273       83.94494        8.44724        9.01714        9.36173      158.53207
259.00000      121.96668       84.77062        8.13063        8.75084        9.00920      159.26602
259.50000      128.63369       92.53759        7.68305        8.45878        9.65263      159.99996
260.00000      138.63879       98.80732        7.41220        8.08678        9.98237      160.36694
260.50000      145.30580      100.73392        7.10010        7.66139        9.32939      161.10088
261.00000      146.90401      101.28438        6.80403        7.28416        8.42987      162.20180
261.50000      148.51140      101.00915        6.79383        7.02403        7.81250      162.56877
262.00000      150.91330       99.63301        6.85780        6.96964        7.42567      162.93574
262.50000      152.51151       95.77979        6.64610        6.91566        7.74438      163.66969
263.00000      154.10971       94.12842        6.44929        6.87100        8.00869      163.66969
263.50000      155.71710       93.85319        6.30963        6.82470        7.80721      164.77061
264.00000      155.94273       94.12842        6.34666        6.79151        7.67549      165.87152
264.50000      152.57314       94.40365        6.39182        6.75201        8.00469      166.23849
265.00000      148.58832       92.47704        6.50510        6.79427        8.34800      166.23849
265.50000      144.60350       90.27521        6.65817        6.96751        8.48876      166.23849
266.00000      138.62169       88.62383        6.84754        7.30291        8.77849      166.23849
266.50000      134.63687       87.79815        7.02943        7.70199        9.63049      166.23849
267.00000      130.64286       86.42200        7.35631        8.20881       11.01995      166.23849
267.50000      126.65805       85.87154        7.69838        8.70625       11.49258      166.23849
268.00000      122.67323       86.69723        7.99556        8.95316       11.20379      166.23849
268.50000      119.76758       87.52292        8.22019        9.25901       11.48886      166.97244
269.00000      118.85894       88.34860        8.35034        9.16047       11.48717      167.33941
269.50000      117.95029       92.20181        8.41498        9.04360       11.48514      167.70638
270.00000      117.04165       94.67888        8.49421        8.92823       10.82477      168.07336
270.50000      115.67868       96.88071        8.56502        9.03457       10.37624      168.80730
271.00000      115.22916       96.88071        8.66102        9.54249       10.64026      168.80730
271.50000      115.23878       96.88071        8.64268        9.95215       11.19093      168.80730
272.00000      116.62579       94.12842        8.60788       10.08004       12.17361      168.44033
272.50000      120.77239       91.10090        8.34145        9.83037       12.58909      168.44033
273.00000      123.53679       89.44952        8.08965        9.08062       12.27274      168.44033
273.50000      126.30118       87.24769        7.79698        8.25643       12.16752      167.70638
274.00000      127.69300       87.24769        7.53397        7.69051        9.52574      168.07336
274.50000      130.51249       94.40365        7.32881        7.39587        7.58463      167.33941
275.00000      135.21442       96.05502        7.08997        7.10331        7.26156      167.33941
275.50000      139.91635       93.30273        6.86994        7.05068        7.97552      166.97244
276.00000      146.96466       91.37613        6.73616        7.00751        8.45932      166.97244
276.50000      149.52704       90.27521        6.57916        7.04839        8.38679      166.60547
277.00000      149.94987       90.27521        6.57744        7.13695        8.10737      166.23849
277.50000      150.36352       90.55044        6.60208        7.19397        8.17460      165.87152
278.00000      150.99318       91.10090        6.52659        7.24878        8.96773      165.87152
278.50000      152.86687       91.92658        6.44725        7.23976        9.27407      165.50455
279.00000      156.20977       92.47704        6.33648        6.96865        9.11733      165.50455
279.50000      159.54349       93.02750        6.19403        6.70770        8.73929      165.50455
280.00000      164.55326       91.65136        6.07803        6.49772        8.44812      165.13758
280.50000      167.89616       85.04585        5.93536        6.26867        8.02982      165.13758
281.00000      171.22988       82.84402        5.76479        6.05485        7.89434      165.13758
281.50000      176.23964       84.22016        5.62631        5.88216        7.95980      165.13758
282.00000      178.14088       86.14677        5.52451        5.68153        7.95839      165.50455
282.50000      178.60962       86.42200        5.46566        5.62723        7.82412      166.23849
283.00000      177.01228       85.59631        5.54142        5.64336        7.56322      166.23849
283.50000      167.02685       85.04585        5.76977        5.91052        7.24962      166.60547
284.00000      158.87312       84.77062        5.96724        6.14262        7.49727      166.60547
284.50000      150.71940       86.42200        6.40558        6.75341        8.08711      166.60547
285.00000      142.56567       85.87154        6.83001        7.30824        9.41159      166.60547
285.50000      134.42113       80.36695        7.37647        8.11195       11.52120      166.60547
286.00000      122.18596       73.48622        7.96666        9.44153       12.53325      166.97244
286.50000      114.03223       71.83485        8.61159       10.71454       13.29315      166.97244
287.00000      105.87851       70.73393        9.49515       12.14447       14.58290      166.97244
287.50000       95.84235       70.73393       10.22573       12.89711       16.82871      166.97244
288.00000       89.35986       72.38530       10.80116       13.09448       16.26755      166.60547
288.50000       87.79488       78.71558       11.27386       13.60409       14.33222      166.60547
289.00000       86.75767       84.49539       11.15187       14.23850       13.10416      166.60547
