~Version ---------------------------------------------------
VERS. 2.0 : CWLS LOG ASCII STANDARD - VERSION 2.0
WRAP. NO  : One line per depth step
DLM . SPACE : Column Data Section Delimiter
~Well ------------------------------------------------------
STRT.F           48 : START DEPTH
STOP.F       1432.0 : STOP DEPTH
STEP.F          0.5 : STEP
NULL.       -999.25 : NULL VALUE
COMP.                 WALSH & WATTS, INC. : COMPANY
WELL.                         HOWARD F 25 : WELL
FLD .                            MONTAGUE : FIELD
CNTY.                            MONTAGUE : COUNTY
STAT.                               TEXAS : STATE
CTRY.                                 USA : COUNTRY
SEC .                                     : SECTION
TWP .                                     : TOWNSHIP
RGE .                                     : RANGE
LOC . 1115'FEL & 2300'FSL OF THE J.CHAMBLIS SURVEY A-123 : LOCATION
EKB .F                      512 : ELEVATION KELLY BUSHING
EDF .F                      511 : ELEVATION DERRICK FLOOR
EGL .F                      505 : ELEVATION GROUND LEVEL
PDAT.                        GL : PERMANENT DATUM
EPD .                       505 : ELEVATION PERMANENT DATUM
APD .                         7 : ABOVE PERMANENT DATUM
LMF .                        KB : LOG MEASURED FROM
DMF .                        KB : DRILLING MEASURED FROM
API .            42337343120000 : API NUMBER
UWI .                           : UWI NUMBER
DIGC.                     NthDS : DIGITIZING COMPANY
~Params ----------------------------------------------------
SRVC. PIONEER WIRELINE SERVICES : LOGGING COMPANY
LOG .                   CNFD/ML : LOG
DATE.                2010-10-07 : RUN DATE
RUN .                         1 : RUN NUMBER
TDD .F                     1450 : TOTAL DEPTH DRILLER
TDL .F                     1452 : TOTAL DEPTH LOGGER
BOTL.F                     1452 : BOTTOM LOGGED INTERVAL
TOPL.F                       50 : TOP LOGGED INTERVAL
CSGS.IN                         : CASING SIZE
CSGD.F                          : CASING DRILLER
CSGL.F                          : CASING LOGGER
BS  .IN                   7.875 : BIT SIZE
MUD .                  GEL-CHEM : MUD TYPE
MUDD.                           : MUD DENSITY
MUDV.                           : MUD VISCOSITY
PH  .                           : MUD PH
FL  .                           : FLUID LOSS
MUDS.                  FLOWLINE : SOURCE OF SAMPLE
RM  .OHMM                   4.0 : MUD RESISTIVITY
RMT .DEGF                    72 : RM TEMPERATURE
RMF .OHMM                   3.0 : MUD FILTRATE RESISTIVITY
RMFT.DEGF                    72 : RMF TEMPERATURE
RMC .OHMM                   5.0 : MUD CAKE RESISTIVITY
RMCT.DEGF                    72 : RMC TEMPERATURE
RMFS.                      CALC : RMF SOURCE
RMCS.                      CALC : RMC SOURCE
RMBH.OHMM                     3 : MUD RESISTIVITY AT BHT
BHT .DEGF                    88 : BOTTOM HOLE TEMPERATURE
TIMC.           0730 2010-10-07 : TIME CIRCULATION STOPPED
TIML.           1020 2010-10-07 : TIME LOGGER ON BOTTOM
TMAX.DEGF                    88 : MAXIMUM RECORDED TEMPERATURE
UNIT.                      M-19 : EQUIPMENT NUMBER
BASE.                GRAHAM, TX : BASE LOCATION
ENG .                    WENDEL : RECORDED BY
WIT .           WOMBLE/BURLESON : WITNESSED BY
~Curve Information -----------------------------------------
DEPT.F          :DEPTH
CALD.IN         :
DPHI.%          :
GRD.GAPI        :
MINV.OHMM       :
MNOR.OHMM       :
NPHI.%          :
RHOC.G/CC       :
~ASCII ------------------------------------------------------
# ...
328.50000        8.68091       22.24107       92.90998        4.23758        4.35932       19.22027        0.14423
329.00000        8.53636       21.39214       92.45452        4.34375        4.57418       18.69107        0.14776
329.50000        8.36273       20.68488       91.90907        3.95376        4.46969       20.08160        0.14124
330.00000        8.21818       20.09188       88.38543        3.97826        4.73477       24.03150        0.12589
330.50000        8.22909       20.02410       84.15816        3.90037        4.95398       27.98141        0.11308
331.00000        8.24000       20.48192       82.09089        3.51038        5.13790       28.77231        0.11045
331.50000        8.24909       21.04723       86.40816        4.42958        6.67449       26.97129        0.12059
332.00000        8.26000       21.33630       91.58998        6.28160        8.10768       24.37045        0.12901
332.50000        8.26909       21.35573       93.54543        4.73220        6.45248       21.76998        0.12861
333.00000        8.28000       21.31044       93.81816        4.47025        5.72532       21.16163        0.12575
333.50000        8.29091       20.68033       92.90998        4.15708        5.37446       20.41927        0.15684
334.00000        8.30000       19.32335       88.36362        4.26274        5.93519       19.32335        0.18796
334.50000        8.31091       17.69491       81.81816        4.09934        6.08338       19.61700        0.17104
335.00000        8.32000       17.42421       78.81816        3.70065        5.88760       22.68209        0.12042
335.50000        8.40309       18.77049       79.36362        4.70681        6.68216       26.78556        0.07738
336.00000        8.63091       20.38551       84.98725        6.58203        7.51825       28.87078        0.05411
336.50000        8.82054       21.62467       89.67543        6.45870        7.76304       26.87305        0.07912
337.00000        9.04818       22.48760       94.90907        5.73154        7.36486       25.71022        0.10410
337.50000        9.18782       23.20664       94.14543        5.72850        6.88792       26.78339        0.12494
338.00000        9.11509       24.88967       92.18180        4.39649        6.16075       28.63935        0.12292
338.50000        9.09091       25.82316       89.61271        4.21135        5.28816       28.72989        0.12361
339.00000        9.09091       25.23290       84.95453        7.74888        9.34307       25.55009        0.14902
339.50000        9.07273       22.66261       79.36362       11.41734       13.83326       21.71198        0.17443
340.00000        8.99000       19.64715       76.29544       10.46793       12.38096       19.08043        0.16657
340.50000        8.89091       18.02108       74.45453       11.50887       12.95814       19.16914        0.10484
341.00000        8.78182       18.21308       74.86362       10.87831       12.86815       19.91617        0.05270
341.50000        8.82218       19.79885       78.15271        7.10718        8.86514       20.64674        0.04921
342.00000        8.84545       21.90527       82.87907        5.55828        6.76552       21.68078        0.04499
342.50000        8.82273       23.87805       86.81725        6.33785        7.29437       23.42870        0.04149
343.00000        8.79545       26.22578       89.50907        4.53773        5.33482       24.20570        0.04347
343.50000        8.79673       27.39986       88.05543        4.53520        4.68012       22.34216        0.08982
344.00000        8.82145       26.00468       85.96362        4.87999        5.04955       18.64116        0.13377
344.50000        8.80109       23.28977       83.45453        4.64507        5.51173       17.94596        0.18647
345.00000        8.74218       20.57450       84.23453        4.81645        5.42804       18.41146        0.17197
345.50000        8.67164       20.24878       85.99907        3.91487        5.32935       21.35480        0.12857
346.00000        8.63636       23.17383       88.18089        3.82683        5.24566       24.29813        0.07279
346.50000        8.63636       26.84586       88.49998        4.01075        6.22088       26.59505        0.04179
347.00000        8.73291       28.56545       87.68180        4.19467        6.47147       27.43182        0.08984
347.50000        8.82964       27.98763       91.31725        4.55446        6.32401       27.65235        0.13793
348.00000        8.94545       26.27033       99.36271        4.71229        5.88620       26.19538        0.17154
348.50000        9.02854       24.83914      104.72725        4.53535        5.44838       24.70166        0.16865
349.00000        9.09782       24.64833      104.39998        4.72122        5.08354       23.20757        0.16624
349.50000        9.18091       24.53046      101.72725        4.61674        5.29789       22.90854        0.16331
350.00000        9.24164       24.21541       98.31816        4.11634        5.14906       24.72270        0.17101
350.50000        9.27239       24.12512       97.34916        3.82675        4.69947       28.27124        0.17700
351.00000        9.25247       23.05877      100.63983        4.21206        5.06442       29.77602        0.19366
351.50000        9.23583       21.59697      104.75318        4.13680        5.37315       27.15657        0.19870
352.00000        9.01645       19.38391      107.86012        4.22684        5.70319       22.83897        0.19645
352.50000        8.79707       18.67940      102.47987        5.05630        6.11520       20.70511        0.15526
353.00000        8.44973       20.20900       92.08133        5.21907        6.70997       20.73636        0.11443
353.50000        8.22303       22.53894       75.51004        7.54328        8.73600       21.43093        0.08791
354.00000        8.15722       24.41415       59.12247        7.54074        9.94072       21.43208        0.07261
354.50000        8.15210       25.57550       47.16635        8.33769       10.41040       21.43303        0.07360
355.00000        8.14607       25.15439       47.16635        9.10605       10.95331       22.54292        0.07483
355.50000        8.14095       24.36010       55.17366        8.15610       10.29573       23.87507        0.07582
356.00000        8.16545       23.40725       65.53929        6.72907        8.98360       24.34884        0.07078
356.50000        8.20548       23.64542       68.62430        9.99923       10.59705       23.36769        0.05896
357.00000        8.19378       24.57722       62.87110        9.53074       11.01436       22.03455        0.04683
357.50000        8.16636       26.35753       54.34551        9.21402       10.21619       21.54902        0.04150
358.00000        8.13894       27.34808       49.63436        9.39861       10.36733       20.96623        0.04477
358.50000        8.12870       27.65835       47.19652        9.53083       10.51846       21.02723        0.04872
359.00000        8.12834       27.67974       43.97988        9.42357       10.93047       21.07782        0.05263
359.50000        8.14735       27.60680       40.80712       10.94633       12.70923       19.81365        0.05594
360.00000        8.17020       27.60102       37.00365       11.43397       15.07031       19.12758        0.05985
360.50000        8.19305       27.63226       34.27787       10.99456       13.78727       19.03730        0.06312
361.00000        8.21207       27.87428       32.90676        9.65771       11.71878       18.49101        0.05819
361.50000        8.15027       28.32068       31.26142        9.53444       11.23188       17.39198        0.04876
362.00000        8.08866       28.76707       31.26142        7.78595        9.85139       16.53438        0.04094
362.50000        8.04698       29.13919       32.28976        8.28181        9.49926       16.46253        0.03156
363.00000        8.04351       29.58559       33.52376        8.94399        9.70763       16.77589        0.02916
