~Version ---------------------------------------------------
VERS. 2.0 : CWLS LOG ASCII STANDARD - VERSION 2.0
WRAP. NO  : One line per depth step
DLM . SPACE : Column Data Section Delimiter
~Well ------------------------------------------------------
STRT.F           11 : START DEPTH
STOP.F       1368.0 : STOP DEPTH
STEP.F          0.5 : STEP
NULL.       -999.25 : NULL VALUE
COMP.                 WALSH & WATTS, INC. : COMPANY
WELL.                      HOWARD AB E 4E : WELL
FLD .             MONTAGUE COUNTY REGULAR : FIELD
CNTY.                            MONTAGUE : COUNTY
STAT.                                     : STATE
CTRY.                                 USA : COUNTRY
SEC .                                     : SECTION
TWP .                                     : TOWNSHIP
RGE .                                     : RANGE
LOC . 3250'FEL & 1590'FSL OF THE J.CHAMBLIS SURVEY A-123 : LOCATION
EKB .F                          : ELEVATION KELLY BUSHING
EDF .F                          : ELEVATION DERRICK FLOOR
EGL .F                          : ELEVATION GROUND LEVEL
PDAT.                        GL : PERMANENT DATUM
EPD .                           : ELEVATION PERMANENT DATUM
APD .                         8 : ABOVE PERMANENT DATUM
LMF .                        KB : LOG MEASURED FROM
DMF .                        KB : DRILLING MEASURED FROM
API .            42337348780000 : API NUMBER
UWI .                           : UWI NUMBER
DIGC.                     NthDS : DIGITIZING COMPANY
~Params ----------------------------------------------------
SRVC. PIONEER WIRELINE SERVICES : LOGGING COMPANY
LOG .                      CNFD : LOG
DATE.                2012-08-01 : RUN DATE
RUN .                         1 : RUN NUMBER
TDD .F                     1400 : TOTAL DEPTH DRILLER
TDL .F                     1396 : TOTAL DEPTH LOGGER
BOTL.F                     1368 : BOTTOM LOGGED INTERVAL
TOPL.F                       50 : TOP LOGGED INTERVAL
CSGS.IN                         : CASING SIZE
CSGD.F                          : CASING DRILLER
CSGL.F                          : CASING LOGGER
BS  .IN                   7.875 : BIT SIZE
MUD .                  CHEM-GEL : MUD TYPE
MUDD.                           : MUD DENSITY
MUDV.                           : MUD VISCOSITY
PH  .                           : MUD PH
FL  .                           : FLUID LOSS
MUDS.                  FLOWLINE : SOURCE OF SAMPLE
RM  .OHMM                   2.4 : MUD RESISTIVITY
RMT .DEGF                    73 : RM TEMPERATURE
RMF .OHMM                   1.8 : MUD FILTRATE RESISTIVITY
RMFT.DEGF                    73 : RMF TEMPERATURE
RMC .OHMM                   3.0 : MUD CAKE RESISTIVITY
RMCT.DEGF                    73 : RMC TEMPERATURE
RMFS.                      CALC : RMF SOURCE
RMCS.                      CALC : RMC SOURCE
RMBH.OHMM                   2.0 : MUD RESISTIVITY AT BHT
BHT .DEGF                    86 : BOTTOM HOLE TEMPERATURE
TIMC.           0200 2012-08-01 : TIME CIRCULATION STOPPED
TIML.           0430 2012-08-01 : TIME LOGGER ON BOTTOM
TMAX.DEGF                    86 : MAXIMUM RECORDED TEMPERATURE
UNIT.                       110 : EQUIPMENT NUMBER
BASE.                GRAHAM, TX : BASE LOCATION
ENG .                    WENDEL : RECORDED BY
WIT .           OVERBY/BURLESON : WITNESSED BY
~Curve Information -----------------------------------------
DEPT.F          :DEPTH
CALD.IN         :
DPHI.V/V        :
GRD.GAPI        :
NPHI.%          :
PEC.B/E         :
RLML.OHMM       :
RNML.OHMM       :
ZCOR.G/C3       :
~ASCII ------------------------------------------------------
# ...
1004.00000        7.74420        0.30018       31.21546       23.63996        1.92446        8.68231       13.39350        0.01159
1004.50000        7.75709        0.30018       32.59668       22.99029        1.92986        8.30325       13.44765        0.00242
1005.00000        7.76796        0.30017       32.59668       22.44884        1.89101        9.58700       13.79061       -0.00105
1005.50000        7.76796        0.30017       31.76795       22.51519        1.84403       10.22382       15.16245        0.00227
1006.00000        7.76796        0.30017       30.66298       22.86840        1.80519        9.24909       14.23393        0.00505
1006.50000        7.76796        0.30016       30.66298       22.33476        1.75857        8.50180       14.22382        0.00838
1007.00000        7.76796        0.30016       31.49171       21.14727        1.71973        8.50541       13.22093        0.01115
1007.50000        7.76796        0.30015       32.04419       20.16420        1.67275        7.94223       12.20216        0.01148
1008.00000        7.76796        0.30015       32.32043       20.16683        1.64892        8.88953       13.15523        0.01047
1008.50000        7.76796        0.30015       31.76795       20.70022        1.69242        9.60288       13.73285        0.00928
1009.00000        7.76796        0.30014       30.66298       21.13041        1.72866        9.41010       14.10324        0.00639
1009.50000        7.76796        0.30014       29.83425       21.40081        1.77216        9.60288       13.79061       -0.00036
1010.00000        7.76796        0.30014       30.11049       21.71314        1.81573        9.18411       12.89819       -0.00599
1010.50000        7.76796        0.30014       30.38673       22.24395        1.87425        8.40433       11.40144       -0.00841
1011.00000        7.76796        0.30013       33.14916       22.66971        1.92295        8.01444       11.49025       -0.00675
1011.50000        7.76796        0.30013       37.56905       21.89703        1.98146        8.49097       11.45631       -0.00578
1012.00000        7.76796        0.30013       40.88397       21.04176        2.03016        8.12274       10.61371       -0.00578
1012.50000        7.74954        0.30012       42.26518       20.18613        2.08831        7.87003        9.31408        0.00224
1013.00000        7.74954        0.30012       41.16021       20.13499        2.13701        8.95306       10.83032        0.01069
1013.50000        7.74954        0.30012       39.50275       20.29888        2.19552        8.58339       10.32491        0.02271
1014.00000        7.76796        0.30011       38.39778       20.69231        2.24422        4.56678        6.23321        0.02422
1014.50000        7.73112        0.29711       38.95027       21.28205        2.30274        4.91769        8.30325        0.01921
1015.00000        7.73112        0.28028       40.88397       21.77338        2.36829        6.20938        9.79566        0.01451
1015.50000        7.73112        0.27633       43.09391       22.36312        2.47772        7.94223       10.32491        0.00617
1016.00000        7.74954        0.28731       45.58010       22.85482        2.56891        7.31047       10.75812       -0.00079
1016.50000        7.73112        0.30050       46.13259       23.40515        2.50984        9.34512       12.70758       -0.00484
1017.00000        7.71271        0.30058       44.75137       23.70016        2.43290        9.26787       12.85198       -0.00751
1017.50000        7.69429        0.30068       41.16021       23.91532        2.34013        8.55956       12.85198       -0.01072
1018.00000        7.67587        0.30080       35.91159       23.86300        2.26283        8.25487       13.26425       -0.01339
1018.50000        7.65746        0.30090       32.32043       22.52273        2.17042        9.00722       11.62454       -0.01661
1019.00000        7.65746        0.30102       29.55800       21.40596        2.10228        9.21805       12.34656       -0.01029
1019.50000        7.65746        0.30112       28.72928       20.56145        2.06519       10.06498       13.86281       -0.00271
1020.00000        7.65746        0.30124       28.72928       20.95480        2.03440        9.27797       12.50108        0.00361
1020.50000        7.65746        0.29801       30.93922       21.50771        2.12185        7.43682       10.83032        0.00993
1021.00000        7.67587        0.28727       34.53038       21.72906        2.19473       10.04404       14.23393        0.01314
1021.50000        7.65746        0.27291       40.33148       21.04182        2.28218       12.46714       15.84331        0.01693
1022.00000        7.65746        0.26094       45.58010       20.49853        2.32575       11.92924       14.86137        0.01888
1022.50000        7.67587        0.25671       51.93369       19.99907        2.29159        8.12707        9.59061        0.01513
1023.00000        7.67587        0.26816       54.14363       20.56266        2.20659        5.99278        5.19855        0.01202
1023.50000        7.63904        0.28190       51.93369       20.84706        2.10467       10.39711        8.36101        0.00830
1024.00000        7.63904        0.28951       49.72375       20.56381        2.13872       10.61371       10.49314        0.00516
1024.50000        7.60221        0.28700       51.65745       19.88276        2.17928        7.91841        9.84043        0.00144
1025.00000        7.60221        0.27715       55.52485       19.44120        2.21333        5.51119        5.97184        0.00978
1025.50000        7.52854        0.26760       58.28728       19.75426        2.17624        5.84837        6.94368        0.01978
1026.00000        7.54696        0.26668       54.69612       20.19004        2.14545        7.47292        9.15884        0.02809
1026.50000        7.54696        0.27737       47.23756       20.39518        2.10836        8.88086       11.95812        0.03809
1027.00000        7.52854        0.28628       39.22651       20.10095        2.07721        7.79783       12.63537        0.04523
1027.50000        7.52854        0.29565       33.97789       19.40554        2.04012        8.00216       10.46931        0.04794
1028.00000        7.56538        0.30100       31.49171       19.10541        2.02765        6.89530       10.39711        0.05018
1028.50000        7.58379        0.30107       31.49171       19.28293        2.02719        5.39711        8.61949        0.05040
1029.00000        7.56538        0.30115       32.87292       20.10398        2.02680        6.28159        9.06859        0.04635
1029.50000        7.56538        0.30122       34.53038       20.92539        2.01645        7.65343       10.64981        0.03588
1030.00000        7.56538        0.30130       35.63535       19.89665        1.99116        7.24404       10.73429        0.02476
1030.50000        7.58379        0.30024       35.91159       18.86791        1.96066        7.54512       10.01010        0.01520
1031.00000        7.54696        0.29700       35.35911       17.63335        1.93537        5.34296        7.77834        0.01350
1031.50000        7.52854        0.29054       34.25414       17.88600        1.88912        5.41516        6.20938        0.01148
1032.00000        7.54696        0.28515       32.87292       18.77003        1.82537        4.95812        5.68303        0.00978
1032.50000        7.54696        0.28368       30.66298       20.32250        1.74835        5.43899        6.42599        0.00776
1033.00000        7.52854        0.28368       28.72928       20.99438        1.68423        4.80144        4.44043        0.00606
1033.50000        7.54696        0.28369       28.17679       20.39879        1.62920        5.55956        5.42166        0.01011
1034.00000        7.52854        0.27975       29.28176       18.76717        1.68669        5.57906        6.80000        0.01852
1034.50000        7.51013        0.27042       30.66298       17.40730        1.77780        4.75234        5.90252        0.02863
