~Version ---------------------------------------------------
VERS. 2.0 : CWLS LOG ASCII STANDARD - VERSION 2.0
WRAP. NO  : One line per depth step
DLM . SPACE : Column Data Section Delimiter
~Well ------------------------------------------------------
STRT.F           48 : START DEPTH
STOP.F       1432.0 : STOP DEPTH
STEP.F          0.5 : STEP
NULL.       -999.25 : NULL VALUE
COMP.                 WALSH & WATTS, INC. : COMPANY
WELL.                         HOWARD F 25 : WELL
FLD .                            MONTAGUE : FIELD
CNTY.                            MONTAGUE : COUNTY
STAT.                               TEXAS : STATE
CTRY.                                 USA : COUNTRY
SEC .                                     : SECTION
TWP .                                     : TOWNSHIP
RGE .                                     : RANGE
LOC . 1115'FEL & 2300'FSL OF THE J.CHAMBLIS SURVEY A-123 : LOCATION
EKB .F                      512 : ELEVATION KELLY BUSHING
EDF .F                      511 : ELEVATION DERRICK FLOOR
EGL .F                      505 : ELEVATION GROUND LEVEL
PDAT.                        GL : PERMANENT DATUM
EPD .                       505 : ELEVATION PERMANENT DATUM
APD .                         7 : ABOVE PERMANENT DATUM
LMF .                        KB : LOG MEASURED FROM
DMF .                        KB : DRILLING MEASURED FROM
API .            42337343120000 : API NUMBER
UWI .                           : UWI NUMBER
DIGC.                     NthDS : DIGITIZING COMPANY
~Params ----------------------------------------------------
SRVC. PIONEER WIRELINE SERVICES : LOGGING COMPANY
LOG .                   CNFD/ML : LOG
DATE.                2010-10-07 : RUN DATE
RUN .                         1 : RUN NUMBER
TDD .F                     1450 : TOTAL DEPTH DRILLER
TDL .F                     1452 : TOTAL DEPTH LOGGER
BOTL.F                     1452 : BOTTOM LOGGED INTERVAL
TOPL.F                       50 : TOP LOGGED INTERVAL
CSGS.IN                         : CASING SIZE
CSGD.F                          : CASING DRILLER
CSGL.F                          : CASING LOGGER
BS  .IN                   7.875 : BIT SIZE
MUD .                  GEL-CHEM : MUD TYPE
MUDD.                           : MUD DENSITY
MUDV.                           : MUD VISCOSITY
PH  .                           : MUD PH
FL  .                           : FLUID LOSS
MUDS.                  FLOWLINE : SOURCE OF SAMPLE
RM  .OHMM                   4.0 : MUD RESISTIVITY
RMT .DEGF                    72 : RM TEMPERATURE
RMF .OHMM                   3.0 : MUD FILTRATE RESISTIVITY
RMFT.DEGF                    72 : RMF TEMPERATURE
RMC .OHMM                   5.0 : MUD CAKE RESISTIVITY
RMCT.DEGF                    72 : RMC TEMPERATURE
RMFS.                      CALC : RMF SOURCE
RMCS.                      CALC : RMC SOURCE
RMBH.OHMM                     3 : MUD RESISTIVITY AT BHT
BHT .DEGF                    88 : BOTTOM HOLE TEMPERATURE
TIMC.           0730 2010-10-07 : TIME CIRCULATION STOPPED
TIML.           1020 2010-10-07 : TIME LOGGER ON BOTTOM
TMAX.DEGF                    88 : MAXIMUM RECORDED TEMPERATURE
UNIT.                      M-19 : EQUIPMENT NUMBER
BASE.                GRAHAM, TX : BASE LOCATION
ENG .                    WENDEL : RECORDED BY
WIT .           WOMBLE/BURLESON : WITNESSED BY
~Curve Information -----------------------------------------
DEPT.F          :DEPTH
CALD.IN         :
DPHI.%          :
GRD.GAPI        :
MINV.OHMM       :
MNOR.OHMM       :
NPHI.%          :
RHOC.G/CC       :
~ASCII ------------------------------------------------------
# ...
223.50000        8.90803       24.04922       81.58849        3.70909        4.54691       28.00179        0.11764
224.00000        9.21296       24.00646       80.01732        4.07273        4.77673       26.02656        0.13309
224.50000        9.46715       24.03925       79.56294        4.50909        5.05309       24.05133        0.14658
225.00000        9.68613       24.40636       79.37954        4.40582        5.14909       23.61333        0.14938
225.50000        9.75474       24.68784       80.66878        4.07273        4.80000       24.93194        0.15273
226.00000        9.78704       24.41159       82.27827        4.07273        4.80000       27.12885        0.17455
226.50000        9.82573       24.12673       84.21075        3.86909        4.80000       29.11826        0.19273
227.00000        9.87117       23.78461       84.97443        4.21818        4.80000       28.99022        0.18425
227.50000        9.85493       23.69189       85.12772        4.21818        4.80000       27.87500        0.17382
228.00000        9.79106       23.94921       84.38046        4.70254        4.92945       27.31623        0.17200
228.50000        9.72719       24.46270       84.22717        5.28436        5.31782       27.50017        0.15924
229.00000        9.67390       26.38514       86.57571        4.29091        4.83636       28.64970        0.13585
229.50000        9.69653       28.47227       89.38958        4.17018        4.47273       29.79960        0.11636
230.00000        9.85949       29.91749       91.14961        4.21818        4.36363       29.98666        0.13236
230.50000       10.05493       29.91443       93.03009        3.45454        4.36363       29.98213        0.14836
231.00000       10.06332       29.91118       96.10947        3.34545        4.36363       29.97669        0.15305
231.50000       10.03887       29.90758       95.83848        3.05454        4.36363       29.97089        0.14313
232.00000       10.01916       29.90488       91.13045        3.10545        4.18909       29.96636        0.14407
232.50000       10.04653       29.90127       86.42243        3.14909        3.56363       29.96092        0.15385
233.00000       10.14233       29.89803       85.18246        3.20000        3.87927       28.92421        0.16847
233.50000       10.21533       29.89532       88.09761        3.39345        4.07273       28.06003        0.19295
234.00000       10.13011       29.89172       92.14049        3.67273        4.23418       28.48570        0.19393
234.50000        9.92737       25.18935       93.42972        4.21818        5.41091       29.62864        0.19516
235.00000        9.68412       19.80448       90.81841        4.65454        6.95127       29.55641        0.19636
235.50000        9.45547       18.07335       88.11951        4.80000        6.89891       28.61009        0.14727
236.00000        9.28960       19.03075       86.77005        5.77018        6.83636       27.72945        0.09309
236.50000        9.15474       20.46646       88.10856        6.06109        7.38181       27.55420        0.07698
237.00000        9.14781       21.73640       89.41695        4.13091        5.89091       28.05965        0.08756
237.50000        9.14215       22.06691       87.59122        4.07273        4.65454       28.69501        0.09818
238.00000        9.13522       21.85744       85.40144        4.58182        4.92073       28.69706        0.10909
238.50000        9.12847       21.43774       83.21166        4.32727        4.88873       28.29053        0.10909
239.00000        9.12281       21.22827       81.38593        4.65454        4.85091       27.74255        0.10909
239.50000        9.11387       21.22942       79.19615        4.21818        4.81309       27.54242        0.09455
240.00000        9.10547       21.45014       78.83210        3.85454        4.65454       27.27532        0.08364
240.50000        9.15894       21.13657       82.87498        3.94763        4.36363       26.39175        0.08364
241.00000        9.23668       20.10808       86.91786        4.24727        5.12291       25.33162        0.10182
241.50000        9.27098       18.57859       90.28739        4.20218        5.20436       25.62535        0.10182
242.00000        9.24088       17.06284       94.33027        4.59054        5.58545       27.67587        0.09818
242.50000        9.17518       16.33187       96.48720        6.47272        7.69891       27.64555        0.06545
243.00000        8.98723       16.04026       95.77279        7.05454        9.72509       25.72029        0.04000
243.50000        8.95493       16.55375       93.21896        7.41818       10.59345       25.38200        0.03676
244.00000        8.92244       17.16971       93.88684        5.67272        8.33891       25.45085        0.03789
244.50000        8.89544       17.65374       96.62407        5.09091        7.06472       24.99143        0.03884
245.00000        8.86296       18.09404       99.90874        7.46618        8.43636       23.39150        0.04000
245.50000        8.83047       18.73196      101.27735        6.83636        8.31127       22.32898        0.03393
246.00000        8.80347       19.82111      100.04560        5.90545        8.00000       21.05366        0.02887
246.50000        8.77098       20.83468       96.35034        7.27272        7.62618       20.49068        0.02284
247.00000        8.73850       22.05082       90.43794        8.77527       11.44290       20.80655        0.05665
247.50000        8.71150       21.66149       86.38684       10.61818       14.48727       21.32407        0.09153
248.00000        8.66952       20.71114       86.22261       13.67272       14.96145       22.00847        0.10545
248.50000        8.62244       19.91943       87.04378       12.72727       16.72727       22.26450        0.08985
249.00000        8.59380       19.39433       86.72078       12.65454       18.73454       21.92897        0.07429
249.50000        8.60949       19.14424       81.50363        8.37818       13.67272       20.01669        0.06244
250.00000        8.65000       18.80654       77.15692        8.58181        9.86181       18.23727        0.06393
250.50000        8.67559       18.59836       72.09834        8.64126        9.37871       19.39781        0.06539
251.00000        8.72423       18.55783       70.25408        9.15799        9.94926       20.36512        0.06349
251.50000        8.68743       18.75825       70.10108        8.64586       13.82546       20.68765        0.06190
252.00000        8.62022       19.00856       72.26774        9.50099       14.63114       20.78642        0.06001
252.50000        8.60984       19.23311       79.08741        7.46646       11.27589       21.68097        0.05811
253.00000        8.67978       19.41999       88.29233        4.05544        6.09179       22.24591        0.05845
253.50000        8.74973       19.77890       93.44260        6.23420        7.88946       21.69551        0.05943
254.00000        8.80801       20.57528       92.19943        9.28618       10.88617       22.70322        0.06020
254.50000        8.87796       21.37167       90.71036        7.10133       10.88313       25.76831        0.06118
255.00000        8.91840       21.65598       93.54096        7.19625        9.28060       26.68353        0.07357
255.50000        8.96703       21.35366       96.93714        5.64121        8.55028       25.81503        0.09126
256.00000        9.00747       20.81825       98.08741        5.63816        6.36543       24.57707        0.11467
256.50000        8.98124       20.17589       93.98905        7.93816        9.85378       25.22409        0.12392
257.00000        8.91749       20.58160       89.89069        7.19039       10.72346       26.76086        0.08831
257.50000        8.89617       22.97760       87.15845        5.70277        7.81184       28.29764        0.05955
258.00000        9.01767       25.37359       84.42621        4.60882        5.19063       29.23735        0.05705
