~Version ---------------------------------------------------
VERS. 2.0 : CWLS LOG ASCII STANDARD - VERSION 2.0
WRAP. NO  : One line per depth step
DLM . SPACE : Column Data Section Delimiter
~Well ------------------------------------------------------
STRT.F           40 : START DEPTH
STOP.F       1271.0 : STOP DEPTH
STEP.F          0.5 : STEP
NULL.       -999.25 : NULL VALUE
COMP.                 WALSH & WATTS, INC. : COMPANY
WELL.                         HOWARD G 17 : WELL
FLD .             MONTAGUE COUNTY REGULAR : FIELD
CNTY.                            MONTAGUE : COUNTY
STAT.                               TEXAS : STATE
CTRY.                                 USA : COUNTRY
SEC .                                     : SECTION
TWP .                                     : TOWNSHIP
RGE .                                     : RANGE
LOC . 520'FNL & 4250'FEL OF THE J.CHAMBLIS SURVEY, A-123 : LOCATION
EKB .F                      519 : ELEVATION KELLY BUSHING
EDF .F                      518 : ELEVATION DERRICK FLOOR
EGL .F                      512 : ELEVATION GROUND LEVEL
PDAT.                        GL : PERMANENT DATUM
EPD .                       512 : ELEVATION PERMANENT DATUM
APD .                         7 : ABOVE PERMANENT DATUM
LMF .                        KB : LOG MEASURED FROM
DMF .                        KB : DRILLING MEASURED FROM
API .            42337343900000 : API NUMBER
UWI .                           : UWI NUMBER
DIGC.                     NthDS : DIGITIZING COMPANY
~Params ----------------------------------------------------
SRVC. PIONEER WIRELINE SERVICES : LOGGING COMPANY
LOG .                      CNFD : LOG
DATE.                2010-10-13 : RUN DATE
RUN .                         1 : RUN NUMBER
TDD .F                     1298 : TOTAL DEPTH DRILLER
TDL .F                     1280 : TOTAL DEPTH LOGGER
BOTL.F                     1280 : BOTTOM LOGGED INTERVAL
TOPL.F                       50 : TOP LOGGED INTERVAL
CSGS.IN                         : CASING SIZE
CSGD.F                          : CASING DRILLER
CSGL.F                          : CASING LOGGER
BS  .IN                   7.875 : BIT SIZE
MUD .                  GEL-CHEM : MUD TYPE
MUDD.                           : MUD DENSITY
MUDV.                           : MUD VISCOSITY
PH  .                           : MUD PH
FL  .                           : FLUID LOSS
MUDS.                  FLOWLINE : SOURCE OF SAMPLE
RM  .OHMM                   3.6 : MUD RESISTIVITY
RMT .DEGF                    72 : RM TEMPERATURE
RMF .OHMM                   2.7 : MUD FILTRATE RESISTIVITY
RMFT.DEGF                    72 : RMF TEMPERATURE
RMC .OHMM                   4.5 : MUD CAKE RESISTIVITY
RMCT.DEGF                    72 : RMC TEMPERATURE
RMFS.                      CALC : RMF SOURCE
RMCS.                      CALC : RMC SOURCE
RMBH.OHMM                   3.0 : MUD RESISTIVITY AT BHT
BHT .DEGF                    85 : BOTTOM HOLE TEMPERATURE
TIMC.           0245 2010-10-13 : TIME CIRCULATION STOPPED
TIML.           0540 2010-10-13 : TIME LOGGER ON BOTTOM
TMAX.DEGF                    85 : MAXIMUM RECORDED TEMPERATURE
UNIT.                      M-19 : EQUIPMENT NUMBER
BASE.             GRAHAM, TEXAS : BASE LOCATION
ENG .                    WENDEL : RECORDED BY
WIT .           WOMBLE/BURLESON : WITNESSED BY
~Curve Information -----------------------------------------
DEPT.F          :DEPTH
CALI.IN         :
DPHI.PU         :
GRD.GAPI        :
MINV.OHMM       :
MNOR.OHMM       :
NPHI.PU         :
RHOC.G/CC       :
~ASCII ------------------------------------------------------
# ...
285.50000        7.22801       22.86645       86.96615        4.97417        5.31365       22.40465        0.13959
286.00000        7.18045       22.09937       87.59490        4.74834        5.18671       23.06079        0.13727
286.50000        7.13534       21.14603       87.33551        4.52398        4.87085       23.50444        0.15365
287.00000        7.04436       19.98295       84.92479        4.25535        4.57564       25.20327        0.16572
287.50000        6.93365       18.58704       81.20299        4.02952        4.42804       27.76302        0.16310
288.00000        6.90226       18.21310       77.81953        3.89373        4.37933       29.92926        0.14727
288.50000        6.87086       17.83915       79.47743        3.83764        4.13284       29.89576        0.15351
289.00000        6.89286       17.13574       84.34115        3.83764        4.13284       29.45790        0.16458
289.50000        6.92105       16.44345       87.63156        4.25978        4.53874       27.33939        0.16063
290.00000        7.16710       16.09573       88.53381        5.31365        6.56826       24.83550        0.13480
290.50000        7.37218       16.32227       87.40599        8.63468        8.32472       22.76681        0.09790
291.00000        7.59530       17.01836       84.41727        8.41328        9.55719       22.02295        0.07295
291.50000        7.87970       18.94528       83.06389        7.08487        8.56088       21.63440        0.05683
292.00000        7.78571       19.78294       83.45863        6.24206        7.67527       21.13013        0.05867
292.50000        7.67293       20.45368       86.56013        5.75645        6.49446       20.31623        0.07011
293.00000        7.52256       20.57899       89.61370        5.53505        6.29815       20.85502        0.09804
293.50000        7.52256       21.13213       90.22554        5.16605        6.34686       22.97669        0.11882
294.00000        7.51316       22.74507       90.22554        4.28044        4.90775       25.39936        0.09827
294.50000        7.50376       24.92554       90.22554        4.13284        4.72325       25.74313        0.08668
295.00000        7.61654       26.16207       93.77817        4.03395        4.63173       24.77631        0.08930
295.50000        7.67293       26.61221       96.52159        4.42804        5.08192       25.10162        0.12066
296.00000        7.69981       25.18959       96.99246        4.94465        5.75645       27.51692        0.14679
296.50000        7.86090       23.50479       93.82047        6.05166        5.88782       27.99927        0.14941
297.00000        7.72669       21.46045       91.29697        6.42066        6.21550       27.16653        0.13620
297.50000        7.54135       20.47239       92.04133        6.10037        6.28339       24.03043        0.13358
298.00000        7.37688       20.13591       92.95205        5.50996        5.97786       19.96100        0.13122
298.50000        7.25940       20.62350       92.48118        5.09225        5.97786       19.46234        0.11948
299.00000        7.17218       22.12221       86.13720        4.64944        5.75645       22.02483        0.11022
299.50000        7.11241       22.64714       84.67949        4.35424        4.77195       24.56260        0.12251
300.00000        7.07547       22.23049       83.64391        4.16974        5.09225       25.50115        0.17170
300.50000        7.20918       21.54199       82.20559        5.43071        6.70412       25.75261        0.18918
301.00000        7.36086       20.96375       75.90559        7.85018        9.51310       26.12275        0.17918
301.50000        7.54813       21.49329       63.67008       11.19850       13.03370       25.90417        0.09929
302.00000        7.70412       23.18572       51.58877       12.13483       13.48314       23.49887        0.05918
302.50000        7.64176       24.43931       43.73831       11.59999       13.65393       21.16865        0.03670
303.00000        7.56685       25.94377       43.70747       10.87191       13.78277       18.87226        0.02622
303.50000        7.45449       26.32030       45.73177       10.23071       12.28464       17.91421        0.02434
304.00000        7.33277       26.52991       47.24298        9.43820       11.53558       17.03935        0.02210
304.50000        7.34831       26.75392       47.94391        8.68913       11.23595       16.76852        0.02022
305.00000        7.36386       27.03647       47.72522        8.16479       10.93632       17.16798        0.02397
305.50000        7.33820       27.36311       46.41868        7.97003       10.03745       18.32770        0.02846
306.00000        7.30936       27.33852       44.85980        7.52060        9.16404       19.09295        0.03438
306.50000        7.26723       26.99437       45.42055        7.26591        8.46442       19.36922        0.05183
307.00000        7.19232       25.15111       50.18690        7.89063        9.66292       19.97545        0.08015
307.50000        7.11816       23.34043       55.79438        6.70412        8.58876       20.50360        0.10824
308.00000        6.97378       21.38614       58.94017        5.13108        7.39026       20.61171        0.12509
308.50000        6.82659       19.62734       60.70092        4.94382        6.52584       19.35028        0.11337
309.00000        6.67959       18.80851       62.17569        4.15730        5.79326       18.15700        0.09393
309.50000        6.53839       19.22263       65.34391        4.43745        6.29213       17.90684        0.07326
310.00000        6.47978       20.45453       67.98223        4.49438        6.37603       20.41393        0.05255
310.50000        6.50225       22.02918       71.02709        4.60075        5.84269       22.37241        0.02771
311.00000        6.55337       23.21898       77.10279        4.19475        4.38202       24.78852        0.03307
311.50000        6.71161       23.54851       84.11213        3.75730        3.88165       25.22144        0.04805
312.00000        7.04869       22.45888       89.29904        4.16030        4.35805       25.29094        0.06408
312.50000        7.29213       21.00584       90.37288        4.56329        4.64419       25.50469        0.08015
313.00000        7.51067       19.90380       88.03736        5.99251        6.29213       27.06930        0.06730
313.50000        7.81180       19.59613       85.65419        4.94382        5.37228       29.26537        0.05659
314.00000        8.01311       20.06788       86.07475        4.45093        4.47790       29.91758        0.06243
314.50000        8.13127       20.16885       87.51587        4.79401        4.81048       29.94335        0.08288
315.00000        8.22041       20.08347       87.47662        5.64344        5.61797       28.13493        0.09513
315.50000        8.30955       20.23707       87.12615        4.34457        4.53183       25.73415        0.08577
316.00000        8.41667       20.88928       86.70559        4.18277        3.93558       24.83249        0.06236
316.50000        8.46086       21.27671       86.35512        4.39101        4.50786       25.58495        0.09513
317.00000        8.49401       21.16827       86.19531        4.70112        4.93183       26.93904        0.12360
317.50000        8.53352       20.56748       86.91587        5.22097        5.27790       27.02722        0.13708
318.00000        8.50468       19.92259       88.82802        5.84269        5.69288       27.24861        0.14607
318.50000        8.39700       19.04611       91.12147        5.65543        5.56854       27.94844        0.14007
319.00000        8.30337       18.72089       89.38316        5.39326        5.41872       28.03186        0.12135
319.50000        8.19906       18.78426       85.58409        5.42322        5.39326       27.29674        0.10026
320.00000        8.07547       19.12331       80.24297        5.87266        6.03595       26.06200        0.10730
