~Version ---------------------------------------------------
VERS. 2.0 : CWLS LOG ASCII STANDARD - VERSION 2.0
WRAP. NO  : One line per depth step
DLM . SPACE : Column Data Section Delimiter
~Well ------------------------------------------------------
STRT.F           48 : START DEPTH
STOP.F       1439.0 : STOP DEPTH
STEP.F          0.5 : STEP
NULL.       -999.25 : NULL VALUE
COMP.                 WALSH & WATTS, INC. : COMPANY
WELL.                         HOWARD F 14 : WELL
FLD .             MONTAGUE COUNTY REGULAR : FIELD
CNTY.                            MONTAGUE : COUNTY
STAT.                               TEXAS : STATE
CTRY.                                 USA : COUNTRY
SEC .                                     : SECTION
TWP .                                     : TOWNSHIP
RGE .                                     : RANGE
LOC . 1430'FEL & 2600'FSL OF THE J.CHAMBLIS SURVEY A-123 : LOCATION
EKB .F                      849 : ELEVATION KELLY BUSHING
EDF .F                      848 : ELEVATION DERRICK FLOOR
EGL .F                      841 : ELEVATION GROUND LEVEL
PDAT.                        GL : PERMANENT DATUM
EPD .                       841 : ELEVATION PERMANENT DATUM
APD .                         8 : ABOVE PERMANENT DATUM
LMF .                        KB : LOG MEASURED FROM
DMF .                        KB : DRILLING MEASURED FROM
API .            42337351020000 : API NUMBER
UWI .                           : UWI NUMBER
DIGC.                     NthDS : DIGITIZING COMPANY
~Params ----------------------------------------------------
SRVC.                   PIONEER : LOGGING COMPANY
LOG .                      CNFD : LOG
DATE.                2013-08-01 : RUN DATE
RUN .                         1 : RUN NUMBER
TDD .F                     1450 : TOTAL DEPTH DRILLER
TDL .F                     1449 : TOTAL DEPTH LOGGER
BOTL.F                     1429 : BOTTOM LOGGED INTERVAL
TOPL.F                       50 : TOP LOGGED INTERVAL
CSGS.IN                         : CASING SIZE
CSGD.F                          : CASING DRILLER
CSGL.F                          : CASING LOGGER
BS  .IN                   7.875 : BIT SIZE
MUD .                       GEL : MUD TYPE
MUDD.                       9.2 : MUD DENSITY
MUDV.                        75 : MUD VISCOSITY
PH  .                           : MUD PH
FL  .                           : FLUID LOSS
MUDS.                  FLOWLINE : SOURCE OF SAMPLE
RM  .OHMM                   2.8 : MUD RESISTIVITY
RMT .DEGF                    72 : RM TEMPERATURE
RMF .OHMM                   2.1 : MUD FILTRATE RESISTIVITY
RMFT.DEGF                    72 : RMF TEMPERATURE
RMC .OHMM                   3.5 : MUD CAKE RESISTIVITY
RMCT.DEGF                    72 : RMC TEMPERATURE
RMFS.                      CALC : RMF SOURCE
RMCS.                      CALC : RMC SOURCE
RMBH.OHMM                   2.3 : MUD RESISTIVITY AT BHT
BHT .DEGF                    87 : BOTTOM HOLE TEMPERATURE
TIMC.           0130 2018-08-01 : TIME CIRCULATION STOPPED
TIML.           0400 2018-08-01 : TIME LOGGER ON BOTTOM
TMAX.DEGF                    87 : MAXIMUM RECORDED TEMPERATURE
UNIT.                     C-052 : EQUIPMENT NUMBER
BASE.                GRAHAM, TX : BASE LOCATION
ENG .                    WENDEL : RECORDED BY
WIT .                  BURLESON : WITNESSED BY
~Curve Information -----------------------------------------
DEPT.F          :DEPTH
CALD.IN         :
DPHI.%          :
GRD.GAPI        :
MINV.OHMM       :
MNOR.OHMM       :
NPHI.%          :
RHOC.G/CC       :
~ASCII ------------------------------------------------------
48.00000        -999.25        -999.25       51.10157        -999.25        -999.25        -999.25        -999.25
48.50000        8.60994        -999.25       51.65504        9.00219        9.67153       17.12337        0.05814
49.00000        8.61027        -999.25       53.30842        7.50803        9.47445       18.83593        0.03770
49.50000        8.61067        -999.25       57.16058        9.48905        8.28832       20.26325        0.02069
50.00000        8.61101        -999.25       60.73904        6.81752        4.86423       21.18607        0.01387
50.50000        8.61141        -999.25       60.00955        4.58029        7.55474       20.70468        0.04453
51.00000        8.61174        -999.25       56.35253        8.30292        9.02700       19.85078        0.09051
51.50000        8.61215        -999.25       50.86410        7.94160        9.12408       19.13877        0.08858
52.00000        8.61255        -999.25       47.57245        8.94160        9.29124       18.92759        0.06084
52.50000        8.61288        -999.25       46.47960        7.31387        8.68613       19.03758        0.03310
53.00000        8.61328        -999.25       47.58454        8.48175        9.43430       19.21723        0.02482
53.50000        8.61289        -999.25       49.23791        7.64014        9.09708       19.85518        0.02482
54.00000        8.60873        -999.25       52.26591        9.27007       11.14963       20.67131        0.02847
54.50000        8.60523        -999.25       56.94124        9.70802        9.20948       22.16205        0.02847
55.00000        8.60107        -999.25       64.36481        3.70803        4.52555       23.51054        0.03577
55.50000        8.59691        -999.25       73.43673        3.27883        4.67153       23.99523        0.07018
56.00000        8.58648        -999.25       81.40874        4.55620        5.62700       23.57984        0.11712
56.50000        8.57410       30.00000       86.63452        5.62044        6.42335       23.89184        0.15620
57.00000        8.56367       27.52521       83.89233        6.13138        7.01752       23.86508        0.16350
57.50000        8.57064       27.00568       76.75556        6.62116        6.86131       23.12814        0.13004
58.00000        8.57955       28.49679       68.24417        6.56934        7.64014       21.85151        0.07956
58.50000        8.59036       30.00000       60.83268        7.50803        8.07810       21.36389        0.05401
59.00000        8.59386       30.00000       58.91465        7.51824        8.07810       21.00422        0.05766
59.50000        8.56609       30.00000       58.09652        7.37226        7.78613       19.70669        0.05766
60.00000        8.53292       30.00000       59.47517        7.46715        7.96204       18.89093        0.06496
60.50000        8.52924       30.00000       63.05262        7.94160        8.29854       18.72961        0.06496
61.00000        8.53219       30.00000       62.78293        7.29927        8.02919       18.83960        0.06131
61.50000        8.53472       30.00000       56.74506        7.19708        7.59124       19.10174        0.04307
62.00000        8.53767       30.00000       49.33256        6.67372        7.62262       19.53694        0.03942
62.50000        8.54001       30.00000       45.21775        7.29927        7.50949       21.32392        0.02117
63.00000        8.54297       30.00000       45.77223        5.91241        7.59124       23.36389        0.03577
63.50000        8.54593       30.00000       48.80023        7.00730        7.91970       23.20660        0.05175
64.00000        8.54845       30.00000       50.72833        7.20657        7.64963       22.10596        0.08376
64.50000        8.73662       30.00000       52.93216        7.44525        7.72262       20.80880        0.10562
65.00000        8.79243       30.00000       54.86126        6.77591        8.04160       19.53254        0.10876
65.50000        8.82331       30.00000       56.23992        7.29927        7.73722       19.27223        0.07226
66.00000        8.82364       30.00000       56.24596        7.13868        7.81678       19.61357        0.03212
66.50000        8.82404       30.00000       55.70155        7.02043        7.48540       20.25811        0.02847
67.00000        8.82445       30.00000       52.96035        6.38321        7.37226       21.31073        0.02847
67.50000        8.82478       30.00000       49.11926        7.59124        8.68613       21.98900        0.02482
68.00000        8.82518       30.00000       45.55390        7.33576        7.95620       22.16609        0.01752
68.50000        8.82552       30.00000       45.28421        6.48029        7.08029       22.04070        0.01387
69.00000        8.82592       30.00000       45.01553        6.62189        7.32335       21.10724        0.01022
69.50000        8.82625       30.00000       44.47112        6.79270        7.43868       20.01540        0.01022
70.00000        8.82665       30.00000       45.30133        6.93430        7.23941       19.72906        0.01022
70.50000        8.82705       30.00000       46.67998        6.09489        7.43065       20.48396        0.01022
71.00000        8.82739       30.00000       47.51019        6.85328        7.70949       22.62402        0.01387
71.50000        8.82779       30.00000       46.69105        6.61022        7.29927       23.79652        0.01752
72.00000        8.82812       30.00000       43.40042        6.93430        7.48686       23.16664        0.03212
72.50000        8.82853       30.00000       40.38349        7.29927        7.76861       21.86068        0.03942
73.00000        8.83379       30.00000       38.46647        6.94087        7.68248       20.29331        0.05766
73.50000        8.86411       30.00000       38.47151        6.50949        7.22627       19.73932        0.05401
74.00000        8.87911       30.00000       39.85116        6.67445        7.48175       19.67663        0.04307
74.50000        8.86649       30.00000       41.23082        6.97518        7.73722       19.56004        0.03942
75.00000        8.87474       30.00000       42.33475        7.22627        7.51824       19.10578        0.03942
75.50000        8.88164       30.00000       43.16496        6.47810        7.27956       18.45096        0.03942
76.00000        8.88588       30.00000       44.26889        6.75182        7.17956       18.63025        0.03212
76.50000        8.88621       30.00000       45.09910        6.60146        7.11679       19.70559        0.02847
77.00000        8.88333       30.00000       44.55469        6.35036        7.29927       20.07993        0.01387
77.50000        8.86384       30.00000       44.01128        6.71533        7.51824       19.78735        0.02117
78.00000        8.85578       30.00000       45.38994        6.85474        7.33576       18.84766        0.02117
78.50000        8.88538       30.00000       50.61572        6.72189        7.18394       18.38827        0.02847
79.00000        8.90998       30.00000       60.51180        5.02190        4.96350       18.50596        0.04307
79.50000        8.95546       30.00000       74.25301        3.59124        2.77372       18.96425        0.05036
80.00000        9.00634       29.52337       88.54466        3.87664        3.38686       19.67076        0.05766
80.50000        9.06769       29.39505       97.61658        4.32263        3.60584       20.52062        0.05401
81.00000        9.09291       30.00000       98.99523        3.30876        2.61314       21.55124        0.03942
81.50000        9.05419       30.00000       97.35293        2.40876        2.35036       22.60202        0.05766
82.00000        9.16773       30.00000       95.70962        3.19708        3.17518       23.48598        0.09781
82.50000        9.08595       30.00000       95.44094        3.74671        3.39416       24.02896        0.13066
83.00000        9.05898       30.00000       97.09432        2.73723        2.48175       24.26471        0.15255
