~Version ---------------------------------------------------
VERS. 2.0 : CWLS LOG ASCII STANDARD - VERSION 2.0
WRAP. NO  : One line per depth step
DLM . SPACE : Column Data Section Delimiter
~Well ------------------------------------------------------
STRT.F           48 : START DEPTH
STOP.F       1439.0 : STOP DEPTH
STEP.F          0.5 : STEP
NULL.       -999.25 : NULL VALUE
COMP.                 WALSH & WATTS, INC. : COMPANY
WELL.                         HOWARD F 14 : WELL
FLD .             MONTAGUE COUNTY REGULAR : FIELD
CNTY.                            MONTAGUE : COUNTY
STAT.                               TEXAS : STATE
CTRY.                                 USA : COUNTRY
SEC .                                     : SECTION
TWP .                                     : TOWNSHIP
RGE .                                     : RANGE
LOC . 1430'FEL & 2600'FSL OF THE J.CHAMBLIS SURVEY A-123 : LOCATION
EKB .F                      849 : ELEVATION KELLY BUSHING
EDF .F                      848 : ELEVATION DERRICK FLOOR
EGL .F                      841 : ELEVATION GROUND LEVEL
PDAT.                        GL : PERMANENT DATUM
EPD .                       841 : ELEVATION PERMANENT DATUM
APD .                         8 : ABOVE PERMANENT DATUM
LMF .                        KB : LOG MEASURED FROM
DMF .                        KB : DRILLING MEASURED FROM
API .            42337351020000 : API NUMBER
UWI .                           : UWI NUMBER
DIGC.                     NthDS : DIGITIZING COMPANY
~Params ----------------------------------------------------
SRVC.                   PIONEER : LOGGING COMPANY
LOG .                      CNFD : LOG
DATE.                2013-08-01 : RUN DATE
RUN .                         1 : RUN NUMBER
TDD .F                     1450 : TOTAL DEPTH DRILLER
TDL .F                     1449 : TOTAL DEPTH LOGGER
BOTL.F                     1429 : BOTTOM LOGGED INTERVAL
TOPL.F                       50 : TOP LOGGED INTERVAL
CSGS.IN                         : CASING SIZE
CSGD.F                          : CASING DRILLER
CSGL.F                          : CASING LOGGER
BS  .IN                   7.875 : BIT SIZE
MUD .                       GEL : MUD TYPE
MUDD.                       9.2 : MUD DENSITY
MUDV.                        75 : MUD VISCOSITY
PH  .                           : MUD PH
FL  .                           : FLUID LOSS
MUDS.                  FLOWLINE : SOURCE OF SAMPLE
RM  .OHMM                   2.8 : MUD RESISTIVITY
RMT .DEGF                    72 : RM TEMPERATURE
RMF .OHMM                   2.1 : MUD FILTRATE RESISTIVITY
RMFT.DEGF                    72 : RMF TEMPERATURE
RMC .OHMM                   3.5 : MUD CAKE RESISTIVITY
RMCT.DEGF                    72 : RMC TEMPERATURE
RMFS.                      CALC : RMF SOURCE
RMCS.                      CALC : RMC SOURCE
RMBH.OHMM                   2.3 : MUD RESISTIVITY AT BHT
BHT .DEGF                    87 : BOTTOM HOLE TEMPERATURE
TIMC.           0130 2018-08-01 : TIME CIRCULATION STOPPED
TIML.           0400 2018-08-01 : TIME LOGGER ON BOTTOM
TMAX.DEGF                    87 : MAXIMUM RECORDED TEMPERATURE
UNIT.                     C-052 : EQUIPMENT NUMBER
BASE.                GRAHAM, TX : BASE LOCATION
ENG .                    WENDEL : RECORDED BY
WIT .                  BURLESON : WITNESSED BY
~Curve Information -----------------------------------------
DEPT.F          :DEPTH
CALD.IN         :
DPHI.%          :
GRD.GAPI        :
MINV.OHMM       :
MNOR.OHMM       :
NPHI.%          :
RHOC.G/CC       :
~ASCII ------------------------------------------------------
# ...
853.50000        8.23670       29.87081       34.40366        7.56190        9.12454       15.47411        0.00586
854.00000        8.23156       29.87557       38.53210        8.49011        9.16776       15.42324        0.00586
854.50000        8.22716       29.87996       41.28439        8.71794        9.37729       15.64209        0.00586
855.00000        8.22202       29.88509       44.03669        8.49816        9.81685       16.37402        0.00586
855.50000        8.22128       29.88948       45.41283        7.76556        9.98754       16.98994        0.00586
856.00000        8.22367       29.89460       45.13760        8.57142        9.34066       17.39616        0.00952
856.50000        8.22550       29.89863       44.03669        7.78681        8.51062       17.34822        0.01319
857.00000        8.22789       29.90375       43.21100        7.23809        7.70476       17.25892        0.02051
857.50000        8.22972       29.90814       42.38531        7.22857        7.03296       17.24465        0.02784
858.00000        8.23211       29.91327       42.11008        8.40073        8.47399       17.22781        0.02418
858.50000        8.23394       29.91839       42.11008        8.54725        8.32747       17.49607        0.02051
859.00000        8.23633       29.92242       42.11008        8.86446        9.75970       17.63038        0.02418
859.50000        8.23816       29.66148       42.38531        7.98534        8.49011       17.39872        0.03150
860.00000        8.23853       28.24593       44.86238        8.66886        9.15751       16.81903        0.05348
860.50000        8.23853       26.38683       48.44036        7.91208        9.67033       16.23056        0.06813
861.00000        8.23853       24.83733       52.56880        5.86080        8.59560       16.18481        0.07179
861.50000        8.23853       23.95243       53.94494        5.78754        6.92307       16.12992        0.06813
862.00000        8.23853       24.53504       53.11925        5.87106        6.76410       16.97603        0.06813
862.50000        8.23853       25.94547       51.19265        4.85348        5.42124       17.81336        0.06813
863.00000        8.24771       27.16121       49.54127        4.54212        4.28571       17.85727        0.06813
863.50000        8.25229       28.29826       48.99081        4.74359        6.19047       16.84977        0.06813
864.00000        8.23853       28.51272       48.71559        6.08058        8.95604       16.60567        0.05714
864.50000        8.24679       28.61263       47.88990       10.47619       15.01831       16.84721        0.04249
865.00000        8.25688       29.03019       45.41283        9.75274       12.89377       16.64227        0.03883
865.50000        8.25688       29.79872       42.38531        9.24633       12.89377       15.76395        0.04615
866.00000        8.25688       29.92681       40.45871        8.73992       11.24542       15.30028        0.05714
866.50000        8.25688       29.92681       41.28439        8.23351        9.41392       14.82452        0.06081
867.00000        8.25688       29.92681       44.31192        7.92161        9.78022       14.45307        0.06447
867.50000        8.25688       29.34858       44.86238        8.93772        9.68864       14.18701        0.06447
868.00000        8.25688       28.48124       42.66054        8.18681        9.68278       13.89753        0.07546
868.50000        8.27266       27.75846       39.08256        8.69011       10.10989       13.71455        0.07179
869.00000        8.29615       27.04483       35.50458        7.89597        8.79120       13.71455        0.06813
869.50000        8.31156       27.47996       33.85320        7.21099        9.18901       13.77201        0.04249
870.00000        8.30881       28.70339       33.57797        7.39926       11.57509       14.11711        0.01685
870.50000        8.30679       29.72296       34.67889        9.12600       11.78461       14.22470        0.01685
871.00000        8.30404       29.92681       36.05504        8.91135       10.51282       14.35389        0.01685
871.50000        8.30202       29.92681       37.15595        7.77875        9.31721       14.46148        0.01685
872.00000        8.29927       29.92681       38.53210        8.42490       10.27619       14.64556        0.01685
872.50000        8.29725       29.92681       40.18348        8.98168       10.57362       14.85526        0.02051
873.00000        8.29468       28.73486       42.66054        7.43370        9.01098       15.33102        0.02051
873.50000        8.29248       27.74163       46.51375        8.46813       10.09963       15.72736        0.02418
874.00000        8.28991       26.54931       52.29357        9.70915       13.11355       16.09332        0.04249
874.50000        8.28771       25.55608       57.79815        9.24908       10.82417       16.28692        0.04615
875.00000        8.28514       24.36414       62.75228        6.00732        8.07692       15.87374        0.03883
875.50000        8.28238       24.35682       63.30274        7.61904        8.27838       15.48326        0.02418
876.00000        8.28037       25.57694       58.62384        7.23809       10.30036       15.68454        0.02418
876.50000        8.27761       27.92973       48.44036        7.82051       10.32967       16.60567        0.02418
877.00000        8.27560       29.89021       41.83485        8.05860        9.50915       16.63312        0.02418
877.50000        8.27284       29.89021       38.25687        7.74139        9.52381       16.38609        0.02418
878.00000        8.27083       29.89021       38.80733        6.98095        9.26007       16.50796        0.03150
878.50000        8.26807       29.89021       39.90825        8.04029        9.45055       16.65435        0.03516
879.00000        8.26605       29.89021       39.63302        7.57802        8.59560       16.74218        0.03883
879.50000        8.26330       29.89021       39.08256        6.82124        8.47692       16.68216        0.04615
880.00000        8.26128       29.89021       39.08256        8.32747        9.89011       16.56359        0.05348
880.50000        8.25853       29.89021       39.08256        8.49157       10.69597       16.09039        0.06081
881.00000        8.25835       29.89021       38.80733        7.25934        8.74871       15.69625        0.06813
881.50000        8.26716       29.89021       38.80733        7.54578        9.37142       16.09771        0.07179
882.00000        8.27449       29.89021       38.25687        8.59267        9.89011       16.34950        0.06447
882.50000        8.28330       29.89021       37.43118        8.38315        9.82710       16.23971        0.06081
883.00000        8.29064       29.89021       37.70641        7.07472        8.49816       16.34950        0.06081
883.50000        8.31651       29.89021       39.35779        6.99633        7.44835       16.86844        0.05714
884.00000        8.34514       29.89021       40.73394        8.45274        9.09450       17.34968        0.05714
884.50000        8.37963       29.89021       41.28439       10.69597       11.86813       17.20952        0.04982
885.00000        8.38367       29.20549       42.66054        9.08424        9.08424       16.73376        0.04982
885.50000        8.38128       28.63532       44.31192        7.71062        6.76410       16.37402        0.05714
886.00000        8.37927       27.95059       44.86238        6.79853        5.81172       16.00805        0.06447
886.50000        8.37670       26.86478       43.48623        6.84981        5.83809       15.70284        0.07179
887.00000        8.37468       25.56194       41.55962       11.06227        8.34066       14.92223        0.07546
887.50000        8.37229       24.53797       40.45871       12.14358       10.42564       14.51967        0.07912
888.00000        8.37027       23.60476       40.73394       10.20439       10.10989       14.37329        0.09890
