~Version ---------------------------------------------------
VERS. 2.0 : CWLS LOG ASCII STANDARD - VERSION 2.0
WRAP. NO  : One line per depth step
DLM . SPACE : Column Data Section Delimiter
~Well ------------------------------------------------------
STRT.F         48.5 : START DEPTH
STOP.F       1449.0 : STOP DEPTH
STEP.F          0.5 : STEP
NULL.       -999.25 : NULL VALUE
COMP.                 WALSH & WATTS, INC. : COMPANY
WELL.                         HOWARD F 14 : WELL
FLD .             MONTAGUE COUNTY REGULAR : FIELD
CNTY.                            MONTAGUE : COUNTY
STAT.                               TEXAS : STATE
CTRY.                                 USA : COUNTRY
SEC .                                     : SECTION
TWP .                                     : TOWNSHIP
RGE .                                     : RANGE
LOC . 1430'FEL & 2600'FSL OF THE J.CHAMBLIS SURVEY A-123 : LOCATION
EKB .F                      849 : ELEVATION KELLY BUSHING
EDF .F                      848 : ELEVATION DERRICK FLOOR
EGL .F                      841 : ELEVATION GROUND LEVEL
PDAT.                        GL : PERMANENT DATUM
EPD .                       841 : ELEVATION PERMANENT DATUM
APD .                         8 : ABOVE PERMANENT DATUM
LMF .                        KB : LOG MEASURED FROM
DMF .                        KB : DRILLING MEASURED FROM
API .            42337351020000 : API NUMBER
UWI .                           : UWI NUMBER
DIGC.                     NthDS : DIGITIZING COMPANY
~Params ----------------------------------------------------
SRVC. PIONEER WIRELINE SERVICES : LOGGING COMPANY
LOG .                      DIFL : LOG
DATE.                2013-08-01 : RUN DATE
RUN .                         1 : RUN NUMBER
TDD .F                     1450 : TOTAL DEPTH DRILLER
TDL .F                     1449 : TOTAL DEPTH LOGGER
BOTL.F                     1449 : BOTTOM LOGGED INTERVAL
TOPL.F                       50 : TOP LOGGED INTERVAL
CSGS.IN                         : CASING SIZE
CSGD.F                          : CASING DRILLER
CSGL.F                          : CASING LOGGER
BS  .IN                   7.875 : BIT SIZE
MUD .                       GEL : MUD TYPE
MUDD.                       9.2 : MUD DENSITY
MUDV.                        75 : MUD VISCOSITY
PH  .                           : MUD PH
FL  .                           : FLUID LOSS
MUDS.                  FLOWLINE : SOURCE OF SAMPLE
RM  .OHMM                   2.8 : MUD RESISTIVITY
RMT .DEGF                    72 : RM TEMPERATURE
RMF .OHMM                   2.1 : MUD FILTRATE RESISTIVITY
RMFT.DEGF                    72 : RMF TEMPERATURE
RMC .OHMM                   3.5 : MUD CAKE RESISTIVITY
RMCT.DEGF                    72 : RMC TEMPERATURE
RMFS.                      CALC : RMF SOURCE
RMCS.                      CALC : RMC SOURCE
RMBH.OHMM                   2.3 : MUD RESISTIVITY AT BHT
BHT .DEGF                    87 : BOTTOM HOLE TEMPERATURE
TIMC.           0130 2018-08-01 : TIME CIRCULATION STOPPED
TIML.           0400 2018-08-01 : TIME LOGGER ON BOTTOM
TMAX.DEGF                    87 : MAXIMUM RECORDED TEMPERATURE
UNIT.                     C-052 : EQUIPMENT NUMBER
BASE.                GRAHAM, TX : BASE LOCATION
ENG .                    WENDEL : RECORDED BY
WIT .                  BURLESON : WITNESSED BY
~Curve Information -----------------------------------------
DEPT.F          :DEPTH
CILD.MMHO       :
GRR.GAPI        :
RILD.OHMM       :
RILM.OHMM       :
RSFL.OHMM       :
SP.MV           :
~ASCII ------------------------------------------------------
# ...
1049.50000     1001.45304       47.35544        0.72237        0.81691        4.90434       99.41192
1050.00000     1000.00240       38.80709        0.70359        0.79810        5.03014       99.68377
1050.50000     1000.00721       37.70042        0.70151        0.77611        4.21295       99.17462
1051.00000     1000.01201       39.89744        0.69938        0.75472        2.98034       99.06785
1051.50000     1000.01681       41.26781        0.69767        0.73734        2.23671       98.69448
1052.00000     1000.02162       45.39142        0.70311        0.74958        2.09064       97.95285
1052.50000     1000.02642       49.23884        0.70770        0.76556        2.39299       97.94517
1053.00000     1000.03363       48.95785        0.74353        0.80208        2.62585       97.93876
1053.50000     1000.03843       46.75123        0.79756        0.84933        2.15460       97.93107
1054.00000     1000.04323       45.09410        0.83476        0.89090        2.44919       98.65733
1054.50000     1000.04804       42.61128        0.86161        0.94338        5.38159       99.01789
1055.00000     1000.05284       42.60648        0.86620        0.97694        7.86859       99.37718
1055.50000     1000.06005       42.32549        0.85798        0.99811        9.88300       99.37077
1056.00000     1000.06485       39.01699        0.83652        0.96905       10.13649       98.99612
1056.50000     1000.06965       37.63605        0.79494        0.94545        9.39486       99.35540
1057.00000     1000.07446       34.87801        0.74108        0.86716        8.20784       99.71597
1057.50000     1000.07926       35.69889        0.69638        0.80697        7.35472       99.70828
1058.00000     1000.08647       39.54631        0.64179        0.74014        6.26477      100.43454
1058.50000     1000.09127       40.36623        0.59148        0.69035        5.33635      100.79510
1059.00000     1000.09607       39.53574        0.55608        0.65139        4.82223      101.52136
1059.50000     1000.10088       38.15384        0.53197        0.60999        4.14241      102.24889
1060.00000     1000.10568       35.67103        0.51266        0.58705        3.46944      102.60818
1060.50000     1000.11048       35.94145        0.49043        0.56255        2.73906      102.96746
1061.00000     1000.11769       39.51365        0.46917        0.55066        2.58189      103.69500
1061.50000     1000.12249       40.88498        0.46917        0.54996        3.24287      103.68731
1062.00000     1000.12730       41.42967        0.46917        0.54913        4.07306      103.67962
1062.50000     1000.13210       42.24959        0.47215        0.54839        4.17753      103.67322
1063.00000     1000.13690       42.24479        0.47817        0.54755        4.07306      102.93159
1063.50000     1000.14411       40.03720        0.47971        0.54672        4.21295      102.55694
1064.00000     1000.14891       38.65530        0.47716        0.54654        4.46942      102.55053
1064.50000     1000.15372       37.54958        0.47415        0.54885        4.66211      101.44194
1065.00000     1000.15852       37.81905        0.47797        0.55080        4.50731      100.33462
1065.50000     1000.16332       38.36374        0.48775        0.55313        4.35764       99.22602
1066.00000     1000.17053       38.90939        0.48940        0.55547        4.10759       98.48440
1066.50000     1000.17533       38.35317        0.48940        0.56732        4.03882       97.37708
1067.00000     1000.18014       38.07314        0.48940        0.58187        4.07306       96.26849
1067.50000     1000.18494       38.34260        0.49176        0.59428        4.39459       95.52686
1068.00000     1000.18974       38.88729        0.50090        0.60440        4.90434       95.15348
1068.50000     1000.19695       39.98340        0.51592        0.60440        4.98785       94.04489
1069.00000     1000.20175       39.70241        0.52298        0.60414        4.98785       93.30326
1069.50000     1000.20656       39.97187        0.52108        0.60277        5.11579       93.29686
1070.00000     1000.21136       42.44412        0.51950        0.60160        5.20290       93.28917
1070.50000     1000.21616       43.26404        0.51919        0.60023        5.20290       92.91580
1071.00000     1000.22097       43.53446        0.51919        0.60593        4.98785       92.54114
1071.50000     1000.22817       43.52869        0.52946        0.62279        4.82223       92.16648
1072.00000     1000.23298       42.69725        0.56141        0.64363        4.50731       92.16008
1072.50000     1000.23778       42.14199        0.58953        0.66154        4.17753       92.15239
1073.00000     1000.24258       43.78759        0.62516        0.69491        3.32604       92.14471
1073.50000     1000.24739       49.01115        0.66321        0.73597        2.43373       92.13830
1074.00000     1000.25459       52.85953        0.69667        0.77205        2.52797       92.49759
1074.50000     1000.25940       52.57854        0.73908        0.81767        4.03882       92.49118
1075.00000     1000.26420       48.44532        0.77643        0.85776        4.21295       92.85047
1075.50000     1000.26900       43.76069        0.82370        0.90469        3.74332       92.47581
1076.00000     1000.27381       43.75493        0.87185        0.94633        2.95528       92.83638
1076.50000     1000.28101       45.12626        0.91329        0.98256        2.47517       93.19566
1077.00000     1000.28582       49.52414        0.94147        1.02778        2.37287       93.92192
1077.50000     1000.29062       49.24315        0.96155        1.06704        2.39299       94.28248
1078.00000     1000.29542       48.96311        0.98622        1.11624        2.51732       94.27479
1078.50000     1000.30023       44.55371        1.01151        1.16761        2.51732       95.36802
1079.00000      994.18819       43.72322        1.02527        1.17582        2.58189       95.72858
1079.50000      981.96368       44.54314        1.03571        1.18579        2.76228       96.45484
1080.00000      969.73917       46.73920        1.01433        1.17861        3.08270       96.81540
1080.50000      982.43200       48.11053        0.98065        1.16545        3.49886       97.54166
1081.00000     1001.14316       51.13227        0.94809        1.15234        3.46944       98.26791
1081.50000     1000.94613       52.77787        0.94434        1.15477        2.93044       98.26151
1082.00000     1000.64141       52.77307        0.96521        1.16840        2.45436       98.25382
1082.50000     1000.44438       49.73980        0.99533        1.18249        2.47517       98.61311
1083.00000     1000.34586       48.63409        1.04334        1.21282        3.00560       98.60670
1083.50000      966.17888       47.52741        1.13008        1.28590        3.58860       98.59902
1084.00000      897.83530       47.79687        1.23316        1.35763        3.77506       98.95958
1084.50000      803.11567       47.79207        1.36925        1.46406        4.17753       98.95190
1085.00000      734.31338       47.51108        1.49642        1.58631        4.17753       98.21027
1085.50000      665.51108       46.67963        1.66690        1.74657        3.52852       98.20386
1086.00000      582.94737       45.84914        1.85696        1.92301        3.00560       97.46224
1086.50000      531.57621       42.54065        2.03165        2.06328        3.80706       97.45455
1087.00000      493.96647       44.73671        2.19926        2.23879        4.66211       97.44815
1087.50000      463.69615       44.73190        2.29408        2.39642        4.24867       97.44046
1088.00000      449.02211       45.82705        2.29408        2.56018        4.00487       97.06709
1088.50000      436.18532       46.92315        2.29408        2.52349        4.07306       97.79334
1089.00000      438.94241       47.46785        2.24238        2.49321        4.35764       97.41869
