~Version ---------------------------------------------------
VERS. 2.0 : CWLS LOG ASCII STANDARD - VERSION 2.0
WRAP. NO  : One line per depth step
DLM . SPACE : Column Data Section Delimiter
~Well ------------------------------------------------------
STRT.F        490.5 : START DEPTH
STOP.F       1005.0 : STOP DEPTH
STEP.F          0.5 : STEP
NULL.       -999.25 : NULL VALUE
COMP.                       WALSH & WATTS : COMPANY
WELL.                           HYNDS B 6 : WELL
FLD .                           N. NOCONA : FIELD
CNTY.                            MONTAGUE : COUNTY
STAT.                               TEXAS : STATE
CTRY.                                 USA : COUNTRY
SEC .                                     : SECTION
TWP .                                     : TOWNSHIP
RGE .                                     : RANGE
LOC . 550' FR W/L OF LEASE, 150' FR S/L OF LEASE, 400' FR NO 4 WELL, 300' FR NO 3 WELL : LOCATION
EKB .F                          : ELEVATION KELLY BUSHING
EDF .F                          : ELEVATION DERRICK FLOOR
EGL .F                          : ELEVATION GROUND LEVEL
PDAT.                        GL : PERMANENT DATUM
EPD .                           : ELEVATION PERMANENT DATUM
APD .                         6 : ABOVE PERMANENT DATUM
LMF .                        KB : LOG MEASURED FROM
DMF .                        KB : DRILLING MEASURED FROM
API .            42337038650000 : API NUMBER
UWI .                           : UWI NUMBER
DIGC.                     NthDS : DIGITIZING COMPANY
~Params ----------------------------------------------------
SRVC.              SCHLUMBERGER : LOGGING COMPANY
LOG .                        ML : LOG
DATE.                1957-10-13 : RUN DATE
RUN .                         1 : RUN NUMBER
TDD .F                     1015 : TOTAL DEPTH DRILLER
TDL .F                     1008 : TOTAL DEPTH LOGGER
BOTL.F                     1005 : BOTTOM LOGGED INTERVAL
TOPL.F                      500 : TOP LOGGED INTERVAL
CSGS.IN                         : CASING SIZE
CSGD.F                          : CASING DRILLER
CSGL.F                          : CASING LOGGER
BS  .IN                         : BIT SIZE
MUD .                       GEL : MUD TYPE
MUDD.                        10 : MUD DENSITY
MUDV.                        53 : MUD VISCOSITY
PH  .                           : MUD PH
FL  .                           : FLUID LOSS
MUDS.                   MUD PIT : SOURCE OF SAMPLE
RM  .OHMM                   1.7 : MUD RESISTIVITY
RMT .DEGF                    68 : RM TEMPERATURE
RMF .OHMM                   1.1 : MUD FILTRATE RESISTIVITY
RMFT.DEGF                    90 : RMF TEMPERATURE
RMC .OHMM                   1.5 : MUD CAKE RESISTIVITY
RMCT.DEGF                    90 : RMC TEMPERATURE
RMFS.                           : RMF SOURCE
RMCS.                           : RMC SOURCE
RMBH.OHMM                   1.3 : MUD RESISTIVITY AT BHT
BHT .DEGF                    90 : BOTTOM HOLE TEMPERATURE
TIMC.                           : TIME CIRCULATION STOPPED
TIML.                           : TIME LOGGER ON BOTTOM
TMAX.DEGF                    90 : MAXIMUM RECORDED TEMPERATURE
UNIT.                       785 : EQUIPMENT NUMBER
BASE.                        WF : BASE LOCATION
ENG .                     JONES : RECORDED BY
WIT .                       NIX : WITNESSED BY
~Curve Information -----------------------------------------
DEPT.F          :DEPTH
CALM.IN         :
MINV.OHMM       :
MNOR.OHMM       :
SP.MV           :
~ASCII ------------------------------------------------------
# ...
720.50000        8.62961        3.01801        2.76612      -55.22158
721.00000        8.66150        3.17386        2.58191      -53.86852
721.50000        8.69990        3.41990        2.55699      -53.25256
722.00000        8.79118        3.02686        2.42880      -53.12529
722.50000        9.00739        2.57192        2.32687      -52.35543
723.00000        9.08859        1.82875        2.27604      -50.61627
723.50000        8.92140        2.36915        2.22521      -48.48562
724.00000        8.87984        2.87356        2.33379      -47.05095
724.50000        8.87716        2.71694        2.44237      -45.85719
725.00000        8.87449        2.78737        2.32641      -44.66343
725.50000        8.87199        3.19931        2.39577      -42.53817
726.00000        8.86932        3.09198        2.46477      -41.82231
726.50000        8.86614        2.62997        2.54793      -42.25394
727.00000        8.89227        2.53560        2.58958      -43.00148
727.50000        8.85341        2.72515        2.59020      -43.82731
728.00000        8.82968        2.97227        2.55089      -44.70715
728.50000        8.82988        2.48351        2.45148      -45.58698
729.00000        8.83008        2.76697        2.49313      -46.46682
729.50000        8.71779        3.20446        2.62870      -47.52154
730.00000        8.65643        3.55881        2.76427      -46.85968
730.50000        8.67176        3.16973        2.74979      -45.24202
731.00000        8.68690        3.05053        2.51076      -43.64326
731.50000        8.67433        3.27894        2.57724      -42.80050
732.00000        8.71431        3.06378        2.47004      -44.34993
732.50000        8.71221        2.48866        2.30873      -46.77686
733.00000        8.63376        1.71562        1.88942      -50.82379
733.50000        8.67392        2.55684        2.56188      -51.14472
734.00000        8.69771        3.02635        2.51105      -48.54967
734.50000        8.65597        2.38717        2.23208      -45.95461
735.00000        8.61424        2.44538        2.22803      -45.95094
735.50000        8.46684        3.32007        2.50826      -47.07377
736.00000        7.73499        2.63087        2.45707      -49.45480
736.50000        7.73519        2.74557        3.10542      -52.15173
737.00000        7.73539        1.95454        1.95454      -51.60867
737.50000        7.73560        2.15920        2.15668      -52.56950
738.00000        7.73580        2.47158        2.56766      -52.95254
738.50000        7.25001        3.31677        3.22321      -51.29168
739.00000        6.83626        2.72473        2.86183      -45.92643
739.50000        6.74124        2.36551        2.34860      -42.77248
740.00000        6.63866        2.20637        2.12648      -39.98032
740.50000        6.72887        2.46285        2.11200      -37.74915
741.00000        6.94957        2.82332        2.18747      -37.63269
741.50000        7.36611        2.68001        2.27087      -39.80852
742.00000        7.67754        2.39276        2.38377      -42.85375
742.50000        8.00768        2.82521        2.58051      -45.46428
743.00000        8.13389        3.81554        3.20020      -48.07751
743.50000        8.03293        4.48188        3.27640      -52.37823
744.00000        7.97233        2.41339        2.46737      -52.51017
744.50000        7.97254        1.78429        2.32802      -51.15711
745.00000        7.97274        1.90475        2.27071      -49.46655
745.50000        7.97295        1.98706        2.36130      -48.69399
746.00000        7.97315        1.91500        2.18200      -49.25731
746.50000        7.97336        1.84078        2.00271      -49.65925
747.00000        7.97356        1.76656        2.02349      -49.25119
747.50000        8.39496        2.08781        2.07593      -47.71183
748.00000        8.62197        2.58035        2.28347      -46.29397
748.50000        8.63279        3.35477        2.59897      -44.87611
749.00000        8.58210        2.36582        2.53747      -43.46095
749.50000        8.54000        3.05016        2.30276      -43.03939
750.00000        8.51312        2.39058        2.15920      -43.32115
750.50000        8.51620        2.38294        2.19582      -43.93908
751.00000        8.51928        2.41235        2.01652      -45.11591
751.50000        8.52219        2.17296        2.03766      -45.50435
752.00000        8.52527        2.24268        2.22973      -45.29339
752.50000        8.52818        3.31385        2.57005      -45.07433
753.00000        8.53126        3.53039        2.66676      -45.74626
753.50000        8.59573        2.39138        2.39750      -46.57210
754.00000        8.60691        4.15070        2.73998      -47.63013
754.50000        8.58263        6.33920        3.73391      -48.68816
755.00000        8.60930        7.21245        4.52260      -49.19810
755.50000        8.71228        6.06445        4.06443      -49.34624
756.00000        8.65525        3.87793        3.13845      -49.64287
756.50000        8.59821        2.47156        2.29956      -50.60371
757.00000        8.60490        1.86225        1.76042      -50.53584
757.50000        8.62760        2.44763        2.42064      -49.63307
758.00000        8.65030        2.11288        1.94159      -50.17001
758.50000        8.67301        2.01887        2.06205      -50.70694
759.00000        8.54811        2.21382        2.05188      -52.15107
759.50000        8.49630        1.78263        1.85460      -53.59251
760.00000        8.47202        1.55511        1.77606      -54.80174
760.50000        8.46448        1.63275        1.77669      -54.74468
761.00000        8.46811        2.67706        2.38186      -53.31332
761.50000        8.47173        2.21492        2.26386      -51.57686
762.00000        8.47536        2.43542        2.45053      -50.86640
762.50000        8.47898        2.41517        2.28311      -50.41244
763.00000        8.49161        2.55362        2.41724      -49.73438
763.50000        8.51755        2.24838        2.21240      -49.32631
764.00000        8.45997        2.51530        2.42893      -50.04415
764.50000        8.40222        2.96933        2.41769      -51.83928
765.00000        8.35616        2.28625        2.21428      -53.04311
765.50000        8.36285        2.23650        2.30703      -53.85005
766.00000        8.37943        3.19612        2.80712      -54.03599
766.50000        8.37334        2.86389        2.83510      -54.19222
767.00000        8.27598        2.88863        2.61262      -54.92626
767.50000        8.17862        2.90125        2.74688      -55.51179
768.00000        8.24939        2.12821        2.15664      -55.50873
768.50000        8.33959        1.85896        1.87083      -55.19787
769.00000        8.33980        1.88118        1.89557      -54.80870
769.50000        8.34000        1.72527        1.81703      -54.41954
770.00000        8.34021        1.88243        1.84285      -54.31388
770.50000        8.34041        1.80389        1.87334      -54.20552
771.00000        8.30987        2.16185        2.15897      -53.88656
771.50000        8.26886        2.03365        1.98867      -53.24899
772.00000        8.26906        1.95943        1.98930      -52.60873
772.50000        8.26927        2.43973        2.43973      -51.97117
773.00000        8.26947        2.51233        2.35040      -52.47031
773.50000        8.19768        1.79327        1.90122      -54.97284
774.00000        8.10788        2.13588        2.09089      -57.72107
774.50000        8.10808        2.40639        2.34881      -59.29480
775.00000        8.10829        2.40702        2.26308      -60.86583
775.50000        8.10849        2.54511        2.60988      -60.09057
776.00000        8.10870        2.80734        2.95632      -60.99470
776.50000        8.06804        3.15018        3.16458      -67.06662
777.00000        8.02721        4.28073        3.86906      -77.39103
777.50000        7.95757        4.53325        4.74916      -85.15045
