~Version ---------------------------------------------------
VERS. 2.0 : CWLS LOG ASCII STANDARD - VERSION 2.0
WRAP. NO  : One line per depth step
DLM . SPACE : Column Data Section Delimiter
~Well ------------------------------------------------------
STRT.F          642 : START DEPTH
STOP.F       1779.0 : STOP DEPTH
STEP.F          0.5 : STEP
NULL.       -999.25 : NULL VALUE
COMP.                       WALSH & WATTS : COMPANY
WELL.                        SALMON E 24  : WELL
FLD .                               NORTH : FIELD
CNTY.                            MONTAGUE : COUNTY
STAT.                               TEXAS : STATE
CTRY.                                 USA : COUNTRY
SEC .                                     : SECTION
TWP .                                     : TOWNSHIP
RGE .                                     : RANGE
LOC .                 SW CORNER OF LEAGUE : LOCATION
EKB .F                          : ELEVATION KELLY BUSHING
EDF .F                          : ELEVATION DERRICK FLOOR
EGL .F                      850 : ELEVATION GROUND LEVEL
PDAT.                        GL : PERMANENT DATUM
EPD .                       850 : ELEVATION PERMANENT DATUM
APD .                         5 : ABOVE PERMANENT DATUM
LMF .                        RT : LOG MEASURED FROM
DMF .                        RT : DRILLING MEASURED FROM
API .            42337038630000 : API NUMBER
UWI .                           : UWI NUMBER
DIGC.                     NthDS : DIGITIZING COMPANY
~Params ----------------------------------------------------
SRVC.              SCHLUMBERGER : LOGGING COMPANY
LOG .                       GRN : LOG
DATE.                1964-03-24 : RUN DATE
RUN .                         1 : RUN NUMBER
TDD .F                     1783 : TOTAL DEPTH DRILLER
TDL .F                     1782 : TOTAL DEPTH LOGGER
BOTL.F                     1780 : BOTTOM LOGGED INTERVAL
TOPL.F                      650 : TOP LOGGED INTERVAL
CSGS.IN                     4.5 : CASING SIZE
CSGD.F                     1802 : CASING DRILLER
CSGL.F                          : CASING LOGGER
BS  .IN                       9 : BIT SIZE
MUD .                     WATER : MUD TYPE
MUDD.                           : MUD DENSITY
MUDV.                           : MUD VISCOSITY
PH  .                           : MUD PH
FL  .                           : FLUID LOSS
MUDS.                           : SOURCE OF SAMPLE
RM  .OHMM                       : MUD RESISTIVITY
RMT .DEGF                       : RM TEMPERATURE
RMF .OHMM                       : MUD FILTRATE RESISTIVITY
RMFT.DEGF                       : RMF TEMPERATURE
RMC .OHMM                       : MUD CAKE RESISTIVITY
RMCT.DEGF                       : RMC TEMPERATURE
RMFS.                           : RMF SOURCE
RMCS.                           : RMC SOURCE
RMBH.OHMM                       : MUD RESISTIVITY AT BHT
BHT .DEGF                       : BOTTOM HOLE TEMPERATURE
TIMC.                           : TIME CIRCULATION STOPPED
TIML.                           : TIME LOGGER ON BOTTOM
TMAX.DEGF                   107 : MAXIMUM RECORDED TEMPERATURE
UNIT.                           : EQUIPMENT NUMBER
BASE.                           : BASE LOCATION
ENG .                    MCCUNE : RECORDED BY
WIT .                       NIX : WITNESSED BY
~Curve Information -----------------------------------------
DEPT.F          :DEPTH
GRN.GAPI        :
NEUT.API        :
~ASCII ------------------------------------------------------
642.00000       21.21042        -999.25
642.50000       54.36953      234.62767
643.00000       69.06612      487.85914
643.50000       68.90580      501.21245
644.00000       69.86772      521.23440
644.50000       68.42484      535.92036
645.00000       64.09618      549.27368
645.50000       59.28656      555.96371
646.00000       55.27855      558.65577
646.50000       49.66733      556.01720
647.00000       44.21643      548.04801
647.50000       41.17033      542.74414
648.00000       39.88777      528.11166
648.50000       39.72745      510.81388
649.00000       40.68937      496.18141
649.50000       44.69739      484.21425
650.00000       45.65931      473.57974
650.50000       61.85169      464.27790
651.00000       67.14227      470.96793
651.50000       69.38676      486.98655
652.00000       68.58516      505.93702
652.50000       66.66131      501.69927
653.00000       65.05810      491.73110
653.50000       67.46291      479.09761
654.00000       72.75349      465.79779
654.50000       77.72343      449.83266
655.00000       79.64728      441.86347
655.50000       81.09016      441.89022
656.00000       82.69337      444.58228
656.50000       82.37273      449.93966
657.00000       80.28856      464.75091
657.50000       77.88375      473.86638
658.00000       75.15830      475.97207
658.50000       72.27253      467.54978
659.00000       69.86772      459.14081
659.50000       69.70740      458.10143
660.00000       69.06612      466.11877
660.50000       69.06612      466.15087
661.00000       71.47093      470.17559
661.50000       73.71542      470.20233
662.00000       70.34868      460.90049
662.50000       64.89778      448.93333
663.00000       61.05009      438.29882
663.50000       62.01201      432.99495
664.00000       67.94387      429.02373
664.50000       74.19638      423.71985
665.00000       77.56311      417.08331
665.50000       79.44688      418.44272
666.00000       81.25048      421.13478
666.50000       79.82523      421.16153
667.00000       78.81361      427.85156
667.50000       79.16632      438.53956
668.00000       78.36471      447.89490
668.50000       72.75349      439.92571
669.00000       69.54708      427.95855
669.50000       68.90580      405.33014
670.00000       70.66933      384.03439
670.50000       73.39478      368.06926
671.00000       75.79958      358.76741
671.50000       75.63926      357.46150
672.00000       74.51702      362.82423
672.50000       73.87574      373.51223
673.00000       73.71542      390.86351
673.50000       72.75349      417.54339
674.00000       71.63125      430.89670
674.50000       68.90580      434.92142
675.00000       64.73746      436.28082
675.50000       61.21041      434.97491
676.00000       59.44688      436.33432
676.50000       59.28656      433.69575
677.00000       61.69137      432.38984
677.50000       65.69939      427.08597
678.00000       68.26452      412.45349
678.50000       69.70740      404.48430
679.00000       69.54708      397.84777
679.50000       70.18836      392.54389
680.00000       71.47093      387.24001
680.50000       73.39478      389.93208
681.00000       74.83766      397.95476
681.50000       73.23445      412.64608
682.00000       71.63125      427.33205
682.50000       70.66933      438.02005
683.00000       69.86772      439.37945
683.50000       67.78355      443.40417
684.00000       66.98195      459.42280
684.50000       67.78355      480.77205
685.00000       69.06612      506.11927
685.50000       68.90580      542.12774
686.00000       66.98195      584.79950
686.50000       63.93586      617.48168
687.00000       59.44688      618.17475
687.50000       54.95791      598.21165
688.00000       55.27855      570.25262
688.50000       60.40881      547.62421
689.00000       65.21842      542.32033
689.50000       65.37875      547.67770
690.00000       61.85169      551.70242
690.50000       56.72143      546.39854
691.00000       54.15630      537.09670
691.50000       53.83566      530.46016
692.00000       54.47694      522.49097
692.50000       56.24047      519.85241
693.00000       56.08015      522.54447
693.50000       53.03406      535.89778
694.00000       47.26252      553.91539
694.50000       43.09418      549.94417
695.00000       40.68937      530.64740
695.50000       42.61322      517.34758
696.00000       45.49899      514.70902
696.50000       48.70540      506.73983
697.00000       51.59117      493.44001
697.50000       56.56111      482.80551
698.00000       62.65330      473.50366
698.50000       69.70740      470.86510
699.00000       74.19638      477.55513
699.50000       74.35670      486.91047
700.00000       72.91381      498.51745
700.50000       73.07413      505.18078
701.00000       74.51702      511.84412
701.50000       75.31862      511.84412
702.00000       75.47894      506.51345
702.50000       74.67734      494.51944
703.00000       72.91381      481.19277
703.50000       70.98997      470.53144
704.00000       68.10420      465.20077
704.50000       65.69939      465.20077
705.00000       66.34067      459.87010
705.50000       67.30259      446.54343
706.00000       67.94387      435.88209
706.50000       68.74548      427.88609
707.00000       68.10420      419.89008
707.50000       66.82163      425.22075
708.00000       65.05810      429.21875
708.50000       64.73746      434.54942
709.00000       67.46291      445.21076
709.50000       69.70740      458.53743
710.00000       70.50900      473.19677
710.50000       70.02804      501.18278
711.00000       68.90580      521.17279
711.50000       68.42484      537.16479
712.00000       68.74548      555.82213
712.50000       67.78355      569.14881
713.00000       62.01201      583.80814
713.50000       51.75149      585.14081
714.00000       43.73546      579.81014
714.50000       32.99398      574.47947
715.00000       31.55110      571.81414
715.50000       35.39879      577.14481
716.00000       41.65130      582.47548
716.50000       48.70540      593.13681
717.00000       54.79759      603.79815
717.50000       56.24047      617.12482
718.00000       52.07214      616.23194
718.50000       46.14027      605.87711
719.00000       39.88777      578.47748
719.50000       34.43687      545.16080
720.00000       33.15430      518.50745
720.50000       37.00200      491.85411
721.00000       44.21643      478.52744
721.50000       50.94989      470.53144
722.00000       54.95791      462.53543
722.50000       56.40079      459.87010
723.00000       57.04207      453.20676
723.50000       59.60720      442.54542
724.00000       63.93586      429.21875
724.50000       68.90580      415.89208
725.00000       70.98997      405.23074
725.50000       72.11221      395.90207
726.00000       71.63125      397.23474
726.50000       70.34868      401.23274
727.00000       69.22644      406.56341
727.50000       68.26452      415.89208
728.00000       68.10420      429.21875
728.50000       67.94387      445.21076
729.00000       68.74548      458.53743
729.50000       69.86772      470.53144
730.00000       70.34868      480.43315
730.50000       69.22644      474.52944
731.00000       68.74548      470.53144
731.50000       69.70740      459.87010
732.00000       70.34868      447.87609
732.50000       72.27253      434.54942
733.00000       74.67734      422.55542
733.50000       76.44087      415.89208
734.00000       78.36471      410.56141
734.50000       80.12824      406.56341
735.00000       80.60920      397.23474
735.50000       80.44888      387.90607
736.00000       79.96792      382.57540
736.50000       81.57113      381.24273
737.00000       83.17433      383.90807
737.50000       84.29658      391.90407
738.00000       84.45690      398.56741
738.50000       83.01401      409.22875
739.00000       80.92984      419.89008
739.50000       78.20439      426.55342
740.00000       77.08215      434.54942
740.50000       78.36471      438.54742
741.00000       81.09016      442.54542
741.50000       83.17433      445.21076
