~Version ---------------------------------------------------
VERS. 2.0 : CWLS LOG ASCII STANDARD - VERSION 2.0
WRAP. NO  : One line per depth step
DLM . SPACE : Column Data Section Delimiter
~Well ------------------------------------------------------
STRT.F          572 : START DEPTH
STOP.F       1770.0 : STOP DEPTH
STEP.F          0.5 : STEP
NULL.       -999.25 : NULL VALUE
COMP.         WALSH & WATTS, INCORPORATED : COMPANY
WELL.                         SALMON E 44 : WELL
FLD .                             REGULAR : FIELD
CNTY.                            MONTAGUE : COUNTY
STAT.                               TEXAS : STATE
CTRY.                                 USA : COUNTRY
SEC .                                     : SECTION
TWP .                                     : TOWNSHIP
RGE .                                     : RANGE
LOC . 300' WEST OF NO 23, 300' SOUTH OF D-9, F.ROBERTSON SURV. : LOCATION
EKB .F                      862 : ELEVATION KELLY BUSHING
EDF .F                          : ELEVATION DERRICK FLOOR
EGL .F                      856 : ELEVATION GROUND LEVEL
PDAT.                        GL : PERMANENT DATUM
EPD .                       856 : ELEVATION PERMANENT DATUM
APD .                         6 : ABOVE PERMANENT DATUM
LMF .                        KB : LOG MEASURED FROM
DMF .                        KB : DRILLING MEASURED FROM
API .            42337038720000 : API NUMBER
UWI .                           : UWI NUMBER
DIGC.                     NthDS : DIGITIZING COMPANY
~Params ----------------------------------------------------
SRVC.              SCHLUMBERGER : LOGGING COMPANY
LOG .                     SONIC : LOG
DATE.                1965-11-28 : RUN DATE
RUN .                         1 : RUN NUMBER
TDD .F                     1179 : TOTAL DEPTH DRILLER
TDL .F                     1179 : TOTAL DEPTH LOGGER
BOTL.F                     1170 : BOTTOM LOGGED INTERVAL
TOPL.F                      600 : TOP LOGGED INTERVAL
CSGS.IN                         : CASING SIZE
CSGD.F                          : CASING DRILLER
CSGL.F                          : CASING LOGGER
BS  .IN                   7.875 : BIT SIZE
MUD .                       GEL : MUD TYPE
MUDD.                        10 : MUD DENSITY
MUDV.                        98 : MUD VISCOSITY
PH  .                           : MUD PH
FL  .                           : FLUID LOSS
MUDS.                CIRCULATED : SOURCE OF SAMPLE
RM  .OHMM                   2.0 : MUD RESISTIVITY
RMT .DEGF                    81 : RM TEMPERATURE
RMF .OHMM                   1.5 : MUD FILTRATE RESISTIVITY
RMFT.DEGF                    81 : RMF TEMPERATURE
RMC .OHMM                       : MUD CAKE RESISTIVITY
RMCT.DEGF                       : RMC TEMPERATURE
RMFS.                         M : RMF SOURCE
RMCS.                           : RMC SOURCE
RMBH.OHMM                   1.6 : MUD RESISTIVITY AT BHT
BHT .DEGF                   100 : BOTTOM HOLE TEMPERATURE
TIMC.                           : TIME CIRCULATION STOPPED
TIML.                           : TIME LOGGER ON BOTTOM
TMAX.DEGF                   100 : MAXIMUM RECORDED TEMPERATURE
UNIT.                      4559 : EQUIPMENT NUMBER
BASE.                       WFS : BASE LOCATION
ENG .                      FINK : RECORDED BY
WIT .                       NIX : WITNESSED BY
~Curve Information -----------------------------------------
DEPT.F          :DEPTH
CALS.IN         :
DT.US/F         :
SP.MV           :
~ASCII ------------------------------------------------------
# ...
1081.50000        7.25331       91.62150     -123.98723
1082.00000        7.24744       88.71071     -123.50461
1082.50000        7.23658       85.79893     -124.68932
1083.00000        7.22593       85.06622     -125.87104
1083.50000        7.21508       87.60212     -127.05574
1084.00000        7.20422       88.69280     -127.51436
1084.50000        7.19357       86.81829     -127.79070
1085.00000        7.18272       83.36721     -127.63378
1085.50000        7.16210       82.17580     -127.19001
1086.00000        7.10205       83.73063     -126.26815
1086.50000        7.04597       83.62378     -125.46582
1087.00000        7.00584       84.37316     -125.32085
1087.50000        6.96570       83.91110     -124.78743
1088.00000        6.92636       81.22267     -123.67135
1088.50000        6.89061       79.30590     -122.55527
1089.00000        6.85466       81.66422     -120.61748
1089.50000        6.84793       90.17914     -112.10602
1090.00000        6.87253       98.48564      -93.28584
1090.50000        6.89714       92.78233      -85.82019
1091.00000        6.92174       87.97604      -88.81265
1091.50000        6.92782       92.45620      -87.75036
1092.00000        6.92175       89.19716      -88.80060
1092.50000        6.91568       87.28735      -91.25821
1093.00000        6.91857       90.77249      -93.71881
1093.50000        7.01329       96.14868      -88.11769
1094.00000        7.32833       98.87065      -81.54845
1094.50000        7.77624       97.54691      -75.14056
1095.00000        7.85364       97.45001      -69.38406
1095.50000        7.82346       98.88543      -65.72517
1096.00000        7.85165      100.83826      -69.73357
1096.50000        7.89219       96.36331      -73.02484
1097.00000        7.63034       87.07251      -71.83406
1097.50000        7.70475       84.99204      -77.81544
1098.00000        8.13772      103.03770      -80.80791
1098.50000        8.66033      110.66958      -81.88803
1099.00000        8.52956       98.83899      -80.06977
1099.50000        8.31213       96.21278      -78.20668
1100.00000        8.20117      101.04440      -74.32257
1100.50000        8.22560      109.51349      -70.95772
1101.00000        8.25003      109.01711      -68.96280
1101.50000        8.12785      101.70944      -70.27560
1102.00000        8.02240      101.00847      -70.17349
1102.50000        7.98468       99.56100      -71.27116
1103.00000        7.79846       90.93347      -77.31398
1103.50000        7.66991       88.42115      -84.61178
1104.00000        7.75908       96.80740      -85.21642
1104.50000        7.90801      102.63828      -81.18964
1105.00000        7.82786      103.00017      -79.38296
1105.50000        8.09771       99.95193      -81.95073
1106.00000        8.23528       97.71605      -79.11915
1106.50000        8.08541       98.27753      -80.76960
1107.00000        7.79730       96.12501      -85.03597
1107.50000        7.56874       91.88564      -89.15153
1108.00000        7.57943       92.76948      -92.24519
1108.50000        7.59649       95.45921      -93.34883
1109.00000        7.62840       97.08355      -91.56306
1109.50000        7.70402      101.50527      -87.08808
1110.00000        8.19359      105.02332      -79.36812
1110.50000        8.30726       96.54250      -75.20987
1111.00000        7.92672       85.80673      -80.47581
1111.50000        7.79418       89.60171      -87.65409
1112.00000        7.70925       95.95154      -90.11130
1112.50000        7.65559       99.14824      -85.93512
1113.00000        7.72643       96.89540      -75.48411
1113.50000        7.72238       93.06521      -77.58417
1114.00000        7.69980       90.87224      -79.02546
1114.50000        7.57124       96.62380      -82.85715
1115.00000        7.56510      100.95769      -82.98372
1115.50000        7.58734      100.90042      -79.14817
1116.00000        7.55839       95.51389      -77.94506
1116.50000        7.69736       97.22306      -78.49592
1117.00000        7.97577      107.15620      -77.78285
1117.50000        8.37868      110.82643      -78.35762
1118.00000        8.35989      103.01977      -78.54394
1118.50000        8.33013       96.90470      -76.43546
1119.00000        7.91692       97.28655      -74.32400
1119.50000        8.03318      104.12540      -75.27824
1120.00000        8.31498      110.43284      -78.87231
1120.50000        8.53025      107.77381      -76.39033
1121.00000        8.31464       99.19318      -73.65736
1121.50000        7.66508       88.71690      -69.92939
1122.00000        7.24390       87.54188      -71.52904
1122.50000        7.39283       94.37773      -76.68443
1123.00000        7.99992      105.39170      -80.28007
1123.50000        8.54726      110.32139      -81.07894
1124.00000        8.44719      112.38285      -78.26529
1124.50000        8.40090      105.66999      -76.54526
1125.00000        8.39047      101.82635      -75.55729
1125.50000        8.44578      105.40476      -74.76653
1126.00000        8.38953      103.35151      -72.98076
1126.50000        8.32532       99.52184      -72.55595
1127.00000        8.32485       98.67616      -74.32592
1127.50000        8.39410      106.99855      -73.40070
1128.00000        8.42351      117.24453      -69.30520
1128.50000        8.28689      116.67829      -67.73755
1129.00000        8.10376      108.25786      -67.51153
1129.50000        8.06703      101.03503      -67.78749
1130.00000        8.03031      103.11645      -66.36626
1130.50000        8.02267      104.99928      -64.03966
1131.00000        8.16562      107.60465      -62.53477
1131.50000        8.14125      109.42912      -62.48205
1132.00000        8.03122      104.24166      -62.45921
1132.50000        7.98095      101.61656      -60.59874
1133.00000        7.24344      101.45251      -65.01310
1133.50000        6.65025       95.51708      -70.39997
1134.00000        6.85058       86.28829      -73.49363
1134.50000        7.17361       84.91367      -76.86817
1135.00000        7.52891       88.58889      -78.86223
1135.50000        7.75892       89.38990      -78.06849
1136.00000        7.77299       90.98929      -79.51874
1136.50000        7.66376       96.94744      -85.05360
1137.00000        7.60612      100.17655      -89.72195
1137.50000        7.62557      100.67816      -90.77620
1138.00000        7.71673      100.43626      -85.40482
1138.50000        7.82244       99.07762      -75.25120
1139.00000        7.68591       98.49042      -79.95382
1139.50000        7.73525       99.83034      -80.27161
1140.00000        7.72083       95.95077      -75.04963
1140.50000        7.65274       87.27087      -77.47098
1141.00000        7.59610       86.50503      -82.65924
1141.50000        7.53925       90.63932      -86.64930
1142.00000        7.51647       93.69630      -82.44623
1142.50000        7.62995       95.61506      -78.24316
1143.00000        7.75179       94.28036      -76.15262
1143.50000        7.59196       91.42872      -79.20743
1144.00000        7.51181       94.12591      -83.69649
1144.50000        7.51134       97.57159      -86.19396
1145.00000        7.55071       96.82571      -78.93116
1145.50000        7.59008       92.83636      -75.35258
1146.00000        7.37039       93.53757      -77.04187
1146.50000        7.16475       94.57809      -77.25808
1147.00000        7.33360       94.54131      -73.15062
1147.50000        7.45723       94.24452      -68.50831
1148.00000        7.39979       91.33600      -76.46347
1148.50000        7.37761       87.81219      -82.50630
1149.00000        7.36419       89.11271      -84.59001
1149.50000        7.35058       91.58036      -82.93870
1150.00000        7.37936       95.78763      -78.57176
1150.50000        7.39355      103.88318      -75.60000
1151.00000        7.59325      112.68168      -74.65204
1151.50000        7.84831      104.42570      -74.20705
1152.00000        7.87381      101.38357      -69.95851
1152.50000        7.94872      108.66965      -76.41230
