~Version ---------------------------------------------------
VERS. 2.0 : CWLS LOG ASCII STANDARD - VERSION 2.0
WRAP. NO  : One line per depth step
DLM . SPACE : Column Data Section Delimiter
~Well ------------------------------------------------------
STRT.F          230 : START DEPTH
STOP.F       1777.5 : STOP DEPTH
STEP.F          0.5 : STEP
NULL.       -999.25 : NULL VALUE
COMP.         WALSH & WATTS, INCORPORATED : COMPANY
WELL.                         SALMON E 44 : WELL
FLD .                             REGULAR : FIELD
CNTY.                            MONTAGUE : COUNTY
STAT.                               TEXAS : STATE
CTRY.                                 USA : COUNTRY
SEC .                                     : SECTION
TWP .                                     : TOWNSHIP
RGE .                                     : RANGE
LOC . 300' WEST OF NO 23, 300' SOUTH OF D-9, F.ROBERTSON SURV. : LOCATION
EKB .F                      862 : ELEVATION KELLY BUSHING
EDF .F                          : ELEVATION DERRICK FLOOR
EGL .F                      856 : ELEVATION GROUND LEVEL
PDAT.                        GL : PERMANENT DATUM
EPD .                       856 : ELEVATION PERMANENT DATUM
APD .                         6 : ABOVE PERMANENT DATUM
LMF .                        KB : LOG MEASURED FROM
DMF .                        KB : DRILLING MEASURED FROM
API .            42337038720000 : API NUMBER
UWI .                           : UWI NUMBER
DIGC.                     NthDS : DIGITIZING COMPANY
~Params ----------------------------------------------------
SRVC.              SCHLUMBERGER : LOGGING COMPANY
LOG .                       IEL : LOG
DATE.                1965-11-28 : RUN DATE
RUN .                         1 : RUN NUMBER
TDD .F                     1779 : TOTAL DEPTH DRILLER
TDL .F                     1779 : TOTAL DEPTH LOGGER
BOTL.F                     1778 : BOTTOM LOGGED INTERVAL
TOPL.F                          : TOP LOGGED INTERVAL
CSGS.IN                         : CASING SIZE
CSGD.F                          : CASING DRILLER
CSGL.F                          : CASING LOGGER
BS  .IN                   7.875 : BIT SIZE
MUD .                       GEL : MUD TYPE
MUDD.                        10 : MUD DENSITY
MUDV.                       9.8 : MUD VISCOSITY
PH  .                           : MUD PH
FL  .                           : FLUID LOSS
MUDS.                CIRCULATED : SOURCE OF SAMPLE
RM  .OHMM                   2.0 : MUD RESISTIVITY
RMT .DEGF                    81 : RM TEMPERATURE
RMF .OHMM                   1.5 : MUD FILTRATE RESISTIVITY
RMFT.DEGF                    81 : RMF TEMPERATURE
RMC .OHMM                       : MUD CAKE RESISTIVITY
RMCT.DEGF                       : RMC TEMPERATURE
RMFS.                         M : RMF SOURCE
RMCS.                           : RMC SOURCE
RMBH.OHMM                   1.6 : MUD RESISTIVITY AT BHT
BHT .DEGF                   100 : BOTTOM HOLE TEMPERATURE
TIMC.                           : TIME CIRCULATION STOPPED
TIML.                           : TIME LOGGER ON BOTTOM
TMAX.DEGF                   100 : MAXIMUM RECORDED TEMPERATURE
UNIT.                      4559 : EQUIPMENT NUMBER
BASE.                       WFS : BASE LOCATION
ENG .                      FINK : RECORDED BY
WIT .                       NIX : WITNESSED BY
~Curve Information -----------------------------------------
DEPT.F          :DEPTH
CILD.MMHO       :
ILD.OHMM        :
SN.OHMM         :
SP.MV           :
~ASCII ------------------------------------------------------
# ...
1147.50000      426.10519        2.11925        2.65605      -59.88602
1148.00000      427.79432        2.11419        2.54619      -58.89902
1148.50000      429.47345        2.10913        2.43672      -58.20002
1149.00000      431.16258        2.10366        2.49406      -60.13202
1149.50000      432.85171        2.09860        2.59340      -63.80102
1150.00000      432.10214        2.16079        2.69318      -66.24002
1150.50000      433.00048        2.15932        2.62612      -65.34002
1151.00000      430.73569        2.15853        2.55866      -63.24002
1151.50000      428.48090        2.15787        2.59786      -61.14002
1152.00000      433.50334        2.15720        2.63040      -59.04002
1152.50000      439.44670        2.14414        2.60734      -57.86402
1153.00000      446.78145        2.08068        2.57027      -57.30002
1153.50000      454.11619        2.01761        2.60841      -58.55102
1154.00000      460.93041        1.95455        2.69695      -59.79902
1154.50000      463.62054        1.99669        2.73068      -58.59902
1155.00000      455.12956        2.03882        2.75122      -55.76702
1155.50000      436.29829        2.11256        2.77136      -53.73302
1156.00000      404.78443        2.37869        2.79189      -51.90002
1156.50000      350.57801        2.78043        3.05123      -51.90002
1157.00000      304.29948        3.32496        3.31056      -51.90002
1157.50000      259.95286        3.96976        4.55429      -53.85002
1158.00000      218.49911        4.46910        5.83402      -57.86702
1158.50000      202.17034        4.76843        7.25855      -64.06802
1159.00000      200.51615        4.86777        8.64388      -67.05002
1159.50000      205.53859        4.66711        8.22709      -68.92502
1160.00000      222.57298        4.37325        6.05964      -67.98002
1160.50000      251.80297        3.90578        5.12978      -66.18002
1161.00000      280.48893        3.43832        4.50912      -64.38002
1161.50000      310.04576        2.97126        4.06446      -63.30002
1162.00000      338.96195        2.71980        3.66380      -63.30002
1162.50000      358.19852        2.59101        3.61873      -63.30002
1163.00000      367.49521        2.48354        3.49514      -62.02502
1163.50000      365.84102        2.51928        3.27608      -60.75002
1164.00000      357.27996        2.59062        3.13541      -59.47502
1164.50000      345.35906        2.66195        3.30595      -58.20002
1165.00000      336.03725        2.73329        3.47689      -56.93102
1165.50000      331.88057        2.80463        3.58782      -55.66202
1166.00000      335.02115        2.77836        3.60956      -54.75002
1166.50000      339.28284        2.72770        3.63089      -54.37502
1167.00000      345.21619        2.67704        3.65263      -53.81102
1167.50000      351.60999        2.61637        3.56917      -52.86302
1168.00000      359.85564        2.53558        3.45931      -51.91502
1168.50000      368.09128        2.46812        3.38971      -50.96702
1169.00000      377.04763        2.40105        3.35745      -50.94002
1169.50000      385.07306        2.33359        3.32518      -52.29002
1170.00000      378.22720        2.44413        3.29292      -53.23502
1170.50000      363.37990        2.58746        3.48106      -53.57702
1171.00000      334.78894        2.86160        3.66919      -53.91902
1171.50000      294.05592        3.35093        3.85773      -54.25802
1172.00000      259.03507        3.98346        4.29026      -54.60002
1172.50000      224.01773        4.68600        5.14959      -58.20002
1173.00000      188.39978        5.66693        6.09893      -65.70002
1173.50000      150.37945        6.64826        8.44825      -73.20002
1174.00000      115.16191        8.98078       11.28757      -76.95002
1174.50000       94.24858       10.65851       12.39370      -80.34602
1175.00000       85.67751       11.50224       12.46624      -83.20802
1175.50000       83.98328       10.96558       12.21557      -86.00102
1176.00000       97.01718        9.86492       11.74011      -86.75402
1176.50000      111.13867        8.55334       10.82986      -85.52702
1177.00000      125.26015        7.49788        9.60707      -84.30002
1177.50000      147.81002        6.44282        8.83601      -81.20702
1178.00000      172.47198        5.52976        8.60215      -78.11402
1178.50000      199.83663        4.61631        8.42388      -75.01802
1179.00000      238.01202        3.70325        8.14762      -75.45002
1179.50000      278.52322        3.20326        6.86857      -75.90002
1180.00000      310.07203        2.88619        5.23951      -71.61302
1180.50000      344.42362        2.62873        4.15872      -65.70002
1181.00000      369.68618        2.41127        3.75806      -57.82502
1181.50000      392.50631        2.23301        3.42420      -55.08002
1182.00000      407.97263        2.20994        3.23194      -54.30002
1182.50000      418.57061        2.18728        3.20608      -55.99202
1183.00000      417.33684        2.16422        3.19061      -58.30802
1183.50000      414.60157        2.19076        3.18195      -59.92502
1184.00000      409.61407        2.25009        3.17329      -58.50002
1184.50000      402.22418        2.32130        3.16462      -56.89202
1185.00000      393.23270        2.38063        3.15423      -55.28702
1185.50000      376.54357        2.54117        3.21756      -53.76002
1186.00000      354.71933        2.72730        3.29850      -53.10002
1186.50000      330.87309        2.91344        3.37984      -54.60002
1187.00000      303.98382        3.12317        3.46077      -56.10002
1187.50000      287.94533        3.33931        3.50931      -56.66102
1188.00000      281.42631        3.45865        3.50865      -57.22502
1188.50000      282.82515        3.43318        3.50798      -57.78602
1189.00000      286.48624        3.31812        3.48972      -57.54002
1189.50000      292.01919        3.18106        3.39986      -57.09002
1190.00000      300.38496        3.04400        3.34599      -55.25402
1190.50000      312.91836        2.87960        3.34520      -53.07302
1191.00000      333.78655        2.73734        3.22774      -52.20002
1191.50000      349.43956        2.59108        3.11067      -54.06602
1192.00000      362.85034        2.50321        3.10601      -56.67902
1192.50000      370.87577        2.50255        3.17695      -58.08002
1193.00000      370.04240        2.50189        3.24748      -59.48102
1193.50000      365.82566        2.53442        3.25562      -60.60002
1194.00000      361.60892        2.56736        3.24776      -59.94602
1194.50000      359.38416        2.59990        3.23989      -58.30802
1195.00000      358.50074        2.60763        3.23203      -56.70002
1195.50000      360.41359        2.57777        3.22417      -55.20002
1196.00000      364.49509        2.54177        3.18017      -53.70002
1196.50000      368.57660        2.51231        3.08551      -52.23902
1197.00000      373.03849        2.48245        2.99045      -50.92502
1197.50000      378.06094        2.45259        2.89578      -50.08202
1198.00000      383.08338        2.42272        2.89312      -49.55402
1198.50000      388.10583        2.39286        2.89086      -49.02302
1199.00000      390.90606        2.36300        2.88819      -48.67502
1199.50000      392.21482        2.33313        2.88553      -49.05002
1200.00000      391.75855        2.37999        2.95038      -47.96403
1200.50000      393.07732        2.35932        2.94812      -45.40803
1201.00000      394.64982        2.33866        2.94546      -42.95403
1201.50000      395.57820        2.31800        2.94279      -40.50003
1202.00000      395.93601        2.29733        2.94053      -39.81903
1202.50000      396.28381        2.27667        2.93787      -39.13503
1203.00000      396.63161        2.28441        2.93520      -39.30003
1203.50000      396.98942        2.29214        2.93254      -41.20803
