~Version ---------------------------------------------------
VERS. 2.0 : CWLS LOG ASCII STANDARD - VERSION 2.0
WRAP. NO  : One line per depth step
DLM . SPACE : Column Data Section Delimiter
~Well ------------------------------------------------------
STRT.F          194 : START DEPTH
STOP.F       1764.0 : STOP DEPTH
STEP.F          0.5 : STEP
NULL.       -999.25 : NULL VALUE
COMP.                 WALSH & WATTS, INC. : COMPANY
WELL.                         SALMON E 42 : WELL
FLD .                        NORTH NOCONA : FIELD
CNTY.                            MONTAGUE : COUNTY
STAT.                               TEXAS : STATE
CTRY.                                 USA : COUNTRY
SEC .                                     : SECTION
TWP .                                     : TOWNSHIP
RGE .                                     : RANGE
LOC . 150' FSL & 300' W OF WELL NO. 1, 407' E OF WELL NO. 5, F. ROBERTSON SURVEY : LOCATION
EKB .F                      880 : ELEVATION KELLY BUSHING
EDF .F                          : ELEVATION DERRICK FLOOR
EGL .F                      874 : ELEVATION GROUND LEVEL
PDAT.              GROUND LEVEL : PERMANENT DATUM
EPD .                       874 : ELEVATION PERMANENT DATUM
APD .                         6 : ABOVE PERMANENT DATUM
LMF .                        KB : LOG MEASURED FROM
DMF .                        KB : DRILLING MEASURED FROM
API .            42337037780000 : API NUMBER
UWI .            42337037780000 : UWI NUMBER
DIGC.                     NthDS : DIGITIZING COMPANY
~Params ----------------------------------------------------
SRVC.                LANE WELLS : LOGGING COMPANY
LOG .                       IEL : LOG
DATE.                1965-11-21 : RUN DATE
RUN .                         1 : RUN NUMBER
TDD .F                     1766 : TOTAL DEPTH DRILLER
TDL .F                     1768 : TOTAL DEPTH LOGGER
BOTL.F                     1764 : BOTTOM LOGGED INTERVAL
TOPL.F                      200 : TOP LOGGED INTERVAL
CSGS.IN                         : CASING SIZE
CSGD.F                          : CASING DRILLER
CSGL.F                          : CASING LOGGER
BS  .IN                   7.875 : BIT SIZE
MUD .              CHEMICAL GEL : MUD TYPE
MUDD.                       9.8 : MUD DENSITY
MUDV.                       123 : MUD VISCOSITY
PH  .                           : MUD PH
FL  .                           : FLUID LOSS
MUDS.                CIRCULATED : SOURCE OF SAMPLE
RM  .OHMM                   2.1 : MUD RESISTIVITY
RMT .DEGF                    70 : RM TEMPERATURE
RMF .OHMM                  1.81 : MUD FILTRATE RESISTIVITY
RMFT.DEGF                    70 : RMF TEMPERATURE
RMC .OHMM                  2.34 : MUD CAKE RESISTIVITY
RMCT.DEGF                    70 : RMC TEMPERATURE
RMFS.                  MEASURED : RMF SOURCE
RMCS.                           : RMC SOURCE
RMBH.OHMM                   1.5 : MUD RESISTIVITY AT BHT
BHT .DEGF                    98 : BOTTOM HOLE TEMPERATURE
TIMC.                           : TIME CIRCULATION STOPPED
TIML.                           : TIME LOGGER ON BOTTOM
TMAX.DEGF                    98 : MAXIMUM RECORDED TEMPERATURE
UNIT.                    L-4553 : EQUIPMENT NUMBER
BASE.                      W.F. : BASE LOCATION
ENG .                     ADAMS : RECORDED BY
WIT .   MR. HARRELSON & MR. NIX : WITNESSED BY
~Curve Information -----------------------------------------
DEPT.F          :DEPTH
CILD.MMHO       :
ILD.OHMM        :
ROP.MIN/FT      :
SN.OHMM         :
SP.MV           :
~ASCII ------------------------------------------------------
# ...
1424.50000      379.96039        2.70059        -999.25        3.71820      -49.01577
1425.00000      380.95246        2.70059        -999.25        3.71820      -49.60632
1425.50000      380.95246        2.66145        -999.25        3.67906      -49.60632
1426.00000      380.95246        2.66145        -999.25        3.67906      -49.31105
1426.50000      378.96833        2.70059        -999.25        3.63992      -49.01577
1427.00000      378.96833        2.70059        -999.25        3.63992      -49.01577
1427.50000      378.96833        2.70059        -999.25        3.67906      -48.72050
1428.00000      379.96039        2.66145        -999.25        3.63992      -49.31105
1428.50000      380.95246        2.66145        -999.25        3.63992      -49.31105
1429.00000      382.93658        2.66145        -999.25        3.63992      -49.31105
1429.50000      383.92865        2.66145        -999.25        3.60078      -49.60632
1430.00000      385.91277        2.66145        -999.25        3.60078      -50.49215
1430.50000      387.89690        2.66145        -999.25        3.60078      -51.96853
1431.00000      389.88103        2.62231        -999.25        3.60078      -53.14963
1431.50000      392.85722        2.62231        -999.25        3.60078      -54.33073
1432.00000      393.84928        2.58317        -999.25        3.56164      -54.62601
1432.50000      394.84134        2.58317        -999.25        3.52250      -54.03546
1433.00000      395.83341        2.58317        -999.25        3.48337      -52.85435
1433.50000      396.82547        2.58317        -999.25        3.44423      -51.37798
1434.00000      396.82547        2.58317        -999.25        3.44423      -49.90160
1434.50000      397.81753        2.58317        -999.25        3.40509      -49.60632
1435.00000      397.81753        2.58317        -999.25        3.44423      -49.60632
1435.50000      397.81753        2.58317        -999.25        3.44423      -49.60632
1436.00000      395.83341        2.58317        -999.25        3.48337      -49.31105
1436.50000      393.84928        2.58317        -999.25        3.56164      -49.90160
1437.00000      392.85722        2.62231        -999.25        3.56164      -50.78743
1437.50000      390.87309        2.58317        -999.25        3.60078      -51.08270
1438.00000      389.88103        2.62231        -999.25        3.56164      -50.19687
1438.50000      389.88103        2.62231        -999.25        3.56164      -48.12995
1439.00000      388.88896        2.62231        -999.25        3.56164      -45.17719
1439.50000      386.90484        2.66145        -999.25        3.56164      -42.22444
1440.00000      384.92071        2.66145        -999.25        3.56164      -39.86223
1440.50000      384.92071        2.66145        -999.25        3.60078      -38.38585
1441.00000      384.92071        2.66145        -999.25        3.60078      -38.38585
1441.50000      384.92071        2.66145        -999.25        3.60078      -38.97640
1442.00000      385.91277        2.62231        -999.25        3.60078      -39.27168
1442.50000      385.91277        2.62231        -999.25        3.56164      -38.09058
1443.00000      387.89690        2.62231        -999.25        3.56164      -37.20475
1443.50000      388.88896        2.62231        -999.25        3.56164      -36.31893
1444.00000      390.87309        2.62231        -999.25        3.52250      -36.02365
1444.50000      393.84928        2.58317        -999.25        3.52250      -35.72837
1445.00000      395.83341        2.54403        -999.25        3.48337      -36.31893
1445.50000      396.82547        2.58317        -999.25        3.48337      -36.61420
1446.00000      396.82547        2.58317        -999.25        3.44423      -36.61420
1446.50000      395.83341        2.58317        -999.25        3.40509      -36.02365
1447.00000      394.84134        2.58317        -999.25        3.40509      -35.43310
1447.50000      394.84134        2.58317        -999.25        3.44423      -35.13782
1448.00000      393.84928        2.58317        -999.25        3.48337      -36.31893
1448.50000      392.85722        2.58317        -999.25        3.48337      -37.20475
1449.00000      390.87309        2.58317        -999.25        3.48337      -37.79530
1449.50000      389.88103        2.62231        -999.25        3.52250      -38.09058
1450.00000      388.88896        2.66145        -999.25        3.52250      -38.68113
1450.50000      387.67403        2.60355        -999.25        3.55029      -40.01979
1451.00000      388.66807        2.60355        -999.25        3.55029      -40.90912
1451.50000      388.66807        2.60355        -999.25        3.58974      -41.50200
1452.00000      389.66210        2.56410        -999.25        3.55029      -42.39133
1452.50000      390.65614        2.60355        -999.25        3.55029      -44.76287
1453.00000      392.64421        2.56410        -999.25        3.55029      -45.94864
1453.50000      395.62632        2.56410        -999.25        3.51085      -46.54153
1454.00000      398.60842        2.52465        -999.25        3.47140      -47.13441
1454.50000      402.58457        2.52465        -999.25        3.39250      -47.13441
1455.00000      404.57264        2.52465        -999.25        3.39250      -46.83797
1455.50000      405.56667        2.52465        -999.25        3.39250      -46.54153
1456.00000      404.57264        2.52465        -999.25        3.43195      -46.54153
1456.50000      403.57860        2.52465        -999.25        3.39250      -46.24508
1457.00000      402.58457        2.52465        -999.25        3.43195      -46.24508
1457.50000      400.59649        2.52465        -999.25        3.47140      -45.94864
1458.00000      399.60246        2.52465        -999.25        3.47140      -45.65220
1458.50000      398.60842        2.56410        -999.25        3.47140      -45.65220
1459.00000      396.62035        2.56410        -999.25        3.47140      -46.54153
1459.50000      395.62632        2.56410        -999.25        3.51085      -47.13441
1460.00000      393.63825        2.56410        -999.25        3.51085      -48.32018
1460.50000      394.63228        2.56410        -999.25        3.51085      -48.32018
1461.00000      393.63825        2.56410        -999.25        3.51085      -48.02374
1461.50000      394.63228        2.56410        -999.25        3.51085      -47.13441
1462.00000      396.62035        2.52465        -999.25        3.47140      -46.54153
1462.50000      398.60842        2.52465        -999.25        3.47140      -45.94864
1463.00000      400.59649        2.52465        -999.25        3.47140      -45.35576
1463.50000      403.57860        2.52465        -999.25        3.43195      -44.76287
1464.00000      406.56071        2.48521        -999.25        3.43195      -44.16999
1464.50000      407.55474        2.48521        -999.25        3.39250      -43.87354
1465.00000      406.56071        2.48521        -999.25        3.39250      -43.28066
1465.50000      405.56667        2.48521        -999.25        3.39250      -42.98422
1466.00000      404.57264        2.48521        -999.25        3.39250      -42.68777
1466.50000      401.59053        2.52465        -999.25        3.43195      -43.28066
1467.00000      397.61439        2.56410        -999.25        3.47140      -43.28066
1467.50000      394.63228        2.56410        -999.25        3.51085      -43.28066
1468.00000      392.64421        2.56410        -999.25        3.51085      -43.57710
1468.50000      391.65017        2.56410        -999.25        3.51085      -44.16999
1469.00000      391.65017        2.60355        -999.25        3.55029      -44.76287
1469.50000      391.65017        2.56410        -999.25        3.55029      -45.05931
1470.00000      392.64421        2.56410        -999.25        3.51085      -45.35576
1470.50000      396.62035        2.56410        -999.25        3.47140      -43.57710
1471.00000      398.60842        2.52465        -999.25        3.47140      -41.50200
