~Version ---------------------------------------------------
VERS. 2.0 : CWLS LOG ASCII STANDARD - VERSION 2.0
WRAP. NO  : One line per depth step
DLM . SPACE : Column Data Section Delimiter
~Well ------------------------------------------------------
STRT.F          100 : START DEPTH
STOP.F       2271.5 : STOP DEPTH
STEP.F          0.5 : STEP
NULL.       -999.25 : NULL VALUE
COMP.                       WALSH & WATTS : COMPANY
WELL.                        SALMON E 24  : WELL
FLD .                               NORTH : FIELD
CNTY.                            MONTAGUE : COUNTY
STAT.                               TEXAS : STATE
CTRY.                                 USA : COUNTRY
SEC .                                     : SECTION
TWP .                                     : TOWNSHIP
RGE .                                     : RANGE
LOC .                 SW CORNER OF LEAGUE : LOCATION
EKB .F                          : ELEVATION KELLY BUSHING
EDF .F                          : ELEVATION DERRICK FLOOR
EGL .F                      850 : ELEVATION GROUND LEVEL
PDAT.                        GL : PERMANENT DATUM
EPD .                       850 : ELEVATION PERMANENT DATUM
APD .                         5 : ABOVE PERMANENT DATUM
LMF .                        RT : LOG MEASURED FROM
DMF .                        RT : DRILLING MEASURED FROM
API .            42337038630000 : API NUMBER
UWI .                           : UWI NUMBER
DIGC.                     NthDS : DIGITIZING COMPANY
~Params ----------------------------------------------------
SRVC.               HALLIBURTON : LOGGING COMPANY
LOG .                        EL : LOG
DATE.                1950-09-25 : RUN DATE
RUN .                         1 : RUN NUMBER
TDD .F                     2272 : TOTAL DEPTH DRILLER
TDL .F                     2272 : TOTAL DEPTH LOGGER
BOTL.F                     2272 : BOTTOM LOGGED INTERVAL
TOPL.F                          : TOP LOGGED INTERVAL
CSGS.IN                         : CASING SIZE
CSGD.F                          : CASING DRILLER
CSGL.F                          : CASING LOGGER
BS  .IN                       9 : BIT SIZE
MUD .        WATER BASE AQUAGEL : MUD TYPE
MUDD.                       9.8 : MUD DENSITY
MUDV.                        39 : MUD VISCOSITY
PH  .                           : MUD PH
FL  .                           : FLUID LOSS
MUDS.                           : SOURCE OF SAMPLE
RM  .OHMM                   2.3 : MUD RESISTIVITY
RMT .DEGF                    70 : RM TEMPERATURE
RMF .OHMM                       : MUD FILTRATE RESISTIVITY
RMFT.DEGF                       : RMF TEMPERATURE
RMC .OHMM                       : MUD CAKE RESISTIVITY
RMCT.DEGF                       : RMC TEMPERATURE
RMFS.                           : RMF SOURCE
RMCS.                           : RMC SOURCE
RMBH.OHMM                       : MUD RESISTIVITY AT BHT
BHT .DEGF                       : BOTTOM HOLE TEMPERATURE
TIMC.                           : TIME CIRCULATION STOPPED
TIML.                           : TIME LOGGER ON BOTTOM
TMAX.DEGF                       : MAXIMUM RECORDED TEMPERATURE
UNIT.                           : EQUIPMENT NUMBER
BASE.                           : BASE LOCATION
ENG .                  HARRISON : RECORDED BY
WIT .                    DAWSON : WITNESSED BY
~Curve Information -----------------------------------------
DEPT.F          :DEPTH
ILD.OHMM        :
SN.OHMM         :
SP.MV           :
~ASCII ------------------------------------------------------
# ...
1906.00000        1.90393        6.87131      -64.10424
1906.50000        1.92949        6.87349      -64.09344
1907.00000        1.95504        6.87568      -64.08264
1907.50000        1.97893        6.87786      -64.74097
1908.00000        2.00282        6.96352      -65.73170
1908.50000        2.02671        6.88223      -66.39003
1909.00000        2.05060        6.63400      -66.37922
1909.50000        2.07448        6.55272      -66.36842
1910.00000        2.09837        6.47143      -66.02305
1910.50000        2.12226        6.39015      -65.00855
1911.00000        2.14615        6.47580      -64.66319
1911.50000        2.17003        6.56146      -63.64869
1912.00000        2.19392        6.56364      -62.63419
1912.50000        2.21781        6.56583      -61.95425
1913.00000        2.24170        6.56802      -60.60519
1913.50000        2.26559        6.57020      -59.25612
1914.00000        2.28947        6.65586      -57.90706
1914.50000        2.31336        6.65804      -57.56169
1915.00000        2.27047        6.57719      -58.55459
1915.50000        2.21089        6.41244      -60.21661
1916.00000        2.15131        6.33115      -61.54407
1916.50000        2.09172        6.24986      -62.20240
1917.00000        2.03130        6.25205      -61.85703
1917.50000        2.01346        6.33771      -60.17124
1918.00000        2.05738        6.50683      -57.81848
1918.50000        2.10130        6.59249      -54.12745
1919.00000        2.14522        6.59468      -49.43274
1919.50000        2.18914        6.26298      -43.73432
1920.00000        2.23306        5.84781      -38.03591
1920.50000        2.26863        5.59958      -36.35228
1921.00000        2.29085        5.60176      -37.01060
1921.50000        2.31768        5.52048      -35.99610
1922.00000        2.34074        5.43919      -34.31031
1922.50000        2.36295        5.27443      -33.96495
1923.00000        2.38601        5.44356      -35.96154
1923.50000        2.40823        5.69616      -39.29639
1924.00000        2.43044        5.86529      -43.96950
1924.50000        2.43597        6.03442      -49.31390
1925.00000        2.41645        6.03660      -55.32528
1925.50000        2.39693        6.03879      -57.99100
1926.00000        2.37742        5.87403      -57.64563
1926.50000        2.35706        5.79274      -56.96354
1927.00000        2.33755        5.79493      -58.29100
1927.50000        2.31803        5.63017      -59.61846
1928.00000        2.29768        5.63236      -60.94591
1928.50000        2.25729        5.63454      -61.93881
1929.00000        2.21106        5.46978      -61.92801
1929.50000        2.16484        5.38850      -61.24807
1930.00000        2.11944        5.39068      -60.23357
1930.50000        2.07322        5.47634      -59.55364
1931.00000        2.07290        5.47853      -59.20827
1931.50000        2.10263        5.64765      -59.19747
1932.00000        2.13319        5.56637      -59.52123
1932.50000        2.16292        5.48508      -60.17956
1933.00000        2.19265        5.48727      -61.17245
1933.50000        2.22322        5.32251      -62.16535
1934.00000        2.25212        5.15775      -63.15824
1934.50000        2.28018        4.90952      -62.47831
1935.00000        2.30824        4.99518      -61.46381
1935.50000        2.33713        5.16431      -60.44931
1936.00000        2.36520        5.33344      -59.43481
1936.50000        2.39326        5.41909      -60.09314
1937.00000        2.40629        5.42128      -60.75146
1937.50000        2.35923        5.50693      -62.41133
1938.00000        2.31300        5.42565      -61.73139
1938.50000        2.26594        5.42783      -60.38233
1939.00000        2.32322        5.43002      -57.36044
1939.50000        2.40720        5.51568      -53.33485
1940.00000        2.49036        5.43439      -46.63274
1940.50000        2.57434        5.18616      -37.92323
1941.00000        2.65750        4.60405      -30.21743
1941.50000        2.74148        4.35582      -23.84772
1942.00000        2.82464        4.19106      -22.49866
1942.50000        2.90862        4.27672      -21.81872
1943.00000        2.94920        4.27890      -21.47335
1943.50000        2.96224        4.44847      -21.46255
1944.00000        2.97444        4.61760      -22.45544
1944.50000        2.98665        4.95367      -23.78290
1945.00000        2.99885        5.37321      -26.11406
1945.50000        3.01399        5.87622      -28.44521
1946.00000        3.02619        6.12882      -29.43811
1946.50000        3.03839        6.29795      -30.43100
1947.00000        2.98215        6.46708      -33.09672
1947.50000        2.88000        6.80315      -38.43897
1948.00000        2.77784        6.97227      -44.78491
1948.50000        2.67569        7.05793      -51.46541
1949.00000        2.57353        7.06012      -56.13853
1949.50000        2.52898        7.06230      -58.13512
1950.00000        2.36351        6.84508      -59.95813
1950.50000        2.33314        6.76380      -60.31870
1951.00000        2.30361        6.68251      -60.67926
1951.50000        2.27324        6.76817      -61.04317
1952.00000        2.27876        6.68688      -60.94873
1952.50000        2.30682        6.60560      -60.54983
1953.00000        2.33489        6.60778      -60.15427
1953.50000        2.37380        6.52649      -59.13978
1954.00000        2.42857        6.44521      -58.12528
1954.50000        2.48251        6.36392      -57.11078
1955.00000        2.55397        6.28264      -54.75802
1955.50000        2.69556        6.03441      -51.06699
1956.00000        2.83714        5.70271      -44.69945
1956.50000        2.97789        5.45448      -34.64952
1957.00000        3.11947        5.03931      -27.61284
1957.50000        3.27524        4.87455      -25.26008
1958.00000        3.43101        4.96021      -25.24928
1958.50000        3.58762        5.21281      -25.90761
1959.00000        3.69748        5.46541      -27.56963
1959.50000        3.62371        5.88495      -30.56992
1960.00000        3.54994        6.30449      -36.24673
1960.50000        3.39186        6.97488      -42.92723
1961.00000        3.23294        7.39442      -47.93707
1961.50000        3.08822        7.39661      -50.93736
1962.00000        2.96353        7.23185      -51.93025
1962.50000        2.83884        7.06710      -51.25032
1963.00000        2.71415        7.06928      -49.89910
1963.50000        2.58862        6.98799      -48.21547
1964.00000        2.56576        6.82324      -45.52814
1964.50000        2.56839        6.65848      -44.84821
1965.00000        2.57057        6.57719      -47.84849
1965.50000        2.57276        6.66285      -52.18704
1966.00000        2.53905        6.74851      -54.85276
1966.50000        2.49700        6.75069      -54.17283
1967.00000        2.45411        6.83635      -52.15463
1967.50000        2.41122        7.00548      -49.80187
1968.00000        2.36916        7.00766      -47.44911
1968.50000        2.34714        7.00985      -47.43831
1969.00000        2.40943        7.26245      -48.43120
1969.50000        2.47088        7.26463      -49.08953
1970.00000        2.53316        6.93293      -48.40959
1970.50000        2.59461        6.76817      -46.05683
1971.00000        2.65606        6.68689      -43.03494
1971.50000        2.76258        6.68907      -38.67479
1972.00000        2.89832        6.35737      -33.98007
1972.50000        3.03406        6.02567      -27.61252
1973.00000        3.16980        5.61050      -23.92150
1973.50000        3.30554        5.52922      -22.57244
1974.00000        3.36115        5.53140      -22.56163
1974.50000        3.36333        5.61706      -23.21780
1975.00000        3.36552        5.86966      -21.11596
1975.50000        3.36770        5.87184      -20.35239
1976.00000        3.39159        5.87403      -21.51257
1976.50000        3.50396        5.87621      -21.66904
1977.00000        3.61549        5.96187      -21.39394
