~Version ---------------------------------------------------
VERS. 2.0 : CWLS LOG ASCII STANDARD - VERSION 2.0
WRAP. NO  : One line per depth step
DLM . SPACE : Column Data Section Delimiter
~Well ------------------------------------------------------
STRT.F        490.5 : START DEPTH
STOP.F       1005.0 : STOP DEPTH
STEP.F          0.5 : STEP
NULL.       -999.25 : NULL VALUE
COMP.                       WALSH & WATTS : COMPANY
WELL.                           HYNDS B 6 : WELL
FLD .                           N. NOCONA : FIELD
CNTY.                            MONTAGUE : COUNTY
STAT.                               TEXAS : STATE
CTRY.                                 USA : COUNTRY
SEC .                                     : SECTION
TWP .                                     : TOWNSHIP
RGE .                                     : RANGE
LOC . 550' FR W/L OF LEASE, 150' FR S/L OF LEASE, 400' FR NO 4 WELL, 300' FR NO 3 WELL : LOCATION
EKB .F                          : ELEVATION KELLY BUSHING
EDF .F                          : ELEVATION DERRICK FLOOR
EGL .F                          : ELEVATION GROUND LEVEL
PDAT.                        GL : PERMANENT DATUM
EPD .                           : ELEVATION PERMANENT DATUM
APD .                         6 : ABOVE PERMANENT DATUM
LMF .                        KB : LOG MEASURED FROM
DMF .                        KB : DRILLING MEASURED FROM
API .            42337038650000 : API NUMBER
UWI .                           : UWI NUMBER
DIGC.                     NthDS : DIGITIZING COMPANY
~Params ----------------------------------------------------
SRVC.              SCHLUMBERGER : LOGGING COMPANY
LOG .                        ML : LOG
DATE.                1957-10-13 : RUN DATE
RUN .                         1 : RUN NUMBER
TDD .F                     1015 : TOTAL DEPTH DRILLER
TDL .F                     1008 : TOTAL DEPTH LOGGER
BOTL.F                     1005 : BOTTOM LOGGED INTERVAL
TOPL.F                      500 : TOP LOGGED INTERVAL
CSGS.IN                         : CASING SIZE
CSGD.F                          : CASING DRILLER
CSGL.F                          : CASING LOGGER
BS  .IN                         : BIT SIZE
MUD .                       GEL : MUD TYPE
MUDD.                        10 : MUD DENSITY
MUDV.                        53 : MUD VISCOSITY
PH  .                           : MUD PH
FL  .                           : FLUID LOSS
MUDS.                   MUD PIT : SOURCE OF SAMPLE
RM  .OHMM                   1.7 : MUD RESISTIVITY
RMT .DEGF                    68 : RM TEMPERATURE
RMF .OHMM                   1.1 : MUD FILTRATE RESISTIVITY
RMFT.DEGF                    90 : RMF TEMPERATURE
RMC .OHMM                   1.5 : MUD CAKE RESISTIVITY
RMCT.DEGF                    90 : RMC TEMPERATURE
RMFS.                           : RMF SOURCE
RMCS.                           : RMC SOURCE
RMBH.OHMM                   1.3 : MUD RESISTIVITY AT BHT
BHT .DEGF                    90 : BOTTOM HOLE TEMPERATURE
TIMC.                           : TIME CIRCULATION STOPPED
TIML.                           : TIME LOGGER ON BOTTOM
TMAX.DEGF                    90 : MAXIMUM RECORDED TEMPERATURE
UNIT.                       785 : EQUIPMENT NUMBER
BASE.                        WF : BASE LOCATION
ENG .                     JONES : RECORDED BY
WIT .                       NIX : WITNESSED BY
~Curve Information -----------------------------------------
DEPT.F          :DEPTH
CALM.IN         :
MINV.OHMM       :
MNOR.OHMM       :
SP.MV           :
~ASCII ------------------------------------------------------
490.50000        9.16042        3.79280        2.79494      -54.26308
491.00000        9.16078        3.57437        2.68987      -52.45678
491.50000        9.12514        4.05441        3.00473      -51.04467
492.00000        9.01390        3.92235        3.26562      -51.20935
492.50000        8.88520        4.36136        3.92235      -51.86543
493.00000        9.06114        4.21023        3.36242      -52.85090
493.50000        9.11460        3.95006        2.87879      -53.83367
494.00000        9.07302        3.71472        2.86259      -53.14516
494.50000        8.98338        3.59848        3.09146      -52.67804
495.00000        9.07374        3.95833        3.25915      -54.50752
495.50000        9.16410        4.02311        3.18214      -55.97629
496.00000        9.18246        4.50134        3.41856      -57.44236
496.50000        9.18282        4.15805        3.17098      -56.84565
497.00000        9.18318        3.81439        3.26275      -56.25163
497.50000        9.18355        4.75000        3.66146      -55.65492
498.00000        9.18391        4.75000        3.63447      -55.05820
498.50000        9.11882        4.76799        3.64347      -54.46149
499.00000        9.03746        4.54956        3.57150      -53.86748
499.50000        9.01712        4.42218        3.27858      -54.02945
500.00000        9.03747        4.68199        3.55854      -55.45502
500.50000        9.05781        4.48911        3.54703      -57.06959
501.00000        9.07815        4.60606        3.38977      -57.74727
501.50000        9.08607        4.64204        3.33759      -58.28076
502.00000        9.09381        4.42614        3.27462      -58.72624
502.50000        9.09129        4.40814        3.31780      -58.93141
503.00000        9.08157        4.85795        3.58301      -58.77480
503.50000        9.14295        4.44665        3.32608      -58.04848
504.00000        9.20207        4.39015        3.40417      -56.93607
504.50000        9.19199        4.48911        3.24583      -55.37007
505.00000        9.18173        4.46212        3.38258      -52.95627
505.50000        9.17147        4.13826        3.39697      -50.88807
506.00000        9.08183        4.49811        3.46894      -50.28325
506.50000        9.02225        4.17424        3.70644      -51.00844
507.00000        9.10956        4.42614        3.42900      -52.21801
507.50000        9.17526        4.39627        3.27462      -52.77959
508.00000        9.18120        4.57008        3.38258      -53.17917
508.50000        9.18714        4.33006        3.13068      -52.17476
509.00000        9.18822        4.07348        3.31061      -51.46734
509.50000        9.16543        4.31818        2.99718      -51.19192
510.00000        9.14653        4.03030        3.22820      -50.91651
510.50000        9.10316        4.67803        3.43295      -50.23609
511.00000        9.06752        4.53409        3.63087      -49.28568
511.50000        9.16382        3.99432        3.41136      -48.33527
512.00000        9.20936        4.18324        2.98674      -47.38486
512.50000        9.20504        4.03030        2.91477      -47.00036
513.00000        9.20072        3.93782        2.92521      -46.99494
513.50000        9.19622        4.05909        3.10909      -47.24602
514.00000        9.19190        4.06629        3.08030      -48.53119
514.50000        9.18759        4.61506        3.36818      -49.81366
515.00000        9.18226        4.68523        3.60568      -51.09613
515.50000        9.14932        4.64204        3.59129      -52.38130
516.00000        9.00172        4.09436        3.45455      -53.48017
516.50000        8.85431        3.53443        3.51752      -54.53584
517.00000        8.72201        2.41710        3.13968      -55.59152
517.50000        8.61221        2.26705        2.80214      -56.64719
518.00000        8.56325        2.11699        2.68087      -57.70286
518.50000        8.55461        2.06193        2.62689      -58.99613
519.00000        8.54598        2.03062        2.59415      -61.23979
519.50000        8.53734        1.99968        2.51246      -62.46286
520.00000        8.53410        1.96837        2.45417      -63.92785
520.50000        8.53446        1.94858        2.44193      -63.81983
521.00000        8.53489        1.96261        2.33901      -63.70911
521.50000        8.53525        1.97629        2.37176      -63.25549
522.00000        8.53562        1.99032        2.40451      -62.28618
522.50000        8.53598        2.00400        2.43725      -62.11067
523.00000        8.53634        2.02811        2.47000      -61.66245
523.50000        8.53670        2.09216        2.50275      -60.79844
524.00000        8.53706        2.15657        2.53513      -59.95063
524.50000        8.53634        2.16485        2.52506      -59.17301
525.00000        8.53436        2.08892        2.44985      -57.33431
525.50000        8.53220        2.01335        2.37500      -55.22722
526.00000        8.53005        1.93742        2.29799      -55.81040
526.50000        8.52742        1.99968        2.37500      -56.78777
527.00000        8.52526        2.10655        2.44697      -57.91094
527.50000        8.52310        2.02343        2.28756      -59.25551
528.00000        8.54002        1.92375        2.19508      -60.60008
528.50000        8.58538        2.03062        2.37500      -61.94465
529.00000        8.59043        2.11519        2.60674      -62.61423
529.50000        8.58557        2.09504        2.68699      -62.41981
530.00000        8.58071        2.26705        2.83992      -61.26420
530.50000        8.60303        2.39911        3.10297      -59.59559
531.00000        8.66639        2.71686        3.36602      -57.92969
531.50000        8.70815        2.86691        3.23864      -55.64170
532.00000        8.71938        3.41856        3.40669      -53.80570
532.50000        8.85150        3.55530        3.40057      -52.45029
533.00000        9.06570        4.02311        3.16667      -51.09488
533.50000        9.13608        4.31818        3.26670      -49.84748
534.00000        9.19099        4.84896        3.23144      -48.62707
534.50000        9.18451        3.41856        2.71434      -48.28145
535.00000        9.17785        3.47254        2.43150      -48.15183
535.50000        9.12151        4.39015        3.51464      -48.36781
536.00000        9.09937        5.14583        4.60606      -48.81329
536.50000        9.19430        6.50822        4.87235      -50.89495
537.00000        9.15867        5.58233        4.46932      -51.26644
537.50000        9.00909        3.13068        3.34659      -51.12603
538.00000        9.18639        3.18466        2.71074      -50.66161
538.50000        9.15759        3.62727        2.73485      -49.71120
539.00000        8.96661        4.25809        3.09470      -49.13879
539.50000        8.84331        3.95833        3.33939      -50.16476
540.00000        8.76484        3.64886        3.55530      -51.87652
540.50000        8.68654        3.35847        3.33472      -53.50999
541.00000        8.63506        3.23864        3.24583      -55.02466
541.50000        8.62426        3.08030        3.04072      -55.71313
542.00000        8.61328        2.78703        2.79962      -56.19911
542.50000        8.60464        2.63409        2.78163      -56.61219
543.00000        8.60508        2.45057        2.70606      -56.97397
543.50000        8.60544        2.29763        2.60890      -57.91786
544.00000        8.60580        2.78271        2.73485      -59.12743
544.50000        8.60616        2.82481        2.85324      -59.60800
545.00000        8.60652        2.59091        2.72441      -59.60258
545.50000        8.62290        2.59091        2.59595      -59.59716
546.00000        8.63947        2.52398        2.54305      -59.35955
546.50000        8.65585        2.53945        2.60278      -58.77633
547.00000        8.67223        2.77083        2.66288      -58.19312
547.50000        8.68861        2.47108        2.59523      -57.21841
