~Version ---------------------------------------------------
VERS. 2.0 : CWLS LOG ASCII STANDARD - VERSION 2.0
WRAP. NO  : One line per depth step
DLM . SPACE : Column Data Section Delimiter
~Well ------------------------------------------------------
STRT.F          500 : START DEPTH
STOP.F       2022.5 : STOP DEPTH
STEP.F          0.5 : STEP
NULL.       -999.25 : NULL VALUE
COMP.                 WALSH & WATTS, INC. : COMPANY
WELL.                          HYNDS A 10 : WELL
FLD .                           N. NOCONA : FIELD
CNTY.                            MONTAGUE : COUNTY
STAT.                               TEXAS : STATE
CTRY.                                 USA : COUNTRY
SEC .                                     : SECTION
TWP .                                     : TOWNSHIP
RGE .                                     : RANGE
LOC .  244' SE OF NO. 5A J.J. WALL SURVEY : LOCATION
EKB .F                    903.5 : ELEVATION KELLY BUSHING
EDF .F                          : ELEVATION DERRICK FLOOR
EGL .F                      897 : ELEVATION GROUND LEVEL
PDAT.                        GL : PERMANENT DATUM
EPD .                           : ELEVATION PERMANENT DATUM
APD .                         6 : ABOVE PERMANENT DATUM
LMF .                           : LOG MEASURED FROM
DMF .                           : DRILLING MEASURED FROM
API .            42337037830000 : API NUMBER
UWI .            42337037830000 : UWI NUMBER
DIGC.                     NthDS : DIGITIZING COMPANY
~Params ----------------------------------------------------
SRVC.                LANE WELLS : LOGGING COMPANY
LOG .                       GRN : LOG
DATE.                1957-11-30 : RUN DATE
RUN .                         1 : RUN NUMBER
TDD .F                     2039 : TOTAL DEPTH DRILLER
TDL .F                     2015 : TOTAL DEPTH LOGGER
BOTL.F                     2023 : BOTTOM LOGGED INTERVAL
TOPL.F                      500 : TOP LOGGED INTERVAL
CSGS.IN                     5.5 : CASING SIZE
CSGD.F                     2038 : CASING DRILLER
CSGL.F                          : CASING LOGGER
BS  .IN                    8.75 : BIT SIZE
MUD .                     WATER : MUD TYPE
MUDD.                           : MUD DENSITY
MUDV.                           : MUD VISCOSITY
PH  .                           : MUD PH
FL  .                           : FLUID LOSS
MUDS.                           : SOURCE OF SAMPLE
RM  .OHMM                       : MUD RESISTIVITY
RMT .DEGF                       : RM TEMPERATURE
RMF .OHMM                       : MUD FILTRATE RESISTIVITY
RMFT.DEGF                       : RMF TEMPERATURE
RMC .OHMM                       : MUD CAKE RESISTIVITY
RMCT.DEGF                       : RMC TEMPERATURE
RMFS.                           : RMF SOURCE
RMCS.                           : RMC SOURCE
RMBH.OHMM                       : MUD RESISTIVITY AT BHT
BHT .DEGF                       : BOTTOM HOLE TEMPERATURE
TIMC.                           : TIME CIRCULATION STOPPED
TIML.                           : TIME LOGGER ON BOTTOM
TMAX.DEGF                       : MAXIMUM RECORDED TEMPERATURE
UNIT.                           : EQUIPMENT NUMBER
BASE.                           : BASE LOCATION
ENG .                   ROBERTS : RECORDED BY
WIT .                       NIX : WITNESSED BY
~Curve Information -----------------------------------------
DEPT.F          :DEPTH
GRN.GAPI        :
NEUT.API        :
~ASCII ------------------------------------------------------
# ...
1784.00000       26.52802     2767.33157
1784.50000       25.91500     2791.36480
1785.00000       27.09674     2724.11430
1785.50000       28.27938     2631.99947
1786.00000       28.41319     2521.43636
1786.50000       29.51627     2441.03941
1787.00000       31.03706     2375.72381
1787.50000       31.64556     2363.04824
1788.00000       33.34086     2348.56437
1788.50000       33.54430     2317.80566
1789.00000       33.67540     2302.30913
1789.50000       34.90867     2250.46200
1790.00000       35.77847     2229.14269
1790.50000       35.19800     2183.91746
1791.00000       35.98553     2190.22921
1791.50000       37.11572     2230.89893
1792.00000       36.54610     2271.56865
1792.50000       37.25135     2286.92197
1793.00000       36.55062     2271.91368
1793.50000       36.87431     2287.41166
1794.00000       39.05967     2285.06158
1794.50000       38.26401     2312.16547
1795.00000       38.37251     2315.27649
1795.50000       37.88426     2285.65702
1796.00000       40.06961     2256.05564
1796.50000       41.08498     2287.68378
1797.00000       40.50632     2304.84542
1797.50000       40.65731     2261.42850
1798.00000       39.34357     2305.47978
1798.50000       38.69800     2323.47323
1799.00000       38.58950     2309.67651
1799.50000       38.92404     2328.26324
1800.00000       38.74321     2290.56962
1800.50000       33.81554     2306.87132
1801.00000       34.84900     2323.17301
1801.50000       34.92314     2298.22365
1802.00000       35.21157     2302.28602
1802.50000       35.71428     2322.44989
1803.00000       33.37160     2355.28827
1803.50000       31.02893     2359.71329
1804.00000       30.81916     2364.77293
1804.50000       31.01265     2395.72555
1805.00000       29.83724     2426.69630
1805.50000       29.03254     2442.68974
1806.00000       31.25677     2398.78861
1806.50000       32.13652     2340.74775
1807.00000       31.55515     2332.02682
1807.50000       32.58860     2306.62415
1808.00000       32.41410     2334.94758
1808.50000       32.70433     2343.45237
1809.00000       34.90053     2345.01248
1809.50000       33.28571     2319.24716
1810.00000       33.45388     2348.24149
1810.50000       34.81012     2340.66290
1811.00000       34.50632     2343.97836
1811.50000       35.49276     2340.93285
1812.00000       35.55424     2303.63538
1812.50000       34.47648     2273.21005
1813.00000       33.39782     2287.87983
1813.50000       34.21609     2314.35376
1814.00000       34.91319     2340.84583
1814.50000       34.71970     2335.75137
1815.00000       35.84990     2316.78568
1815.50000       36.36527     2288.44557
1816.00000       35.98553     2285.92242
1816.50000       34.93037     2279.10539
1817.00000       33.66455     2271.58120
1817.50000       33.16455     2233.99360
1818.00000       34.88245     2233.72235
1818.50000       36.16636     2238.05670
1819.00000       35.35261     2244.31308
1819.50000       35.52079     2284.44066
1820.00000       35.75949     2293.03611
1820.50000       36.09855     2271.11484
1821.00000       37.04068     2284.38844
1821.50000       37.79384     2250.51449
1822.00000       36.50542     2196.10009
1822.50000       36.75406     2207.94123
1823.00000       37.43218     2231.73157
1823.50000       34.97829     2210.19109
1824.00000       34.17721     2177.29977
1824.50000       32.18806     2216.13995
1825.00000       32.82097     2274.27293
1825.50000       32.04610     2324.11943
1826.00000       32.51988     2317.90077
1826.50000       33.82549     2295.97951
1827.00000       34.81012     2269.66674
1827.50000       34.81012     2272.67743
1828.00000       33.65008     2279.29646
1828.50000       34.17721     2280.82030
1829.00000       33.52893     2305.53540
1829.50000       32.54972     2310.68571
1830.00000       33.27305     2329.03635
1830.50000       33.93580     2313.06249
1831.00000       33.95117     2317.88642
1831.50000       34.90053     2344.05210
1832.00000       34.27667     2318.44998
1832.50000       33.23688     2321.46067
1833.00000       33.51446     2320.22492
1833.50000       34.90053     2355.45676
1834.00000       34.08679     2381.84003
1834.50000       34.47468     2367.31676
1835.00000       33.42766     2337.87058
1835.50000       32.10488     2300.88135
1836.00000       33.49909     2263.91026
1836.50000       34.89330     2262.07962
1837.00000       34.25406     2284.72762
1837.50000       33.10578     2288.64493
1838.00000       31.96202     2312.79793
1838.50000       33.46383     2287.99014
1839.00000       35.45569     2288.28099
1839.50000       34.61663     2286.99432
1840.00000       35.41319     2274.95518
1840.50000       35.46111     2294.57508
1841.00000       35.39782     2276.06270
1841.50000       35.08137     2251.02268
1842.00000       35.93128     2271.31348
1842.50000       34.71970     2278.18636
1843.00000       33.36346     2287.23512
1843.50000       32.00723     2301.94117
1844.00000       32.29475     2330.26112
1844.50000       33.13290     2304.58646
1845.00000       32.91139     2280.81570
1845.50000       32.14918     2268.41392
1846.00000       32.28571     2264.82444
1846.50000       33.88516     2291.09891
1847.00000       35.48462     2275.30638
1847.50000       36.34719     2251.40870
1848.00000       35.32278     2277.99142
1848.50000       33.81554     2309.70559
1849.00000       34.41048     2335.98007
1849.50000       35.57865     2331.11785
1850.00000       36.74683     2285.90632
1850.50000       36.34719     2283.63063
1851.00000       34.99095     2264.19146
1851.50000       36.07594     2261.64477
1852.00000       36.95026     2270.93183
1852.50000       36.79927     2255.55770
1853.00000       35.44303     2234.09505
1853.50000       34.74954     2237.00453
1854.00000       33.86979     2276.98711
1854.50000       34.20343     2302.01037
1855.00000       34.18987     2277.59936
1855.50000       33.09222     2285.71208
1856.00000       29.02350     2259.49786
1856.50000       28.02893     2203.02173
1857.00000       28.98372     2146.54560
1857.50000       29.62658     2157.96455
1858.00000       29.02350     2159.15768
1858.50000       30.52621     2217.73101
1859.00000       31.77757     2293.84722
1859.50000       32.45931     2301.83347
1860.00000       31.74864     2318.97960
1860.50000       31.87160     2338.52861
1861.00000       31.35623     2334.29823
1861.50000       31.28390     2326.74703
1862.00000       33.77034     2307.16333
1862.50000       36.25677     2322.88218
1863.00000       36.41771     2312.54869
1863.50000       35.41319     2316.14471
1864.00000       34.40867     2269.15365
1864.50000       33.40325     2282.68642
1865.00000       33.42766     2283.04848
1865.50000       33.63471     2263.68158
1866.00000       31.82639     2277.86128
1866.50000       31.23869     2272.67683
1867.00000       32.73055     2294.59260
1867.50000       33.45388     2300.64571
1868.00000       33.07413     2272.87774
1868.50000       34.15912     2257.07000
1869.00000       34.28751     2258.13667
1869.50000       32.98191     2263.53937
1870.00000       32.81374     2263.52203
1870.50000       33.40506     2248.14789
1871.00000       33.99638     2243.61385
1871.50000       32.48914     2259.40150
1872.00000       32.40506     2247.51426
1872.50000       31.44665     2221.22777
1873.00000       32.59222     2192.64680
1873.50000       34.33996     2154.99629
1874.00000       36.09402     2145.94554
1874.50000       36.14375     2118.82798
1875.00000       35.72151     2143.65250
1875.50000       37.09855     2168.47702
1876.00000       38.24592     2165.38832
1876.50000       37.61301     2137.41815
1877.00000       36.98010     2139.69529
1877.50000       37.43218     2129.03660
1878.00000       36.49818     2112.95786
1878.50000       37.29656     2156.51767
1879.00000       36.69077     2200.07748
1879.50000       36.19619     2243.63728
1880.00000       32.45931     2243.89094
1880.50000       32.94122     2227.32440
1881.00000       33.99638     2210.73979
1881.50000       34.06871     2215.41982
