~Version ---------------------------------------------------
VERS. 2.0 : CWLS LOG ASCII STANDARD - VERSION 2.0
WRAP. NO  : One line per depth step
DLM . SPACE : Column Data Section Delimiter
~Well ------------------------------------------------------
STRT.F          800 : START DEPTH
STOP.F       1756.5 : STOP DEPTH
STEP.F          0.5 : STEP
NULL.       -999.25 : NULL VALUE
COMP.                 WALSH & WATTS, INC. : COMPANY
WELL.                       SALMON D E 6D : WELL
FLD .                             REGULAR : FIELD
CNTY.                            MONTAGUE : COUNTY
STAT.                               TEXAS : STATE
CTRY.                                 USA : COUNTRY
SEC .                                     : SECTION
TWP .                                     : TOWNSHIP
RGE .                                     : RANGE
LOC .  460 FSL 755 FEL
F. ROBERTSON A-620 : LOCATION
EKB .F                      880 : ELEVATION KELLY BUSHING
EDF .F                      878 : ELEVATION DERRICK FLOOR
EGL .F                      874 : ELEVATION GROUND LEVEL
PDAT.                        GL : PERMANENT DATUM
EPD .                       874 : ELEVATION PERMANENT DATUM
APD .                           : ABOVE PERMANENT DATUM
LMF .                        KB : LOG MEASURED FROM
DMF .                        KB : DRILLING MEASURED FROM
API .            42337016430000 : API NUMBER
UWI .            42337016430000 : UWI NUMBER
DIGC.                     NthDS : DIGITIZING COMPANY
~Params ----------------------------------------------------
SRVC.              SCHLUMBERGER : LOGGING COMPANY
LOG .                   CNFD/ML : LOG
DATE.                2005-08-03 : RUN DATE
RUN .                         1 : RUN NUMBER
TDD .F                     1750 : TOTAL DEPTH DRILLER
TDL .F                     1750 : TOTAL DEPTH LOGGER
BOTL.F                     1750 : BOTTOM LOGGED INTERVAL
TOPL.F                      980 : TOP LOGGED INTERVAL
CSGS.IN                       7 : CASING SIZE
CSGD.F                      880 : CASING DRILLER
CSGL.F                      880 : CASING LOGGER
BS  .IN                     6.5 : BIT SIZE
MUD .                       FGM : MUD TYPE
MUDD.                       0.2 : MUD DENSITY
MUDV.                        80 : MUD VISCOSITY
PH  .                        11 : MUD PH
FL  .                         7 : FLUID LOSS
MUDS.                       PIT : SOURCE OF SAMPLE
RM  .OHMM                  1.70 : MUD RESISTIVITY
RMT .DEGF                    70 : RM TEMPERATURE
RMF .OHMM                  1.33 : MUD FILTRATE RESISTIVITY
RMFT.DEGF                    70 : RMF TEMPERATURE
RMC .OHMM                  2.67 : MUD CAKE RESISTIVITY
RMCT.DEGF                    70 : RMC TEMPERATURE
RMFS.                      MEAS : RMF SOURCE
RMCS.                       CAL : RMC SOURCE
RMBH.OHMM                  1.47 : MUD RESISTIVITY AT BHT
BHT .DEGF                    98 : BOTTOM HOLE TEMPERATURE
TIMC.                     2100  : TIME CIRCULATION STOPPED
TIML.                     0300  : TIME LOGGER ON BOTTOM
TMAX.DEGF                    98 : MAXIMUM RECORDED TEMPERATURE
UNIT.                       303 : EQUIPMENT NUMBER
BASE.                   WICHITA : BASE LOCATION
ENG .              DAVID PARKER : RECORDED BY
WIT .              MR. BURLESON : WITNESSED BY
~Curve Information -----------------------------------------
DEPT.F          :DEPTH
CALD.IN         :
DPHI.%          :
GRD.GAPI        :
MINV.OHMM       :
MNOR.OHMM       :
NPHI.%          :
~ASCII ------------------------------------------------------
# ...
1640.00000        5.78897       12.07881       86.85647        6.38829        7.73170       20.56883
1640.50000        5.80760       12.10452       88.52998        6.48581        7.62950       20.94017
1641.00000        5.82158       12.02019       90.41216        6.58333        7.52652       21.10942
1641.50000        5.83456       11.62472       92.17639        6.48581        7.42432       21.22844
1642.00000        5.84754       11.56572       92.16848        6.36879        7.18404       21.26481
1642.50000        5.83532       11.92237       90.14345        6.26113        6.93595       21.28022
1643.00000        5.81665       12.33839       89.73332        5.99354        6.68787       21.32449
1643.50000        5.79818       12.55649       90.63265        5.72517        6.43978       21.36363
1644.00000        5.77971       12.68552       93.74868        5.52624        6.29077       20.92463
1644.50000        5.76103       12.46343       94.75083        5.66666        6.29077       20.67428
1645.00000        5.75285       11.97058       94.06853        6.05673        6.55056       20.81434
1645.50000        5.78599       11.62776       95.53942        6.16595        6.70035       21.09709
1646.00000        5.78546       11.43021       96.41455        6.00134        6.73311       21.46012
1646.50000        5.78483       11.72748       96.53365        6.05673        6.74248       21.53288
1647.00000        5.78430       12.08927       97.13056        5.98574        6.65822       21.46998
1647.50000        5.77752       12.21316       99.64177        5.91475        6.57475       21.31217
1648.00000        5.77074       12.21037      101.46951        6.05673        6.54900       21.15950
1648.50000        5.76376       12.12248      102.42774        6.25177        6.60907       21.01513
1649.00000        5.76505       11.32687      103.22424        6.26269        6.66914       20.87037
1649.50000        5.76855       11.18237      103.08629        6.22680        6.01226       20.76793
1650.00000        5.78146       11.78021      102.52031        6.05630        5.52581       20.82268
1650.50000        5.78476       12.61345      103.68879        6.05548        5.69662       20.78340
1651.00000        5.78806       12.73281      104.06797        6.00185        5.98157       20.85914
1651.50000        5.75554       11.97172      101.28690        5.87099        6.21425       21.22637
1652.00000        5.69928       11.27844       97.24779        5.81736        6.23863       21.81848
1652.50000        5.67601       11.45888       95.82759        5.81600        6.26301       22.30787
1653.00000        5.66100       11.63971       92.15441        5.79825        6.25931       22.63862
1653.50000        5.64619       12.30123       91.95597        5.76881        6.14093       22.70523
1654.00000        5.63138       12.24093       91.14665        5.73936        6.05453       22.77184
1654.50000        5.61636       11.75984       90.65487        5.76374        6.09374       22.60684
1655.00000        5.60678       11.66107       89.03508        5.80139        6.13373       22.32722
1655.50000        5.61833       12.35550       88.25903        5.76336        6.17293       21.82114
1656.00000        5.62987       12.79214       88.31159        5.78072        6.18639       21.40629
1656.50000        5.64142       12.43558       88.36718        5.86205        6.15851       21.12905
1657.00000        5.65296       11.55551       88.42277        5.75693        6.13140       20.81730
1657.50000        5.66210       10.84201       88.47836        5.63048        6.12536       20.41989
1658.00000        5.66157       10.85032       86.78902        5.58933        6.15052       19.88486
1658.50000        5.66104       11.23937       86.75993        5.64336        6.17646       19.40417
1659.00000        5.65508       11.56496       87.33265        5.69739        6.20682       19.13018
1659.50000        5.64792       11.54551       89.97087        5.72723        6.23276       19.18886
1660.00000        5.64075       11.54589       91.12725        5.74069        6.25792       19.40975
1660.50000        5.63338       11.60576       92.28060        5.75337        6.25110       19.40299
1661.00000        5.62622       12.08207       93.34928        5.76683        6.23569       19.35697
1661.50000        5.61905       12.61111       94.28793        5.77951        6.22029       19.41407
1662.00000        5.64005       13.14056       95.37475        5.77971        6.20489       19.58419
1662.50000        5.66830       13.54269       95.55736        5.72608        6.18948       19.75471
1663.00000        5.69654       13.86035       96.09379        5.67245        6.17330       19.88518
1663.50000        5.71614       13.54353       97.16549        5.68201        6.15087       19.95655
1664.00000        5.79951       12.98867       98.23719        5.94043        6.12923       20.02792
1664.50000        5.79556       12.71937       99.11535        5.74404        6.10758       20.00887
1665.00000        5.77492       12.94462      100.31710        5.54764        6.08516       19.97752
1665.50000        5.77439       13.27537      101.46743        5.35125        6.06351       20.06436
1666.00000        5.77386       12.95847      102.13390        5.38889        6.04187       20.49743
1666.50000        5.74919       13.49703      100.04234        5.48505        6.02022       20.93050
1667.00000        5.71848       13.61084       96.65645        5.48213        6.08829       21.30091
1667.50000        5.68778       13.35621       94.78263        5.33098        6.21721       21.36753
1668.00000        5.65707       12.86084       92.25559        5.17905        6.14798       21.38099
1668.50000        5.66902       12.36547       90.83540        5.25180        6.02960       21.31554
1669.00000        5.69183       12.45072       90.82748        5.38072        5.94242       21.39127
1669.50000        5.71605       12.18776       87.84682        5.39886        6.61198       21.49477
1670.00000        5.74651       12.44593       84.56375        5.25084        6.11367       21.32977
1670.50000        5.77677       12.72949       79.99685        5.28302        5.83380       21.28057
1671.00000        5.75431       12.68466       78.17444        5.46733        6.38945       21.15603
1671.50000        5.69624       11.38934       74.86113        5.67895        7.22362       20.74910
1672.00000        5.62659       10.30582       69.30692        5.72361        7.48984       20.14149
1672.50000        5.64035       10.57073       65.81215        5.70587        7.37692       18.82001
1673.00000        5.61266       11.86125       64.59458        5.75990        7.26478       18.48962
1673.50000        5.55741       12.37721       66.15922        5.43946        7.12612       18.29527
1674.00000        5.50819       12.63538       68.91537        5.11902        6.98043       18.19135
1674.50000        5.46823       12.25106       71.76226        5.40475        6.83552       18.08742
1675.00000        5.42826       11.45824       75.66154        5.71545        6.69062       17.98350
1675.50000        5.38850       12.02378       79.56083        5.51905        6.40528       18.20082
1676.00000        5.34854       13.15447       82.38049        5.32265        6.12073       18.55822
1676.50000        5.35485       13.52686       84.93101        5.45001        6.21845       18.83622
1677.00000        5.37264       13.44276       86.97044        5.65929        7.08382       18.95201
1677.50000        5.40712       13.50263       86.96252        5.76325        6.73608       18.84412
1678.00000        5.45307       14.13757       88.40620        5.44983        6.25883       18.74495
1678.50000        5.49902       14.81217       90.47746        5.13641        5.58889       18.67910
1679.00000        5.49850       14.87212       93.59349        4.88541        5.32775       18.39194
1679.50000        5.49274       14.19828       98.12180        4.87313        5.49723       17.77284
