~Version ---------------------------------------------------
VERS. 2.0 : CWLS LOG ASCII STANDARD - VERSION 2.0
WRAP. NO  : One line per depth step
DLM . SPACE : Column Data Section Delimiter
~Well ------------------------------------------------------
STRT.F          194 : START DEPTH
STOP.F       1764.0 : STOP DEPTH
STEP.F          0.5 : STEP
NULL.       -999.25 : NULL VALUE
COMP.                 WALSH & WATTS, INC. : COMPANY
WELL.                         SALMON E 42 : WELL
FLD .                        NORTH NOCONA : FIELD
CNTY.                            MONTAGUE : COUNTY
STAT.                               TEXAS : STATE
CTRY.                                 USA : COUNTRY
SEC .                                     : SECTION
TWP .                                     : TOWNSHIP
RGE .                                     : RANGE
LOC . 150' FSL & 300' W OF WELL NO. 1, 407' E OF WELL NO. 5, F. ROBERTSON SURVEY : LOCATION
EKB .F                      880 : ELEVATION KELLY BUSHING
EDF .F                          : ELEVATION DERRICK FLOOR
EGL .F                      874 : ELEVATION GROUND LEVEL
PDAT.              GROUND LEVEL : PERMANENT DATUM
EPD .                       874 : ELEVATION PERMANENT DATUM
APD .                         6 : ABOVE PERMANENT DATUM
LMF .                        KB : LOG MEASURED FROM
DMF .                        KB : DRILLING MEASURED FROM
API .            42337037780000 : API NUMBER
UWI .            42337037780000 : UWI NUMBER
DIGC.                     NthDS : DIGITIZING COMPANY
~Params ----------------------------------------------------
SRVC.                LANE WELLS : LOGGING COMPANY
LOG .                       IEL : LOG
DATE.                1965-11-21 : RUN DATE
RUN .                         1 : RUN NUMBER
TDD .F                     1766 : TOTAL DEPTH DRILLER
TDL .F                     1768 : TOTAL DEPTH LOGGER
BOTL.F                     1764 : BOTTOM LOGGED INTERVAL
TOPL.F                      200 : TOP LOGGED INTERVAL
CSGS.IN                         : CASING SIZE
CSGD.F                          : CASING DRILLER
CSGL.F                          : CASING LOGGER
BS  .IN                   7.875 : BIT SIZE
MUD .              CHEMICAL GEL : MUD TYPE
MUDD.                       9.8 : MUD DENSITY
MUDV.                       123 : MUD VISCOSITY
PH  .                           : MUD PH
FL  .                           : FLUID LOSS
MUDS.                CIRCULATED : SOURCE OF SAMPLE
RM  .OHMM                   2.1 : MUD RESISTIVITY
RMT .DEGF                    70 : RM TEMPERATURE
RMF .OHMM                  1.81 : MUD FILTRATE RESISTIVITY
RMFT.DEGF                    70 : RMF TEMPERATURE
RMC .OHMM                  2.34 : MUD CAKE RESISTIVITY
RMCT.DEGF                    70 : RMC TEMPERATURE
RMFS.                  MEASURED : RMF SOURCE
RMCS.                           : RMC SOURCE
RMBH.OHMM                   1.5 : MUD RESISTIVITY AT BHT
BHT .DEGF                    98 : BOTTOM HOLE TEMPERATURE
TIMC.                           : TIME CIRCULATION STOPPED
TIML.                           : TIME LOGGER ON BOTTOM
TMAX.DEGF                    98 : MAXIMUM RECORDED TEMPERATURE
UNIT.                    L-4553 : EQUIPMENT NUMBER
BASE.                      W.F. : BASE LOCATION
ENG .                     ADAMS : RECORDED BY
WIT .   MR. HARRELSON & MR. NIX : WITNESSED BY
~Curve Information -----------------------------------------
DEPT.F          :DEPTH
CILD.MMHO       :
ILD.OHMM        :
ROP.MIN/FT      :
SN.OHMM         :
SP.MV           :
~ASCII ------------------------------------------------------
# ...
906.50000      350.54626        2.84024        1.99572       10.84479      -92.01185
907.00000      366.43503        2.64300        1.99581       10.01964      -91.71599
907.50000      385.30295        2.56410        1.99591        9.15520      -91.71599
908.00000      412.11527        2.36686        1.99601        7.74067      -92.01185
908.50000      431.97624        2.32742        1.49015        6.75835      -93.19528
909.00000      444.88587        2.20907        1.49024        6.32613      -94.67457
909.50000      452.83026        2.20907        1.49034        6.24754      -96.74558
910.00000      453.82330        2.24852        1.49045        6.40471      -97.63315
910.50000      446.87196        2.20907        1.49055        6.67976      -96.74558
911.00000      437.93453        2.28797        1.49064        6.83693      -94.67457
911.50000      426.01794        2.36686        1.49074        6.91552      -92.60356
912.00000      409.13612        2.44576        1.49083        6.83693      -89.05327
912.50000      394.24039        2.52465        1.49093        6.87623      -86.09469
913.00000      384.30991        2.56410        1.49103        7.07269      -83.43197
913.50000      377.35857        2.60355        1.49112        7.34774      -82.54440
914.00000      370.40723        2.68245        1.49122        7.85854      -86.09469
914.50000      360.47674        2.76134        1.49133        8.44794      -90.53256
915.00000      348.56016        2.87968        1.49143        8.76228      -93.19528
915.50000      339.62272        2.87968        1.49152        8.84086      -95.26629
916.00000      336.64358        2.95858        1.73467        8.68369      -95.26629
916.50000      344.58796        2.87968        1.98486        8.17289      -94.08285
917.00000      357.49760        2.68245        1.99369        7.50491      -92.01185
917.50000      379.34466        2.64300        2.00252        6.67976      -89.94084
918.00000      401.19173        2.40631        1.66392        5.61886      -85.79883
918.50000      422.04575        2.36686        1.49211        4.16503      -80.17753
919.00000      442.89977        2.24852        1.49221        3.61493      -73.37280
919.50000      466.73294        2.13018        1.49230        3.10412      -66.27221
920.00000      484.60781        2.05128        1.49240        2.90766      -60.65091
920.50000      495.53134        2.05128        1.49249        2.86837      -60.05919
921.00000      498.51049        2.01183        1.49259        2.94695      -60.94677
921.50000      495.53134        2.01183        1.49268        2.94695      -61.53848
922.00000      492.55220        2.01183        1.50270        2.94695      -60.35505
922.50000      488.58000        2.05128        0.97700        2.90766      -57.39647
923.00000      485.60086        2.05128        0.97710        2.86837      -53.25446
923.50000      480.63561        2.09073        0.97721        2.94695      -50.59174
924.00000      479.64257        2.05128        1.48326        2.98625      -49.70417
924.50000      479.64257        2.09073        1.48335        2.98625      -50.29588
925.00000      484.60781        2.01183        1.48345        2.98625      -49.40831
925.50000      490.56610        2.05128        1.48354        2.94695      -47.63316
926.00000      495.53134        2.01183        1.60765        2.94695      -46.15387
926.50000      501.48963        2.01183        1.97976        2.86837      -45.56216
927.00000      508.44097        1.97239        1.97988        2.75049      -44.97044
927.50000      518.37146        1.93294        1.97997        2.71120      -45.26630
928.00000      528.30194        1.93294        1.64941        2.71120      -45.26630
928.50000      536.24633        1.89349        1.48830        2.67191      -45.56216
929.00000      537.23938        1.93294        1.49365        2.67191      -46.74559
929.50000      537.23938        1.89349        1.49891        2.63261      -47.63316
930.00000      534.26024        1.89349        1.50426        2.63261      -48.22488
930.50000      529.29499        1.89349        -999.25        2.63261      -48.52073
931.00000      523.33670        1.97239        -999.25        2.71120      -48.52073
931.50000      515.39231        1.93294        -999.25        2.75049      -49.11245
932.00000      505.46183        2.01183        -999.25        2.82908      -49.11245
932.50000      494.53829        2.01183        -999.25        2.90766      -48.52073
933.00000      487.58695        2.01183        -999.25        2.94695      -49.11245
933.50000      487.58695        2.05128        -999.25        2.98625      -48.22488
934.00000      490.56610        2.01183        -999.25        2.98625      -47.33730
934.50000      492.55220        2.05128        -999.25        2.90766      -47.33730
935.00000      491.55915        2.01183        -999.25        2.90766      -47.92902
935.50000      490.56610        2.05128        -999.25        2.94695      -50.00002
936.00000      490.56610        2.01183        -999.25        2.98625      -53.84618
936.50000      488.58000        2.05128        -999.25        3.02554      -57.10061
937.00000      487.58695        2.05128        -999.25        2.98625      -58.57990
937.50000      484.60781        2.09073        -999.25        2.98625      -57.98819
938.00000      480.63561        2.05128        -999.25        2.98625      -56.21304
938.50000      476.66342        2.09073        -999.25        2.94695      -54.73375
939.00000      477.65647        2.05128        -999.25        2.94695      -53.25446
939.50000      484.60781        2.05128        -999.25        2.94695      -54.73375
940.00000      495.53134        2.01183        -999.25        2.94695      -58.87576
940.50000      509.43402        1.97239        -999.25        2.90766      -61.83434
941.00000      521.35060        1.93294        -999.25        2.86837      -62.42606
941.50000      532.27414        1.89349        -999.25        2.78978      -61.83434
942.00000      538.23243        1.93294        -999.25        2.71120      -59.76334
942.50000      541.21158        1.85404        -999.25        2.63261      -57.69233
943.00000      540.21853        1.89349        -999.25        2.63261      -56.21304
943.50000      537.23938        1.89349        -999.25        2.67191      -55.02961
944.00000      530.28804        1.93294        -999.25        2.67191      -55.62132
944.50000      520.35756        1.93294        -999.25        2.75049      -56.80476
945.00000      509.43402        1.97239        -999.25        2.94695      -57.98819
945.50000      493.54525        2.05128        -999.25        3.14342      -61.83434
946.00000      481.62866        2.05128        -999.25        3.33988      -65.38464
946.50000      466.73294        2.13018        -999.25        3.33988      -68.63907
947.00000      458.78855        2.13018        -999.25        3.30059      -69.52665
947.50000      450.84416        2.20907        -999.25        3.26130      -68.93493
948.00000      441.90672        2.20907        -999.25        3.26130      -66.86393
948.50000      433.96233        2.28797        -999.25        3.26130      -63.90535
949.00000      428.99709        2.28797        -999.25        3.26130      -62.72191
949.50000      427.01099        2.28797        -999.25        3.26130      -62.42606
950.00000      429.99014        2.28797        -999.25        3.26130      -61.83434
950.50000      433.39967        2.35756        -999.25        3.30059      -61.41734
951.00000      432.40564        2.35756        -999.25        3.41847      -62.00790
951.50000      428.42949        2.39686        -999.25        3.53634      -63.18900
952.00000      414.51299        2.47544        -999.25        3.73281      -64.37010
952.50000      396.62035        2.55403        -999.25        3.96856      -65.55120
953.00000      381.70982        2.63261        -999.25        4.32220      -66.73230
953.50000      370.13924        2.67191        -999.25        4.67583      -68.50396
