~Version ---------------------------------------------------
VERS. 2.0 : CWLS LOG ASCII STANDARD - VERSION 2.0
WRAP. NO  : One line per depth step
DLM . SPACE : Column Data Section Delimiter
~Well ------------------------------------------------------
STRT.F          100 : START DEPTH
STOP.F       1786.5 : STOP DEPTH
STEP.F          0.5 : STEP
NULL.       -999.25 : NULL VALUE
COMP.                 WALSH & WATTS, INC. : COMPANY
WELL.                         SALMON E 41 : WELL
FLD .                        NORTH NOCONA : FIELD
CNTY.                            MONTAGUE : COUNTY
STAT.                               TEXAS : STATE
CTRY.                                 USA : COUNTRY
SEC .                                     : SECTION
TWP .                                     : TOWNSHIP
RGE .                                     : RANGE
LOC . 300' N OF NO. 40
150' W OF EL & 385' E OF NO. 87
F. ROBERTSON SURVEY : LOCATION
EKB .F                          : ELEVATION KELLY BUSHING
EDF .F                          : ELEVATION DERRICK FLOOR
EGL .F                      878 : ELEVATION GROUND LEVEL
PDAT.              GROUND LEVEL : PERMANENT DATUM
EPD .                       878 : ELEVATION PERMANENT DATUM
APD .                           : ABOVE PERMANENT DATUM
LMF .                        KB : LOG MEASURED FROM
DMF .                        KB : DRILLING MEASURED FROM
API .            42337037790000 : API NUMBER
UWI .            42337037790000 : UWI NUMBER
DIGC.                     NthDS : DIGITIZING COMPANY
~Params ----------------------------------------------------
SRVC.                LANE WELLS : LOGGING COMPANY
LOG .                       IEL : LOG
DATE.                1965-12-01 : RUN DATE
RUN .                         1 : RUN NUMBER
TDD .F                     1790 : TOTAL DEPTH DRILLER
TDL .F                     1791 : TOTAL DEPTH LOGGER
BOTL.F                     1787 : BOTTOM LOGGED INTERVAL
TOPL.F                      100 : TOP LOGGED INTERVAL
CSGS.IN                         : CASING SIZE
CSGD.F                          : CASING DRILLER
CSGL.F                          : CASING LOGGER
BS  .IN                       9 : BIT SIZE
MUD .                       GEL : MUD TYPE
MUDD.                        10 : MUD DENSITY
MUDV.                        80 : MUD VISCOSITY
PH  .                       9.0 : MUD PH
FL  .                       6.8 : FLUID LOSS
MUDS.                       PIT : SOURCE OF SAMPLE
RM  .OHMM                  1.95 : MUD RESISTIVITY
RMT .DEGF                    74 : RM TEMPERATURE
RMF .OHMM                   1.5 : MUD FILTRATE RESISTIVITY
RMFT.DEGF                    74 : RMF TEMPERATURE
RMC .OHMM                   2.3 : MUD CAKE RESISTIVITY
RMCT.DEGF                    74 : RMC TEMPERATURE
RMFS.                  MEASURED : RMF SOURCE
RMCS.                           : RMC SOURCE
RMBH.OHMM                   1.5 : MUD RESISTIVITY AT BHT
BHT .DEGF                    97 : BOTTOM HOLE TEMPERATURE
TIMC.                           : TIME CIRCULATION STOPPED
TIML.                           : TIME LOGGER ON BOTTOM
TMAX.DEGF                    97 : MAXIMUM RECORDED TEMPERATURE
UNIT.                    L-5172 : EQUIPMENT NUMBER
BASE.                      W.F. : BASE LOCATION
ENG .             ADAMS & BAKER : RECORDED BY
WIT .                   MR. NIX : WITNESSED BY
~Curve Information -----------------------------------------
DEPT.F          :DEPTH
CILD.MMHO       :
ILD.OHMM        :
ROP.FT/HR       :
SN.OHMM         :
SP.MV           :
~ASCII ------------------------------------------------------
# ...
432.50000      143.29895        7.36943        -999.25        9.12239      -41.97446
433.00000      143.26943        7.37062        -999.25        9.08373      -43.16501
433.50000      142.24490        7.33196        -999.25        9.16483      -44.05557
434.00000      140.22536        7.41282        -999.25        9.20585      -44.94613
434.50000      137.20491        7.53376        -999.25        9.32655      -44.93670
435.00000      134.19036        7.70745        -999.25        9.44726      -44.92728
435.50000      132.17083        7.84169        -999.25        9.60780      -44.91785
436.00000      130.15129        7.97554        -999.25        9.72850      -44.30844
436.50000      130.12177        8.13609        -999.25        9.80936      -43.99714
437.00000      130.09224        8.13727        -999.25        9.81054      -43.08773
437.50000      131.05773        8.05877        -999.25        9.61253      -42.47832
438.00000      134.01323        7.90059        -999.25        9.37491      -42.16890
438.50000      137.96373        7.74241        -999.25        9.17689      -41.85948
439.00000      142.90925        7.58424        -999.25        8.89919      -42.45004
439.50000      146.85975        7.18702        -999.25        8.58165      -43.94059
440.00000      150.80436        7.02908        -999.25        8.38364      -44.53115
440.50000      153.75985        6.87090        -999.25        8.30514      -44.82172
441.00000      155.72035        6.75256        -999.25        8.14696      -44.81230
441.50000      157.68084        6.59439        -999.25        8.06846      -44.80287
442.00000      156.65631        6.59557        -999.25        8.02980      -44.49345
442.50000      156.62678        6.63659        -999.25        8.03099      -44.48214
443.00000      154.60725        6.67761        -999.25        8.07201      -44.47272
443.50000      151.59270        6.83815        -999.25        8.19271      -44.46329
444.00000      147.58315        6.99870        -999.25        8.31365      -44.45387
444.50000      144.56861        7.15924        -999.25        8.51403      -44.14445
445.00000      140.55315        7.35986        -999.25        8.79409      -43.83503
445.50000      136.54360        7.67976        -999.25        8.99447      -43.22562
446.00000      132.53405        7.80046        -999.25        9.27454      -42.91620
446.50000      130.51451        8.08052        -999.25        9.47492      -42.60678
447.00000      127.49996        8.20122        -999.25        9.63546      -42.29736
447.50000      125.48043        8.36176        -999.25        9.59680      -41.68795
448.00000      125.45090        8.44263        -999.25        9.51854      -40.77854
448.50000      126.41639        8.44381        -999.25        9.44004      -39.56726
449.00000      129.37189        8.36555        -999.25        9.32170      -37.75787
449.50000      134.31150        8.00817        -999.25        8.96433      -35.94848
450.00000      140.99278        7.71946        -999.25        8.52622      -34.79665
450.50000      144.93544        7.43857        -999.25        8.20868      -34.18723
451.00000      147.88507        7.21386        -999.25        7.93098      -33.57782
451.50000      147.85561        7.13537        -999.25        7.77280      -33.26840
452.00000      146.83311        7.13655        -999.25        7.77399      -33.25898
452.50000      144.81758        7.29709        -999.25        7.89469      -33.24955
453.00000      142.80206        7.37795        -999.25        8.05523      -33.53824
453.50000      139.79350        7.61817        -999.25        8.21577      -33.52881
454.00000      135.79191        7.73888        -999.25        8.37631      -33.81938
454.50000      132.78336        8.05878        -999.25        8.49702      -34.10995
455.00000      130.76783        8.13964        -999.25        8.61772      -34.10053
455.50000      131.73140        8.14082        -999.25        8.73866      -34.09110
456.00000      132.69496        8.10240        -999.25        8.77968      -34.08168
456.50000      132.66550        8.06374        -999.25        8.70118      -34.07225
457.00000      131.64300        8.06492        -999.25        8.82188      -34.06283
457.50000      129.62748        8.26531        -999.25        9.14178      -34.05340
458.00000      126.61303        8.38601        -999.25        9.46169      -34.04209
458.50000      123.60447        8.66607        -999.25        9.74175      -34.03267
459.00000      119.60288        8.82661        -999.25       10.10149      -34.32324
459.50000      116.59432        9.22619        -999.25       10.46123      -34.61381
460.00000      113.58577        9.38673        -999.25       10.90089      -35.20437
460.50000      110.57721        9.66680        -999.25       11.22079      -36.09493
461.00000      109.55471        9.90725        -999.25       11.54069      -36.38550
461.50000      108.53222       10.06780        -999.25       11.74107      -36.37607
462.00000      108.50275       10.06898        -999.25       12.02113      -36.36665
462.50000      108.47329       10.07016        -999.25       12.22152      -36.95721
463.00000      108.44383       10.07134        -999.25       12.46174      -37.84777
463.50000      110.40042        9.95300        -999.25       12.62228      -39.63642
464.00000      113.35005        9.79483        -999.25       12.54378      -40.52698
464.50000      117.29271        9.67649        -999.25       12.18640      -40.81755
465.00000      122.22840        9.15975        -999.25       11.55015      -40.80813
465.50000      129.15016        8.69281        -999.25       10.71469      -40.49871
466.00000      133.09282        8.22070        -999.25        9.99875      -39.58930
466.50000      137.03548        7.87966        -999.25        9.40234      -38.37990
467.00000      142.96420        7.61072        -999.25        9.00512      -37.17050
467.50000      144.92080        7.41271        -999.25        8.68758      -35.66110
468.00000      146.87740        7.25453        -999.25        8.44973      -34.44982
468.50000      145.85490        7.25571        -999.25        8.37123      -33.84041
469.00000      144.82651        7.29673        -999.25        8.37241      -33.83098
469.50000      144.79705        7.29791        -999.25        8.33375      -33.22157
470.00000      143.77455        7.41862        -999.25        8.33517      -32.91215
470.50000      144.73812        7.34012        -999.25        8.25667      -32.90272
471.00000      144.70866        7.34154        -999.25        8.21801      -33.19329
471.50000      144.67919        7.30288        -999.25        8.21920      -33.48386
472.00000      143.65670        7.38374        -999.25        8.33990      -33.17444
472.50000      141.64117        7.46460        -999.25        8.50044      -33.46501
473.00000      137.63958        7.70482        -999.25        8.78050      -33.45370
473.50000      132.64496        7.90521        -999.25        9.18008      -34.04427
474.00000      128.64337        8.34463        -999.25        9.69918      -34.03484
474.50000      123.64875        8.54501        -999.25       10.29797      -34.02542
475.00000      120.64020        8.94459        -999.25       10.89698      -34.61598
475.50000      115.64558        9.22465        -999.25       11.29656      -35.20654
476.00000      113.63005        9.58463        -999.25       11.53679      -36.09710
476.50000      111.61453        9.62565        -999.25       11.61765      -36.68766
477.00000      112.57809        9.58699        -999.25       11.73835      -37.27823
477.50000      113.53577        9.54834        -999.25       11.77937      -37.86879
478.00000      115.49236        9.43000        -999.25       11.93991      -39.05934
478.50000      114.46987        9.43118        -999.25       12.06062      -39.94990
479.00000      113.44737        9.55188        -999.25       12.06180      -39.93859
479.50000      112.42488        9.63274        -999.25       12.10282      -39.92917
