~Version ---------------------------------------------------
VERS. 2.0 : CWLS LOG ASCII STANDARD - VERSION 2.0
WRAP. NO  : One line per depth step
DLM . SPACE : Column Data Section Delimiter
~Well ------------------------------------------------------
STRT.F          780 : START DEPTH
STOP.F       1761.5 : STOP DEPTH
STEP.F          0.5 : STEP
NULL.       -999.25 : NULL VALUE
COMP.                 WALSH & WATTS, INC. : COMPANY
WELL.                         SALMON E 42 : WELL
FLD .                        NORTH NOCONA : FIELD
CNTY.                            MONTAGUE : COUNTY
STAT.                               TEXAS : STATE
CTRY.                                 USA : COUNTRY
SEC .                                     : SECTION
TWP .                                     : TOWNSHIP
RGE .                                     : RANGE
LOC . 150' FSL & 300' W OF WELL NO. 1, 407' E OF WELL NO. 5, F. ROBERTSON SURVEY : LOCATION
EKB .F                      880 : ELEVATION KELLY BUSHING
EDF .F                          : ELEVATION DERRICK FLOOR
EGL .F                      874 : ELEVATION GROUND LEVEL
PDAT.              GROUND LEVEL : PERMANENT DATUM
EPD .                       874 : ELEVATION PERMANENT DATUM
APD .                         6 : ABOVE PERMANENT DATUM
LMF .                        KB : LOG MEASURED FROM
DMF .                        KB : DRILLING MEASURED FROM
API .            42337037780000 : API NUMBER
UWI .            42337037780000 : UWI NUMBER
DIGC.                     NthDS : DIGITIZING COMPANY
~Params ----------------------------------------------------
SRVC.                LANE WELLS : LOGGING COMPANY
LOG .                        AC : LOG
DATE.                1965-11-21 : RUN DATE
RUN .                         1 : RUN NUMBER
TDD .F                     1766 : TOTAL DEPTH DRILLER
TDL .F                     1768 : TOTAL DEPTH LOGGER
BOTL.F                     1762 : BOTTOM LOGGED INTERVAL
TOPL.F                      790 : TOP LOGGED INTERVAL
CSGS.IN                         : CASING SIZE
CSGD.F                          : CASING DRILLER
CSGL.F                          : CASING LOGGER
BS  .IN                   7.875 : BIT SIZE
MUD .              CHEMICAL GEL : MUD TYPE
MUDD.                       9.8 : MUD DENSITY
MUDV.                       123 : MUD VISCOSITY
PH  .                           : MUD PH
FL  .                           : FLUID LOSS
MUDS.                CIRCULATED : SOURCE OF SAMPLE
RM  .OHMM                   2.1 : MUD RESISTIVITY
RMT .DEGF                    70 : RM TEMPERATURE
RMF .OHMM                  1.81 : MUD FILTRATE RESISTIVITY
RMFT.DEGF                    70 : RMF TEMPERATURE
RMC .OHMM                  2.34 : MUD CAKE RESISTIVITY
RMCT.DEGF                    70 : RMC TEMPERATURE
RMFS.                  MEASURED : RMF SOURCE
RMCS.                           : RMC SOURCE
RMBH.OHMM                   1.5 : MUD RESISTIVITY AT BHT
BHT .DEGF                    98 : BOTTOM HOLE TEMPERATURE
TIMC.                           : TIME CIRCULATION STOPPED
TIML.                           : TIME LOGGER ON BOTTOM
TMAX.DEGF                    98 : MAXIMUM RECORDED TEMPERATURE
UNIT.                    L-4553 : EQUIPMENT NUMBER
BASE.                      W.F. : BASE LOCATION
ENG .                     ADAMS : RECORDED BY
WIT .   MR. HARRELSON & MR. NIX : WITNESSED BY
~Curve Information -----------------------------------------
DEPT.F          :DEPTH
CALI.IN         :
DT.US/F         :
SP.MV           :
~ASCII ------------------------------------------------------
# ...
1499.50000        8.19623      100.46468      -40.17860
1500.00000        8.21329      100.75423      -40.17860
1500.50000        8.22510      100.29167      -40.90912
1501.00000        8.24209      100.05655      -41.50200
1501.50000        8.25909       99.82143      -41.79845
1502.00000        8.26403       98.51389      -41.79845
1502.50000        8.21996       97.20635      -41.50200
1503.00000        8.20158       98.10616      -41.20556
1503.50000        8.22134       99.55953      -40.90912
1504.00000        8.24111      101.01191      -40.31623
1504.50000        8.26087       99.49108      -40.01979
1505.00000        8.28458       98.73016      -40.01979
1505.50000        8.27984       99.20635      -40.01979
1506.00000        8.25870      100.00000      -40.01979
1506.50000        8.23735       99.64286      -39.42690
1507.00000        8.22569       98.51885      -39.13046
1507.50000        8.21620       97.39385      -39.13046
1508.00000        8.20692       97.53969      -39.42690
1508.50000        8.19743       98.17659      -39.72335
1509.00000        8.18794       96.39881      -40.01979
1509.50000        8.17668       94.62104      -40.90912
1510.00000        8.16739       95.74008      -41.79845
1510.50000        8.15790       97.63889      -41.79845
1511.00000        8.13597       98.39981      -42.09489
1511.50000        8.10553       97.78274      -42.09489
1512.00000        8.07510       99.00100      -42.39133
1512.50000        8.07707      100.21826      -42.68777
1513.00000        8.07905       98.43254      -42.09489
1513.50000        8.08083       98.68056      -41.79845
1514.00000        8.08320       99.84127      -41.79845
1514.50000        8.08518      101.23016      -41.50200
1515.00000        8.08715      100.86310      -40.90912
1515.50000        8.08913      100.36112      -40.31623
1516.00000        8.09091      101.07838      -40.01979
1516.50000        8.09288      101.15477      -39.72335
1517.00000        8.09486      100.09723      -40.01979
1517.50000        8.08537      101.16072      -40.61267
1518.00000        8.07609      102.32540      -41.79845
1518.50000        8.06482      101.94743      -42.68777
1519.00000        8.05534      101.56945      -42.98422
1519.50000        8.04308      101.19147      -42.98422
1520.00000        8.03063      100.81350      -42.98422
1520.50000        8.01838      102.13592      -42.68777
1521.00000        8.00593      103.72322      -42.09489
1521.50000        8.00178      103.19445      -41.79845
1522.00000        8.02984      102.20239      -41.20556
1522.50000        8.05810      101.21032      -40.90912
1523.00000        8.07767      100.21826      -40.90912
1523.50000        8.08182      100.46627      -41.50200
1524.00000        8.08597      100.70735      -41.79845
1524.50000        8.09032       99.67957      -42.09489
1525.00000        8.09447       98.65179      -42.39133
1525.50000        8.09862       99.30060      -42.39133
1526.00000        8.10277       99.09425      -42.39133
1526.50000        8.10711       98.30854      -42.09489
1527.00000        8.11126       97.79366      -41.79845
1527.50000        8.10988       97.68254      -41.79845
1528.00000        8.09842       98.41965      -41.50200
1528.50000        8.08676       99.72223      -41.50200
1529.00000        8.07510       98.56449      -40.61267
1529.50000        8.06344       97.17560      -40.31623
1530.00000        8.05178       97.41766      -40.61267
1530.50000        8.04032       98.00893      -40.01979
1531.00000        8.04802       98.60020      -39.72335
1531.50000        8.06877       99.19147      -39.13046
1532.00000        8.09387       99.78374      -38.83402
1532.50000        8.11462      100.76389      -38.83402
1533.00000        8.11285      102.00397      -39.13046
1533.50000        8.11107      102.00397      -40.01979
1534.00000        8.10929       99.52381      -41.50200
1534.50000        8.10751       99.61409      -42.09489
1535.00000        8.10573      101.41766      -42.39133
1535.50000        8.10395      101.80556      -42.09489
1536.00000        8.10237      101.40873      -41.79845
1536.50000        8.10020      101.90477      -41.20556
1537.00000        8.09842      102.30159      -41.50200
1537.50000        8.09664      101.87203      -41.79845
1538.00000        8.09486      100.58235      -42.39133
1538.50000        8.09941       99.79167      -42.09489
1539.00000        8.10395      100.13889      -41.79845
1539.50000        8.10850      100.22818      -40.90912
1540.00000        8.11304       99.28572      -40.01979
1540.50000        8.11759       98.78969      -39.72335
1541.00000        8.12312      100.07937      -39.42690
1541.50000        8.12767      100.95735      -39.42690
1542.00000        8.13221      100.03770      -39.42690
1542.50000        8.13676       99.41270      -39.42690
1543.00000        8.14130       99.35318      -39.13046
1543.50000        8.14585       99.29366      -38.24113
1544.00000        8.15059       99.23413      -37.35181
1544.50000        8.14308       99.17461      -37.35181
1545.00000        8.08775       99.33830      -37.64825
1545.50000        8.02134      100.39683      -37.35181
1546.00000        7.96601      101.66667      -37.05536
1546.50000        7.91067      102.02084      -36.16604
1547.00000        7.89723      101.31747      -36.16604
1547.50000        7.94664      100.61508      -37.05536
1548.00000        7.99605       99.23711      -37.94469
1548.50000        8.02866       98.32243      -39.13046
1549.00000        7.99368       99.25893      -39.72335
1549.50000        7.95889       99.51290      -40.01979
1550.00000        7.92391       98.74108      -40.01979
1550.50000        7.96416       99.08259      -39.50498
1551.00000        8.00733       99.80100      -39.20795
1551.50000        8.05069       98.68160      -39.50498
1552.00000        8.04158       98.46767      -40.09904
1552.50000        8.01921       99.61195      -40.99013
1553.00000        7.99683       99.95722      -40.99013
1553.50000        7.96990       99.10448      -40.99013
1554.00000        7.94752      100.89553      -40.99013
1554.50000        7.92535       99.90050      -41.88121
1555.00000        7.95386       98.28359      -42.77230
1555.50000        7.99505       96.04478      -43.66339
1556.00000        8.03624       92.87364      -45.74260
1556.50000        8.08574       91.44279      -50.71191
1557.00000        8.09723       88.70647      -55.43765
1557.50000        7.98911       87.52239      -58.96042
1558.00000        7.88119       91.17712      -62.37626
1558.50000        7.77327       93.56816      -66.83170
1559.00000        7.66515       89.27165      -71.28715
1559.50000        7.65346       84.97513      -72.77230
1560.00000        7.66337       87.50249      -71.13863
1560.50000        7.69168       93.82090      -69.50497
1561.00000        7.75485       97.01493      -57.62378
1561.50000        7.84158       97.03483      -48.71290
1562.00000        7.97109       98.57712      -43.96042
1562.50000        8.10059       99.85075      -41.58418
1563.00000        8.17129      100.72140      -39.20795
1563.50000        8.15960      100.01095      -38.01983
1564.00000        8.14792       98.90548      -36.53468
1564.50000        8.13406      100.62190      -35.64359
1565.00000        8.11129      100.44777      -35.04953
1565.50000        8.08832      100.29851      -34.75250
1566.00000        8.08515      100.89553      -34.45547
1566.50000        8.09247      100.05573      -35.04953
1567.00000        8.10000       99.00498      -36.23765
1567.50000        8.10733       98.75622      -38.01983
1568.00000        8.11485       99.43583      -39.80201
1568.50000        8.12218      100.81792      -40.99013
1569.00000        8.13129       99.82090      -41.88121
1569.50000        8.13861      100.51941      -42.47527
1570.00000        8.08198      101.79105      -42.47527
1570.50000        8.02554       99.19304      -42.47527
