~Version ---------------------------------------------------
VERS. 2.0 : CWLS LOG ASCII STANDARD - VERSION 2.0
WRAP. NO  : One line per depth step
DLM . SPACE : Column Data Section Delimiter
~Well ------------------------------------------------------
STRT.F          800 : START DEPTH
STOP.F       1756.5 : STOP DEPTH
STEP.F          0.5 : STEP
NULL.       -999.25 : NULL VALUE
COMP.                 WALSH & WATTS, INC. : COMPANY
WELL.                       SALMON D E 6D : WELL
FLD .                             REGULAR : FIELD
CNTY.                            MONTAGUE : COUNTY
STAT.                               TEXAS : STATE
CTRY.                                 USA : COUNTRY
SEC .                                     : SECTION
TWP .                                     : TOWNSHIP
RGE .                                     : RANGE
LOC .  460 FSL 755 FEL
F. ROBERTSON A-620 : LOCATION
EKB .F                      880 : ELEVATION KELLY BUSHING
EDF .F                      878 : ELEVATION DERRICK FLOOR
EGL .F                      874 : ELEVATION GROUND LEVEL
PDAT.                        GL : PERMANENT DATUM
EPD .                       874 : ELEVATION PERMANENT DATUM
APD .                           : ABOVE PERMANENT DATUM
LMF .                        KB : LOG MEASURED FROM
DMF .                        KB : DRILLING MEASURED FROM
API .            42337016430000 : API NUMBER
UWI .            42337016430000 : UWI NUMBER
DIGC.                     NthDS : DIGITIZING COMPANY
~Params ----------------------------------------------------
SRVC.              SCHLUMBERGER : LOGGING COMPANY
LOG .                   CNFD/ML : LOG
DATE.                2005-08-03 : RUN DATE
RUN .                         1 : RUN NUMBER
TDD .F                     1750 : TOTAL DEPTH DRILLER
TDL .F                     1750 : TOTAL DEPTH LOGGER
BOTL.F                     1750 : BOTTOM LOGGED INTERVAL
TOPL.F                      980 : TOP LOGGED INTERVAL
CSGS.IN                       7 : CASING SIZE
CSGD.F                      880 : CASING DRILLER
CSGL.F                      880 : CASING LOGGER
BS  .IN                     6.5 : BIT SIZE
MUD .                       FGM : MUD TYPE
MUDD.                       0.2 : MUD DENSITY
MUDV.                        80 : MUD VISCOSITY
PH  .                        11 : MUD PH
FL  .                         7 : FLUID LOSS
MUDS.                       PIT : SOURCE OF SAMPLE
RM  .OHMM                  1.70 : MUD RESISTIVITY
RMT .DEGF                    70 : RM TEMPERATURE
RMF .OHMM                  1.33 : MUD FILTRATE RESISTIVITY
RMFT.DEGF                    70 : RMF TEMPERATURE
RMC .OHMM                  2.67 : MUD CAKE RESISTIVITY
RMCT.DEGF                    70 : RMC TEMPERATURE
RMFS.                      MEAS : RMF SOURCE
RMCS.                       CAL : RMC SOURCE
RMBH.OHMM                  1.47 : MUD RESISTIVITY AT BHT
BHT .DEGF                    98 : BOTTOM HOLE TEMPERATURE
TIMC.                     2100  : TIME CIRCULATION STOPPED
TIML.                     0300  : TIME LOGGER ON BOTTOM
TMAX.DEGF                    98 : MAXIMUM RECORDED TEMPERATURE
UNIT.                       303 : EQUIPMENT NUMBER
BASE.                   WICHITA : BASE LOCATION
ENG .              DAVID PARKER : RECORDED BY
WIT .              MR. BURLESON : WITNESSED BY
~Curve Information -----------------------------------------
DEPT.F          :DEPTH
CALD.IN         :
DPHI.%          :
GRD.GAPI        :
MINV.OHMM       :
MNOR.OHMM       :
NPHI.%          :
~ASCII ------------------------------------------------------
# ...
1280.00000        6.11693       11.84782       73.00401        7.38297        6.73468       19.97528
1280.50000        6.11693       12.31087       73.18547        7.38297        6.87588       19.91747
1281.00000        6.06653       12.92840       72.45966        7.38297        6.77836       20.05956
1281.50000        6.00363       12.89204       73.66934        7.13333        6.25957       20.03540
1282.00000        5.94052       12.38273       73.94151        6.82127        6.29077       19.96967
1282.50000        5.90323       12.08678       72.03627        6.72453        6.56928       19.98787
1283.00000        5.88306       12.44275       70.80845        6.68085        7.18248       20.00646
1283.50000        5.86290       13.23335       70.80543        6.29077        7.01865       20.01040
1284.00000        5.83468       13.74737       72.50502        6.05673        5.97872       20.13745
1284.50000        5.82802       13.69243       73.05543        6.05673        5.34602       20.48618
1285.00000        5.81855       13.45851       73.33668        5.93971        5.32574       20.66470
1285.50000        5.79839       13.17323       75.60482        5.74468        5.30546       20.84083
1286.00000        5.75847       12.83223       74.99998        5.82269        5.28517       21.22440
1286.50000        5.71371       12.47702       74.39514        5.90070        5.38425       21.60836
1287.00000        5.79718       12.79348       77.41934        5.97872        5.56446       21.99232
1287.50000        5.81169       13.36677       79.83869        6.75886        5.74468       22.14550
1288.00000        5.86835       13.67928       81.35079        6.13475        5.54964       22.11738
1288.50000        5.89314       13.53347       82.86288        6.05673        5.57304       21.84818
1289.00000        5.88972       13.28691       84.37498        5.97872        5.51063       21.51882
1289.50000        5.88649       13.04034       84.11187        6.07624        5.46382       21.40598
1290.00000        5.88306       12.88861       85.81147        6.17375        5.61985       21.07266
1290.50000        5.87964       12.73727       86.94554        6.14255        5.70177       20.68035
1291.00000        5.87641       12.41919       86.79433        6.02553        5.48957       20.63798
1291.50000        5.87500       11.85180       85.28224        6.02241        5.27659       20.59601
1292.00000        5.87500       11.12597       83.77014        6.09574        5.53638       20.57105
1292.50000        5.87500       11.42268       84.41732        6.16907        5.72127       20.64150
1293.00000        5.87500       11.97621       82.93849        6.15737        5.60425       20.75905
1293.50000        5.87500       13.02757       81.14817        6.01772        5.48489       20.87621
1294.00000        5.87500       13.47838       79.53627        5.87808        5.35460       20.99376
1294.50000        5.87500       13.04414       78.36893        5.83517        5.35460       21.16673
1295.00000        5.87500       12.55063       80.09877        5.85546        5.35460       21.50636
1295.50000        5.87500       13.09428       81.03022        5.87574        5.35460       21.61995
1296.00000        5.87500       13.96706       82.25804        5.89680        5.47163       21.60331
1296.50000        5.87500       14.46804       82.25804        6.02553        5.58865       21.44970
1297.00000        5.87500       14.41587       82.62095        6.36879        5.80163       21.32143
1297.50000        5.87500       13.82991       82.86288        6.51155        6.01382       21.29331
1298.00000        5.87500       13.00728       81.42639        6.28453        5.71035       21.49161
1298.50000        5.87500       12.84962       82.13708        6.05673        5.27659       21.61312
1299.00000        5.84617       13.07007       83.49796        6.05673        5.27659       21.39460
1299.50000        5.82722       13.40353       82.40925        6.25723        5.27659       20.93302
1300.00000        5.81452       13.18224       81.10885        6.52482        5.71347       20.45096
1300.50000        5.77923       13.40606       81.35079        6.47255        5.12056       20.15417
1301.00000        5.78185       13.12961       82.56046        6.49127        5.25085       20.48342
1301.50000        5.79435       12.86897       84.07256        6.60283        5.38035       20.26588
1302.00000        5.80706       12.98008       84.45058        6.71439        5.54964       20.06220
1302.50000        5.81956       12.79854       82.19756        6.82907        5.74468       19.87992
1303.00000        5.83226       12.99666       77.58567        6.94609        6.19014       19.69725
1303.50000        5.84476       13.84337       72.49897        7.51326        6.80333       19.63859
1304.00000        5.85746       15.75273       68.54333        8.37999        7.41652       19.55418
1304.50000        5.86996       17.46672       65.34071        8.81297        8.39716       19.38458
1305.00000        5.86492       17.77043       62.13809        9.13829        8.63120       18.51326
1305.50000        5.84819       17.21042       59.30442        8.94326        8.04609       17.89949
1306.00000        5.83004       12.99894       57.94353        6.88914        6.68085       16.42987
1306.50000        5.80685       12.42587       57.82257        6.70659        5.97872       15.93893
1307.00000        5.78347       13.26071       62.80946        6.75028        5.77432       15.84033
1307.50000        5.76028       13.96900       68.39212        6.49907        5.65496       15.72858
1308.00000        5.73689       13.79149       73.97780        6.36879        5.53482       15.88468
1308.50000        5.71774       12.99300       79.83869        6.36879        5.76028       16.16242
1309.00000        5.73790       13.18321       83.79131        6.36879        5.68929       16.85223
1309.50000        5.75806       13.18359       85.41228        6.19794        5.55744       17.64506
1310.00000        5.77823       13.54584       87.03324        6.02787        5.47943       18.99261
1310.50000        5.79435       13.41096       88.30643        5.82269        5.56602       20.71657
1311.00000        5.79435       13.50388       88.60885        6.12616        5.72907       21.60846
1311.50000        5.76754       13.87325       87.64111        6.31340        5.65106       22.18733
1312.00000        5.73387       14.26910       84.73788        6.03411        5.62765       22.40167
1312.50000        5.71371       13.87401       83.34675        6.10900        5.82269       22.63979
1313.00000        5.71371       12.99444       81.86792        6.27127        6.01772       22.37866
1313.50000        5.69859       12.03974       80.24998        6.32198        5.70021       22.13695
1314.00000        5.67339       11.86611       78.62901        6.20496        5.49971       21.82874
1314.50000        5.67843       11.81903       76.81450        6.08794        5.66666       21.44478
1315.00000        5.68347       11.74031       74.99998        5.97092        5.58007       21.08143
1315.50000        5.68851       11.87911       75.15119        5.98964        5.49347       20.68241
1316.00000        5.69355       12.43989       75.84676        6.21276        5.40687       20.59127
1316.50000        5.72722       13.29687       76.51208        6.43588        5.35460       20.50012
1317.00000        5.76754       13.99607       77.51913        6.54978        5.35460       20.27742
1317.50000        5.80101       14.43938       77.68849        6.59035        5.35460       19.96637
1318.00000        5.85484       14.02340       79.23385        6.63170        5.41312       19.65532
1318.50000        5.88790       14.12581       79.23385        6.67226        5.55978       19.63311
1319.00000        5.86956       14.14003       79.23385        6.60283        5.51063       19.85617
1319.50000        5.84718       14.69408       78.62901        6.50531        5.44354       20.07963
