~Version ---------------------------------------------------
VERS. 2.0 : CWLS LOG ASCII STANDARD - VERSION 2.0
WRAP. NO  : One line per depth step
DLM . SPACE : Column Data Section Delimiter
~Well ------------------------------------------------------
STRT.F          500 : START DEPTH
STOP.F       2022.5 : STOP DEPTH
STEP.F          0.5 : STEP
NULL.       -999.25 : NULL VALUE
COMP.                 WALSH & WATTS, INC. : COMPANY
WELL.                          HYNDS A 10 : WELL
FLD .                           N. NOCONA : FIELD
CNTY.                            MONTAGUE : COUNTY
STAT.                               TEXAS : STATE
CTRY.                                 USA : COUNTRY
SEC .                                     : SECTION
TWP .                                     : TOWNSHIP
RGE .                                     : RANGE
LOC .  244' SE OF NO. 5A J.J. WALL SURVEY : LOCATION
EKB .F                    903.5 : ELEVATION KELLY BUSHING
EDF .F                          : ELEVATION DERRICK FLOOR
EGL .F                      897 : ELEVATION GROUND LEVEL
PDAT.                        GL : PERMANENT DATUM
EPD .                           : ELEVATION PERMANENT DATUM
APD .                         6 : ABOVE PERMANENT DATUM
LMF .                           : LOG MEASURED FROM
DMF .                           : DRILLING MEASURED FROM
API .            42337037830000 : API NUMBER
UWI .            42337037830000 : UWI NUMBER
DIGC.                     NthDS : DIGITIZING COMPANY
~Params ----------------------------------------------------
SRVC.                LANE WELLS : LOGGING COMPANY
LOG .                       GRN : LOG
DATE.                1957-11-30 : RUN DATE
RUN .                         1 : RUN NUMBER
TDD .F                     2039 : TOTAL DEPTH DRILLER
TDL .F                     2015 : TOTAL DEPTH LOGGER
BOTL.F                     2023 : BOTTOM LOGGED INTERVAL
TOPL.F                      500 : TOP LOGGED INTERVAL
CSGS.IN                     5.5 : CASING SIZE
CSGD.F                     2038 : CASING DRILLER
CSGL.F                          : CASING LOGGER
BS  .IN                    8.75 : BIT SIZE
MUD .                     WATER : MUD TYPE
MUDD.                           : MUD DENSITY
MUDV.                           : MUD VISCOSITY
PH  .                           : MUD PH
FL  .                           : FLUID LOSS
MUDS.                           : SOURCE OF SAMPLE
RM  .OHMM                       : MUD RESISTIVITY
RMT .DEGF                       : RM TEMPERATURE
RMF .OHMM                       : MUD FILTRATE RESISTIVITY
RMFT.DEGF                       : RMF TEMPERATURE
RMC .OHMM                       : MUD CAKE RESISTIVITY
RMCT.DEGF                       : RMC TEMPERATURE
RMFS.                           : RMF SOURCE
RMCS.                           : RMC SOURCE
RMBH.OHMM                       : MUD RESISTIVITY AT BHT
BHT .DEGF                       : BOTTOM HOLE TEMPERATURE
TIMC.                           : TIME CIRCULATION STOPPED
TIML.                           : TIME LOGGER ON BOTTOM
TMAX.DEGF                       : MAXIMUM RECORDED TEMPERATURE
UNIT.                           : EQUIPMENT NUMBER
BASE.                           : BASE LOCATION
ENG .                   ROBERTS : RECORDED BY
WIT .                       NIX : WITNESSED BY
~Curve Information -----------------------------------------
DEPT.F          :DEPTH
GRN.GAPI        :
NEUT.API        :
~ASCII ------------------------------------------------------
# ...
1196.00000       18.79747     2341.15514
1196.50000       22.41496     2294.22374
1197.00000       26.69809     2245.48728
1197.50000       30.02807     2216.96743
1198.00000       33.35804     2245.93855
1198.50000       29.49093     2355.59557
1199.00000       24.84262     2469.31397
1199.50000       17.70064     2534.29591
1200.00000       14.04083     2504.33202
1200.50000       14.17009     2426.69673
1201.00000       13.80568     2356.10850
1201.50000       13.20347     2298.18996
1202.00000       13.43581     2272.85059
1202.50000       14.13920     2270.87774
1203.00000       14.84351     2238.78725
1203.50000       15.68813     2214.33476
1204.00000       15.40780     2356.10850
1204.50000       15.66274     2426.69673
1205.00000       16.21605     2413.82795
1205.50000       15.60028     2379.63791
1206.00000       14.56769     2419.85510
1206.50000       14.93023     2457.06777
1207.00000       15.29276     2504.52478
1207.50000       14.77735     2513.88224
1208.00000       14.33609     2559.87319
1208.50000       14.24038     2597.73743
1209.00000       13.90581     2557.01346
1209.50000       14.63633     2516.28948
1210.00000       15.36776     2555.60169
1210.50000       15.38942     2614.93200
1211.00000       14.93821     2627.00440
1211.50000       15.30074     2591.20350
1212.00000       15.32421     2513.77364
1212.50000       14.75998     2427.22162
1213.00000       15.33589     2391.51121
1213.50000       16.02771     2416.63338
1214.00000       15.71212     2423.07682
1214.50000       15.03487     2372.39809
1215.00000       14.62887     2327.14923
1215.50000       14.85578     2336.19900
1216.00000       16.27708     2360.45239
1216.50000       17.28066     2377.82796
1217.00000       17.97773     2385.06777
1217.50000       16.75798     2368.18090
1218.00000       17.33751     2347.05873
1218.50000       18.53204     2334.02706
1219.00000       18.49674     2334.13565
1219.50000       17.12329     2319.90941
1220.00000       17.35020     2328.27140
1220.50000       18.43605     2315.83701
1221.00000       18.89804     2314.47955
1221.50000       19.69186     2318.09946
1222.00000       20.65384     2305.06778
1222.50000       20.70896     2316.28950
1223.00000       22.22899     2285.52027
1223.50000       22.68193     2253.84607
1224.00000       24.29220     2251.13114
1224.50000       27.95490     2207.69223
1225.00000       31.72882     2155.20355
1225.50000       35.09044     2142.53387
1226.00000       36.04972     2151.58364
1226.50000       37.11766     2178.73296
1227.00000       36.84728     2220.36191
1227.50000       34.13568     2228.50671
1228.00000       31.77308     2281.90037
1228.50000       28.95388     2366.96823
1229.00000       26.13468     2404.97727
1229.50000       25.14279     2397.73746
1230.00000       29.64907     2327.14923
1230.50000       32.15174     2249.32118
1231.00000       32.96635     2176.01802
1231.50000       32.60556     2126.60627
1232.00000       30.65995     2158.82346
1232.50000       28.77293     2229.41168
1233.00000       26.88592     2285.52027
1233.50000       24.96907     2332.97728
1234.00000       23.83974     2379.23972
1234.50000       25.33247     2401.35737
1235.00000       27.88758     2359.72841
1235.50000       30.77090     2276.47050
1236.00000       31.16689     2198.04517
1236.50000       30.68855     2187.61983
1237.00000       32.15433     2229.57458
1237.50000       32.85140     2242.08137
1238.00000       33.52134     2202.71485
1238.50000       35.33053     2158.22617
1239.00000       36.41638     2127.14925
1239.50000       36.16409     2149.77368
1240.00000       36.41812     2132.03613
1240.50000       36.32857     2135.29405
1241.00000       35.12601     2168.88680
1241.50000       33.45797     2204.07232
1242.00000       32.80513     2236.65150
1242.50000       32.17309     2263.80082
1243.00000       28.94883     2327.14923
1243.50000       27.69021     2394.11755
1244.00000       25.90356     2455.65600
1244.50000       20.76158     2526.24423
1245.00000       15.66752     2593.21255
1245.50000       11.04724     2657.91842
1246.00000        7.33293     2705.42973
1246.50000        6.59239     2695.78267
1247.00000        7.58783     2662.58811
1247.50000        7.33011     2654.75100
1248.00000        7.82464     2683.85507
1248.50000        8.16909     2726.31661
1249.00000        8.04338     2768.77814
1249.50000        8.69993     2757.91841
1250.00000        9.94590     2800.50664
1250.50000        9.63032     2852.18791
1251.00000        8.50099     2894.73764
1251.50000        7.68811     2930.37959
1252.00000        7.70435     2955.69604
1252.50000        8.64645     2924.50255
1253.00000        9.58945     2860.09026
1253.50000        8.98724     2854.43023
1254.00000        9.04869     2836.34705
1254.50000        8.16800     2862.45916
1255.00000        8.59835     2880.47001
1255.50000        8.46359     2875.22589
1256.00000        7.78634     2896.61829
1256.50000        7.38034     2898.73402
1257.00000        7.52949     2874.32173
1257.50000        8.24102     2834.53873
1258.00000        7.73556     2834.73765
1258.50000        7.86861     2862.45916
1259.00000        8.67328     2877.93836
1259.50000        8.78716     2880.65084
1260.00000        9.02311     2852.62191
1260.50000        8.80427     2834.53873
1261.00000       10.23642     2856.23855
1261.50000       11.74452     2892.40491
1262.00000       12.40813     2933.47181
1262.50000       11.72184     2968.35427
1263.00000       11.66394     2941.22950
1263.50000       10.64763     2969.36693
1264.00000       10.47852     2980.41575
1264.50000       10.87540     2918.44469
1265.00000       10.74065     2902.35066
1265.50000       10.06340     2961.12099
1266.00000        9.21074     3018.98717
1266.50000        8.69805     3098.55317
1267.00000        9.54611     3148.15533
1267.50000        9.25313     3133.94195
1268.00000        9.07317     3150.39765
1268.50000        9.21616     3150.99439
1269.00000        9.31016     3170.88589
1269.50000        9.79927     3177.03417
1270.00000        8.76668     3243.21861
1270.50000        8.28654     3322.78461
1271.00000        8.98813     3387.16073
1271.50000        9.89316     3424.05042
1272.00000        9.18336     3397.82981
1272.50000        8.38766     3371.60920
1273.00000        8.83699     3357.73940
1273.50000        9.35413     3381.86236
1274.00000        8.85771     3420.43378
1274.50000        8.57829     3468.66163
1275.00000        8.90466     3425.85874
1275.50000        8.36303     3358.04681
1276.00000        8.13786     3301.08479
1276.50000        8.64415     3243.21861
1277.00000        9.22006     3190.77739
1277.50000        9.41261     3169.07757
1278.00000        8.76791     3155.51519
1278.50000        7.64509     3150.99439
1279.00000        8.29604     3169.07757
1279.50000        9.28696     3135.49711
1280.00000       10.27879     3116.63635
1280.50000       11.26971     3161.84430
1281.00000       12.26063     3212.47721
1281.50000       11.69640     3273.96002
1282.00000       11.50287     3331.82620
1282.50000       11.48566     3389.09563
1283.00000       10.89882     3409.58387
1283.50000       11.05973     3372.82077
1284.00000       12.22063     3339.05947
1284.50000       12.10576     3357.14265
1285.00000       10.80103     3342.67611
1285.50000       10.98454     3264.91843
1286.00000       11.27474     3190.77739
1286.50000       11.27560     3113.01971
1287.00000       12.51245     3040.68699
1287.50000       15.52705     2955.69604
1288.00000       17.47186     2874.32173
1288.50000       19.41666     2800.18069
1289.00000       19.19149     2740.50619
1289.50000       20.07753     2664.55683
1290.00000       20.59467     2588.60747
1290.50000       20.73749     2518.08307
1291.00000       21.77181     2452.98362
1291.50000       21.71843     2369.80099
1292.00000       23.59995     2283.00172
1292.50000       26.23101     2203.43573
1293.00000       28.10439     2134.71964
1293.50000       28.52478     2056.96196
