~Version ---------------------------------------------------
VERS. 2.0 : CWLS LOG ASCII STANDARD - VERSION 2.0
WRAP. NO  : One line per depth step
DLM . SPACE : Column Data Section Delimiter
~Well ------------------------------------------------------
STRT.F          800 : START DEPTH
STOP.F       1756.5 : STOP DEPTH
STEP.F          0.5 : STEP
NULL.       -999.25 : NULL VALUE
COMP.                 WALSH & WATTS, INC. : COMPANY
WELL.                       SALMON D E 6D : WELL
FLD .                             REGULAR : FIELD
CNTY.                            MONTAGUE : COUNTY
STAT.                               TEXAS : STATE
CTRY.                                 USA : COUNTRY
SEC .                                     : SECTION
TWP .                                     : TOWNSHIP
RGE .                                     : RANGE
LOC .  460 FSL 755 FEL
F. ROBERTSON A-620 : LOCATION
EKB .F                      880 : ELEVATION KELLY BUSHING
EDF .F                      878 : ELEVATION DERRICK FLOOR
EGL .F                      874 : ELEVATION GROUND LEVEL
PDAT.                        GL : PERMANENT DATUM
EPD .                       874 : ELEVATION PERMANENT DATUM
APD .                           : ABOVE PERMANENT DATUM
LMF .                        KB : LOG MEASURED FROM
DMF .                        KB : DRILLING MEASURED FROM
API .            42337016430000 : API NUMBER
UWI .            42337016430000 : UWI NUMBER
DIGC.                     NthDS : DIGITIZING COMPANY
~Params ----------------------------------------------------
SRVC.              SCHLUMBERGER : LOGGING COMPANY
LOG .                   CNFD/ML : LOG
DATE.                2005-08-03 : RUN DATE
RUN .                         1 : RUN NUMBER
TDD .F                     1750 : TOTAL DEPTH DRILLER
TDL .F                     1750 : TOTAL DEPTH LOGGER
BOTL.F                     1750 : BOTTOM LOGGED INTERVAL
TOPL.F                      980 : TOP LOGGED INTERVAL
CSGS.IN                       7 : CASING SIZE
CSGD.F                      880 : CASING DRILLER
CSGL.F                      880 : CASING LOGGER
BS  .IN                     6.5 : BIT SIZE
MUD .                       FGM : MUD TYPE
MUDD.                       0.2 : MUD DENSITY
MUDV.                        80 : MUD VISCOSITY
PH  .                        11 : MUD PH
FL  .                         7 : FLUID LOSS
MUDS.                       PIT : SOURCE OF SAMPLE
RM  .OHMM                  1.70 : MUD RESISTIVITY
RMT .DEGF                    70 : RM TEMPERATURE
RMF .OHMM                  1.33 : MUD FILTRATE RESISTIVITY
RMFT.DEGF                    70 : RMF TEMPERATURE
RMC .OHMM                  2.67 : MUD CAKE RESISTIVITY
RMCT.DEGF                    70 : RMC TEMPERATURE
RMFS.                      MEAS : RMF SOURCE
RMCS.                       CAL : RMC SOURCE
RMBH.OHMM                  1.47 : MUD RESISTIVITY AT BHT
BHT .DEGF                    98 : BOTTOM HOLE TEMPERATURE
TIMC.                     2100  : TIME CIRCULATION STOPPED
TIML.                     0300  : TIME LOGGER ON BOTTOM
TMAX.DEGF                    98 : MAXIMUM RECORDED TEMPERATURE
UNIT.                       303 : EQUIPMENT NUMBER
BASE.                   WICHITA : BASE LOCATION
ENG .              DAVID PARKER : RECORDED BY
WIT .              MR. BURLESON : WITNESSED BY
~Curve Information -----------------------------------------
DEPT.F          :DEPTH
CALD.IN         :
DPHI.%          :
GRD.GAPI        :
MINV.OHMM       :
MNOR.OHMM       :
NPHI.%          :
~ASCII ------------------------------------------------------
# ...
1440.00000        6.10927       13.22257       91.55139        6.19014        5.72517       21.92319
1440.50000        6.13044       13.30205       91.41228        6.07233        5.73375       21.72583
1441.00000        6.15141       12.27418       90.32357        6.15035        5.81723       21.52847
1441.50000        6.17238       12.30620       88.40623        6.22836        5.90070       21.35761
1442.00000        6.19335       12.21047       89.58566        6.30638        5.82269       21.60042
1442.50000        6.19758       12.76294       91.21570        6.35553        5.74468       21.87961
1443.00000        6.14919       13.37869       92.84272        6.29077        5.91787       22.00140
1443.50000        6.08871       13.91336       92.35885        6.44680        6.00212       22.12359
1444.00000        6.03629       13.54199       92.66127        6.14333        5.72907       22.67764
1444.50000        5.98589       12.27684       91.35179        5.90616        5.52233       22.55463
1445.00000        5.95020       11.88174       88.43647        5.93191        5.58241       22.57953
1445.50000        5.93689       11.89003       85.52115        5.95765        5.64248       22.32285
1446.00000        5.92339       12.06442       82.33365        5.96702        5.66666       21.67464
1446.50000        5.91794       12.57702       78.74393        5.90929        5.66666       20.92242
1447.00000        5.92480       13.09864       76.81450        5.85155        5.64638       20.28055
1447.50000        5.93145       13.09981       74.95462        5.79382        5.54340       19.47692
1448.00000        5.93810       12.47731       72.85885        5.73609        5.44120       18.88408
1448.50000        5.94496       12.34599       70.76611        5.67836        5.33822       18.56807
1449.00000        5.95161       12.58801       73.48789        5.63858        5.28361       18.32563
1449.50000        5.95323       12.66314       76.20966        5.60269        5.30155       18.09979
1450.00000        5.94738       12.27263       77.11692        5.63233        5.31950       18.18629
1450.50000        5.90000       11.91392       77.87296        5.64248        5.26255       18.60153
1451.00000        5.90665       11.80870       78.42639        5.71581        5.28127       18.95751
1451.50000        5.96431       11.96728       78.66228        5.82269        5.30624       19.27555
1452.00000        5.97581       12.75861       78.32659        5.74468        5.33042       19.54935
1452.50000        5.97581       12.73408       80.44353        5.66666        5.35460       19.79232
1453.00000        5.97581       12.89779       78.06651        5.66666        5.29453       19.91123
1453.50000        5.97661       13.40241       76.93546        5.65496        5.23446       19.98194
1454.00000        5.97823       14.18386       75.34172        5.62453        5.20716       19.85865
1454.50000        5.98004       14.18424       72.88305        5.59489        5.22744       19.55954
1455.00000        5.98185       13.70451       72.91329        5.58865        5.24772       19.14269
1455.50000        5.98367       13.51268       70.04031        5.58865        5.26801       19.15452
1456.00000        5.98528       13.75035       67.43950        5.69241        5.36163       19.55791
1456.50000        5.98710       13.45887       65.92740        5.93191        5.50361       19.81124
1457.00000        5.98891       12.79207       67.24898        5.91007        5.51063       19.76223
1457.50000        5.99073       12.70347       68.19555        5.66666        5.31560       19.75944
1458.00000        5.99234       12.96961       67.21268        5.61127        5.30780       20.06011
1458.50000        5.99415       13.18988       69.12095        5.55510        5.34680       20.41964
1459.00000        5.99597       12.95613       71.97579        5.56914        5.35460       20.94314
1459.50000        5.99597       12.73030       75.90724        5.86170        5.35460       21.38604
1460.00000        5.99597       11.98955       80.82155        5.88510        5.35460       21.70250
1460.50000        5.99597       11.43626       84.97982        5.66666        5.35460       21.96760
1461.00000        5.99597       11.47342       86.18949        5.56290        5.35460       22.27577
1461.50000        5.99778       12.52071       85.28224        5.69241        5.32340       22.69931
1462.00000        6.00202       13.09572       88.30643        5.82269        5.24538       23.15130
1462.50000        6.00645       12.98813       89.21369        5.77042        5.22978       23.49029
1463.00000        6.01089       12.62862       90.12095        5.71893        5.30780       23.98455
1463.50000        6.01532       12.05121       88.20663        5.66666        5.38581       24.40532
1464.00000        6.01956       11.54617       86.28929        6.29077        5.46382       24.48472
1464.50000        6.02399       11.63276       84.37498        5.90070        5.49347       24.31600
1465.00000        6.02843       12.28252       86.39212        5.66666        5.44978       24.61824
1465.50000        6.03286       12.79267       89.93949        5.68226        5.40687       24.82289
1466.00000        6.03508       13.55237       91.81449        5.76028        5.36319       24.71785
1466.50000        6.02903       13.48156       92.11691        5.90070        5.52233       24.79725
1467.00000        6.02278       12.88872       93.28425        6.36879        5.77432       24.83714
1467.50000        6.01673       12.69136       95.02921        6.32042        5.71659       25.03507
1468.00000        6.01068       12.70875       96.77417        5.95297        5.25553       25.61231
1468.50000        6.00443       13.04805       97.78123        5.29453        4.90758       25.99555
1469.00000        5.99839       13.57561       97.58163        5.38425        5.01446       26.07416
1469.50000        5.99597       14.20875       95.74594        5.47475        5.12056       25.80507
1470.00000        5.99597       13.57320       93.02417        5.34758        5.23524       25.46171
1470.50000        5.99597       13.22754       90.92840        5.13460        5.34992       25.07686
1471.00000        5.99597       13.35052       90.60482        4.99028        5.46460       25.07724
1471.50000        5.99597       14.09835       89.36490        5.12056        5.64404       24.74849
1472.00000        5.99597       14.19768       87.09675        5.25085        5.79148       24.15621
1472.50000        5.99597       13.36747       84.80744        5.29609        5.63546       23.72987
1473.00000        5.99597       12.63622       82.43042        5.00354        5.53326       23.45882
1473.50000        5.99597       12.04345       83.01409        4.93333        5.64404       23.49199
1474.00000        5.99597       12.49863       84.14816        5.01134        5.53638       23.65713
1474.50000        5.99597       12.62755       84.87095        4.89666        5.37411       23.70255
1475.00000        5.99597       12.94233       86.10784        4.65248        5.29921       23.69187
1475.50000        5.99597       12.90830       87.65018        4.73907        5.35460       23.86135
1476.00000        5.99597       12.91145       90.42336        4.82411        5.96311       24.10630
1476.50000        6.01613       13.00398       93.19655        4.90212        6.19716       24.37022
1477.00000        6.04133       13.09690       94.42135        4.93021        6.07780       24.58119
1477.50000        6.07258       13.31202       95.26207        4.75624        5.79148       24.74475
1478.00000        6.09375       13.43105       94.59070        4.69148        5.50517       25.03395
1478.50000        6.08589       13.49075       94.50602        4.59007        5.25787       25.38091
1479.00000        6.07823       13.09565       96.77417        4.57446        5.16659       25.81828
1479.50000        6.06855       12.66100       95.59776        4.58304        5.07453       25.79496
