~Version ---------------------------------------------------
VERS. 2.0 : CWLS LOG ASCII STANDARD - VERSION 2.0
WRAP. NO  : One line per depth step
DLM . SPACE : Column Data Section Delimiter
~Well ------------------------------------------------------
STRT.F          642 : START DEPTH
STOP.F       1779.0 : STOP DEPTH
STEP.F          0.5 : STEP
NULL.       -999.25 : NULL VALUE
COMP.                       WALSH & WATTS : COMPANY
WELL.                        SALMON E 24  : WELL
FLD .                               NORTH : FIELD
CNTY.                            MONTAGUE : COUNTY
STAT.                               TEXAS : STATE
CTRY.                                 USA : COUNTRY
SEC .                                     : SECTION
TWP .                                     : TOWNSHIP
RGE .                                     : RANGE
LOC .                 SW CORNER OF LEAGUE : LOCATION
EKB .F                          : ELEVATION KELLY BUSHING
EDF .F                          : ELEVATION DERRICK FLOOR
EGL .F                      850 : ELEVATION GROUND LEVEL
PDAT.                        GL : PERMANENT DATUM
EPD .                       850 : ELEVATION PERMANENT DATUM
APD .                         5 : ABOVE PERMANENT DATUM
LMF .                        RT : LOG MEASURED FROM
DMF .                        RT : DRILLING MEASURED FROM
API .            42337038630000 : API NUMBER
UWI .                           : UWI NUMBER
DIGC.                     NthDS : DIGITIZING COMPANY
~Params ----------------------------------------------------
SRVC.              SCHLUMBERGER : LOGGING COMPANY
LOG .                       GRN : LOG
DATE.                1964-03-24 : RUN DATE
RUN .                         1 : RUN NUMBER
TDD .F                     1783 : TOTAL DEPTH DRILLER
TDL .F                     1782 : TOTAL DEPTH LOGGER
BOTL.F                     1780 : BOTTOM LOGGED INTERVAL
TOPL.F                      650 : TOP LOGGED INTERVAL
CSGS.IN                     4.5 : CASING SIZE
CSGD.F                     1802 : CASING DRILLER
CSGL.F                          : CASING LOGGER
BS  .IN                       9 : BIT SIZE
MUD .                     WATER : MUD TYPE
MUDD.                           : MUD DENSITY
MUDV.                           : MUD VISCOSITY
PH  .                           : MUD PH
FL  .                           : FLUID LOSS
MUDS.                           : SOURCE OF SAMPLE
RM  .OHMM                       : MUD RESISTIVITY
RMT .DEGF                       : RM TEMPERATURE
RMF .OHMM                       : MUD FILTRATE RESISTIVITY
RMFT.DEGF                       : RMF TEMPERATURE
RMC .OHMM                       : MUD CAKE RESISTIVITY
RMCT.DEGF                       : RMC TEMPERATURE
RMFS.                           : RMF SOURCE
RMCS.                           : RMC SOURCE
RMBH.OHMM                       : MUD RESISTIVITY AT BHT
BHT .DEGF                       : BOTTOM HOLE TEMPERATURE
TIMC.                           : TIME CIRCULATION STOPPED
TIML.                           : TIME LOGGER ON BOTTOM
TMAX.DEGF                   107 : MAXIMUM RECORDED TEMPERATURE
UNIT.                           : EQUIPMENT NUMBER
BASE.                           : BASE LOCATION
ENG .                    MCCUNE : RECORDED BY
WIT .                       NIX : WITNESSED BY
~Curve Information -----------------------------------------
DEPT.F          :DEPTH
GRN.GAPI        :
NEUT.API        :
~ASCII ------------------------------------------------------
# ...
1727.00000       60.40881      569.14881
1727.50000       59.76752      569.14881
1728.00000       61.05009      563.81814
1728.50000       62.49297      561.15280
1729.00000       65.69939      563.81814
1729.50000       70.02804      566.48347
1730.00000       73.39478      563.81814
1730.50000       71.95189      554.48947
1731.00000       66.66131      541.82913
1731.50000       62.65330      537.60457
1732.00000       62.97394      544.26791
1732.50000       65.05810      540.49646
1733.00000       66.34067      546.49346
1733.50000       67.94387      558.48747
1734.00000       69.70740      571.81414
1734.50000       70.50900      578.47748
1735.00000       70.82965      589.13881
1735.50000       69.86772      599.80015
1736.00000       67.46291      598.46748
1736.50000       65.37875      593.13681
1737.00000       64.57714      586.47348
1737.50000       64.41682      577.14481
1738.00000       65.53907      571.81414
1738.50000       66.98195      567.81614
1739.00000       67.94387      558.48747
1739.50000       68.42484      562.48547
1740.00000       68.10420      565.15080
1740.50000       68.10420      566.48347
1741.00000       70.18836      571.81414
1741.50000       73.02764      581.14281
1742.00000       75.20480      605.13082
1742.50000       74.42724      630.45150
1743.00000       72.59317      651.77417
1743.50000       69.54708      675.76218
1744.00000       67.94387      699.75019
1744.50000       66.34067      714.02305
1745.00000       62.65330      710.74469
1745.50000       57.52304      695.75219
1746.00000       53.03406      671.76418
1746.50000       48.86572      647.77617
1747.00000       47.58316      627.34638
1747.50000       49.66733      627.51963
1748.00000       53.03406      620.45649
1748.50000       55.91983      612.18063
1749.00000       57.84368      619.79016
1749.50000       59.12624      614.45949
1750.00000       58.48496      607.04986
1750.50000       58.16432      608.55577
1751.00000       57.84368      623.78816
1751.50000       56.56111      617.12482
1752.00000       56.72143      617.12482
1752.50000       59.60720      625.12083
1753.00000       61.21041      639.78017
1753.50000       61.53105      655.77217
1754.00000       61.21041      666.43351
1754.50000       60.24849      681.09285
1755.00000       59.92784      689.08885
1755.50000       59.76752      693.08685
1756.00000       56.40079      702.41552
1756.50000       51.75149      714.40953
1757.00000       47.90380      702.41552
1757.50000       46.14027      713.51664
1758.00000       45.97995      701.08286
1758.50000       46.94188      690.42152
1759.00000       49.34669      674.42951
1759.50000       53.35470      654.43950
1760.00000       58.64528      633.11683
1760.50000       62.17233      615.79216
1761.00000       64.09618      603.79815
1761.50000       65.41883      595.80215
1762.00000       67.12303      591.80415
1762.50000       66.24448      603.79815
1763.00000       64.09618      615.79216
1763.50000       62.81362      630.45150
1764.00000       62.49297      651.77417
1764.50000       65.05810      674.42951
1765.00000       68.74548      701.08286
1765.50000       71.25770      719.74020
1766.00000       70.58916      732.57378
1766.50000       67.78355      745.06087
1767.00000       65.69939      730.89462
1767.50000       65.05810      719.74020
1768.00000       64.57714      711.74419
1768.50000       63.93586      700.85630
1769.00000       63.61522      695.31241
1769.50000       63.29458      699.08385
1770.00000       62.17233      703.74819
1770.50000       60.56913      700.41652
1771.00000       58.32464      713.07686
1771.50000       57.52304      703.56162
1772.00000       59.60720      697.08485
1772.50000       62.49297      693.08685
1773.00000       65.37875      691.75419
1773.50000       66.98195      689.08885
1774.00000       66.82163      685.09085
1774.50000        -999.25      682.42552
1775.00000        -999.25      679.76018
1775.50000        -999.25      679.76018
1776.00000        -999.25      686.42352
1776.50000        -999.25      693.08685
1777.00000        -999.25      701.08286
1777.50000        -999.25      711.74419
1778.00000        -999.25      723.73820
1778.50000        -999.25      731.73420
1779.00000        -999.25      735.73220
