~Version ---------------------------------------------------
VERS. 2.0 : CWLS LOG ASCII STANDARD - VERSION 2.0
WRAP. NO  : One line per depth step
DLM . SPACE : Column Data Section Delimiter
~Well ------------------------------------------------------
STRT.F          100 : START DEPTH
STOP.F       1786.5 : STOP DEPTH
STEP.F          0.5 : STEP
NULL.       -999.25 : NULL VALUE
COMP.                 WALSH & WATTS, INC. : COMPANY
WELL.                         SALMON E 41 : WELL
FLD .                        NORTH NOCONA : FIELD
CNTY.                            MONTAGUE : COUNTY
STAT.                               TEXAS : STATE
CTRY.                                 USA : COUNTRY
SEC .                                     : SECTION
TWP .                                     : TOWNSHIP
RGE .                                     : RANGE
LOC . 300' N OF NO. 40
150' W OF EL & 385' E OF NO. 87
F. ROBERTSON SURVEY : LOCATION
EKB .F                          : ELEVATION KELLY BUSHING
EDF .F                          : ELEVATION DERRICK FLOOR
EGL .F                      878 : ELEVATION GROUND LEVEL
PDAT.              GROUND LEVEL : PERMANENT DATUM
EPD .                       878 : ELEVATION PERMANENT DATUM
APD .                           : ABOVE PERMANENT DATUM
LMF .                        KB : LOG MEASURED FROM
DMF .                        KB : DRILLING MEASURED FROM
API .            42337037790000 : API NUMBER
UWI .            42337037790000 : UWI NUMBER
DIGC.                     NthDS : DIGITIZING COMPANY
~Params ----------------------------------------------------
SRVC.                LANE WELLS : LOGGING COMPANY
LOG .                       IEL : LOG
DATE.                1965-12-01 : RUN DATE
RUN .                         1 : RUN NUMBER
TDD .F                     1790 : TOTAL DEPTH DRILLER
TDL .F                     1791 : TOTAL DEPTH LOGGER
BOTL.F                     1787 : BOTTOM LOGGED INTERVAL
TOPL.F                      100 : TOP LOGGED INTERVAL
CSGS.IN                         : CASING SIZE
CSGD.F                          : CASING DRILLER
CSGL.F                          : CASING LOGGER
BS  .IN                       9 : BIT SIZE
MUD .                       GEL : MUD TYPE
MUDD.                        10 : MUD DENSITY
MUDV.                        80 : MUD VISCOSITY
PH  .                       9.0 : MUD PH
FL  .                       6.8 : FLUID LOSS
MUDS.                       PIT : SOURCE OF SAMPLE
RM  .OHMM                  1.95 : MUD RESISTIVITY
RMT .DEGF                    74 : RM TEMPERATURE
RMF .OHMM                   1.5 : MUD FILTRATE RESISTIVITY
RMFT.DEGF                    74 : RMF TEMPERATURE
RMC .OHMM                   2.3 : MUD CAKE RESISTIVITY
RMCT.DEGF                    74 : RMC TEMPERATURE
RMFS.                  MEASURED : RMF SOURCE
RMCS.                           : RMC SOURCE
RMBH.OHMM                   1.5 : MUD RESISTIVITY AT BHT
BHT .DEGF                    97 : BOTTOM HOLE TEMPERATURE
TIMC.                           : TIME CIRCULATION STOPPED
TIML.                           : TIME LOGGER ON BOTTOM
TMAX.DEGF                    97 : MAXIMUM RECORDED TEMPERATURE
UNIT.                    L-5172 : EQUIPMENT NUMBER
BASE.                      W.F. : BASE LOCATION
ENG .             ADAMS & BAKER : RECORDED BY
WIT .                   MR. NIX : WITNESSED BY
~Curve Information -----------------------------------------
DEPT.F          :DEPTH
CILD.MMHO       :
ILD.OHMM        :
ROP.FT/HR       :
SN.OHMM         :
SP.MV           :
~ASCII ------------------------------------------------------
# ...
1096.50000     2000.64930        0.32310        -999.25        0.64525      -83.70407
1097.00000     2000.27077        0.32358        -999.25        0.69862      -83.99464
1097.50000     1999.89224        0.32406        -999.25        0.76273      -83.98522
1098.00000     1999.51371        0.34831        -999.25        0.88250      -83.97579
1098.50000     1999.13519        0.37850        -999.25        0.96250      -84.56447
1099.00000     1893.34882        0.40868        -999.25        1.04251      -85.45503
1099.50000     1793.75377        0.44481        -999.25        1.12252      -85.74560
1100.00000     1727.36040        0.44529        -999.25        1.08325      -85.66885
1100.50000     1718.27407        0.47612        -999.25        1.14803      -84.45703
1101.00000     1678.53297        0.51716        -999.25        1.11003      -82.34342
1101.50000     1618.04584        0.47915        -999.25        1.15107      -80.83100
1102.00000     1552.20892        0.55972        -999.25        1.19211      -80.52096
1102.50000     1497.34481        0.52171        -999.25        1.19363      -81.11270
1103.00000     1451.44772        0.56275        -999.25        1.17696      -81.40386
1103.50000     1461.20859        0.52475        -999.25        1.14805      -79.89144
1104.00000     1505.13635        0.52626        -999.25        1.11913      -77.77783
1104.50000     1540.27657        0.48826        -999.25        1.12065      -77.76838
1105.00000     1601.97072        0.48977        -999.25        1.04667      -79.26192
1105.50000     1668.10148        0.47390        -999.25        0.95373      -80.15426
1106.00000     1736.78454        0.45329        -999.25        0.86039      -80.14481
1106.50000     1807.17245        0.43267        -999.25        0.76744      -80.13537
1107.00000     1818.35902        0.41245        -999.25        0.68833      -80.12404
1107.50000     1829.54559        0.39183        -999.25        0.65853      -78.61162
1108.00000     1867.40168        0.37350        -999.25        0.63357      -77.39979
1108.50000     1917.39707        0.36276        -999.25        0.61928      -77.39035
1109.00000     2000.44677        0.35203        -999.25        0.62079      -77.68150
1109.50000     2000.51689        0.34169        -999.25        0.62231      -78.27325
1110.00000     2000.58701        0.33095        -999.25        0.62383      -80.96916
1110.50000     2000.64715        0.32061        -999.25        0.62535      -84.86746
1111.00000     2000.73130        0.30988        -999.25        0.62686      -89.06635
1111.50000     2000.80141        0.29914        -999.25        0.62838      -91.16107
1112.00000     2000.87153        0.28880        -999.25        0.62990      -91.45222
1112.50000     2000.94165        0.27807        -999.25        0.63142      -89.33861
1113.00000     2001.00180        0.29381        -999.25        0.63293      -86.02262
1113.50000     2001.07191        0.31628        -999.25        0.63445      -81.80484
1114.00000     2001.14203        0.33835        -999.25        0.64466      -77.88766
1114.50000     1932.58332        0.36082        -999.25        0.66832      -72.99355
1115.00000     1875.45605        0.38328        -999.25        0.69157      -74.80270
1115.50000     1885.39046        0.40535        -999.25        0.71522      -76.95755
1116.00000     1893.66582        0.42782        -999.25        0.73167      -77.84989
1116.50000     1884.53371        0.45454        -999.25        0.74386      -79.34342
1117.00000     1871.04474        0.47700        -999.25        0.75565      -79.93517
1117.50000     1829.88927        0.49907        -999.25        0.76745      -80.22632
1118.00000     1772.21770        0.52154        -999.25        0.77964      -80.81806
1118.50000     1737.00430        0.52662        -999.25        0.79143      -81.10922
1119.00000     1698.61455        0.52062        -999.25        0.80322      -80.79918
1119.50000     1666.62142        0.51463        -999.25        0.80553      -79.88606
1120.00000     1648.82546        0.50864        -999.25        0.79282      -79.57602
1120.50000     1673.72066        0.50265        -999.25        0.78011      -80.16777
1121.00000     1728.52560        0.49626        -999.25        0.76779      -80.45892
1121.50000     1783.33054        0.49027        -999.25        0.75508      -80.14888
1122.00000     1838.13548        0.48428        -999.25        0.74237      -80.13944
1122.50000     1848.07581        0.47828        -999.25        0.75417      -79.82940
1123.00000     1809.66206        0.47190        -999.25        0.77228      -79.51936
1123.50000     1703.01828        0.48409        -999.25        0.81530      -80.11111
1124.00000     1550.58270        0.56861        -999.25        0.91198      -79.80107
1124.50000     1398.15708        0.66963        -999.25        0.99255      -77.08627
1125.00000     1245.72149        0.75415        -999.25        1.07312      -73.16909
1125.50000     1096.13730        0.83867        -999.25        1.15368      -68.04952
1126.00000     1026.31241        0.92280        -999.25        1.23425      -66.53710
1126.50000     1017.97789        0.98162        -999.25        1.28320      -66.52766
1127.00000     1038.01774        0.93690        -999.25        1.31119      -67.42000
1127.50000     1092.79277        0.89257        -999.25        1.33880      -68.91353
1128.00000     1143.38636        0.84824        -999.25        1.38340      -71.30885
1128.50000     1206.62584        0.80391        -999.25        1.43867      -75.20715
1129.00000     1246.47591        0.75918        -999.25        1.49434      -80.60842
1129.50000     1284.33200        0.68797        -999.25        1.54961      -84.80731
1130.00000     1281.31144        0.71044        -999.25        1.57207      -86.30084
1130.50000     1241.64554        0.73330        -999.25        1.46292      -87.79437
1131.00000     1211.45697        0.75576        -999.25        1.35377      -89.28790
1131.50000     1183.18263        0.77862        -999.25        1.22279      -89.57905
1132.00000     1167.81932        0.80149        -999.25        1.11364      -88.66783
1132.50000     1167.99319        0.83532        -999.25        1.04283      -88.35779
1133.00000     1194.67301        0.79731        -999.25        1.03011      -88.94953
1133.50000     1233.12324        0.75931        -999.25        1.01701      -89.84188
1134.00000     1281.18851        0.72130        -999.25        1.00430      -90.13303
1134.50000     1329.24382        0.68329        -999.25        0.99119      -89.82110
1135.00000     1365.42496        0.64529        -999.25        0.97808      -89.51106
1135.50000     1388.94432        0.60728        -999.25        0.96537      -89.50162
1136.00000     1397.00034        0.57441        -999.25        0.95227      -88.59039
1136.50000     1351.70143        0.62454        -999.25        0.96090      -87.97975
1137.00000     1292.47051        0.67428        -999.25        1.05451      -87.36912
1137.50000     1212.36664        0.72402        -999.25        1.14812      -86.75849
1138.00000     1145.60843        0.77376        -999.25        1.24212      -86.44845
1138.50000     1082.76248        0.82350        -999.25        1.33573      -86.43900
1139.00000     1033.27216        0.87363        -999.25        1.42934      -86.42956
1139.50000      983.74384        0.92337        -999.25        1.50112      -86.72071
1140.00000      962.66777        0.97310        -999.25        1.49355      -86.71127
1140.50000      941.59171        1.02591        -999.25        1.48558      -86.70182
1141.00000      920.51564        1.06695        -999.25        1.47761      -86.99298
1141.50000      895.21638        1.10800        -999.25        1.49138      -87.58472
1142.00000      884.77821        1.09291        -999.25        1.59171      -88.17647
1142.50000      904.68845        1.06439        -999.25        1.69204      -88.46762
1143.00000     1041.23483        1.02243        -999.25        1.79237      -87.55639
