~Version ---------------------------------------------------
VERS. 2.0 : CWLS LOG ASCII STANDARD - VERSION 2.0
WRAP. NO  : One line per depth step
DLM . SPACE : Column Data Section Delimiter
~Well ------------------------------------------------------
STRT.F          227 : START DEPTH
STOP.F       2033.0 : STOP DEPTH
STEP.F          0.5 : STEP
NULL.       -999.25 : NULL VALUE
COMP.                  WALSH & WATTS, INC : COMPANY
WELL.                          HYNDS A 10 : WELL
FLD .                           N. NOCONA : FIELD
CNTY.                            MONTAGUE : COUNTY
STAT.                               TEXAS : STATE
CTRY.                                 USA : COUNTRY
SEC .                                     : SECTION
TWP .                                     : TOWNSHIP
RGE .                                     : RANGE
LOC .  244' SE OF NO. 5A J.J. WALL SURVEY : LOCATION
EKB .F                    903.5 : ELEVATION KELLY BUSHING
EDF .F                          : ELEVATION DERRICK FLOOR
EGL .F                      897 : ELEVATION GROUND LEVEL
PDAT.                        GL : PERMANENT DATUM
EPD .                           : ELEVATION PERMANENT DATUM
APD .                         6 : ABOVE PERMANENT DATUM
LMF .                           : LOG MEASURED FROM
DMF .                           : DRILLING MEASURED FROM
API .            42337037830000 : API NUMBER
UWI .            42337037830000 : UWI NUMBER
DIGC.                     NthDS : DIGITIZING COMPANY
~Params ----------------------------------------------------
SRVC.              SCHLUMBERGER : LOGGING COMPANY
LOG .                       IEL : LOG
DATE.                1957-10-20 : RUN DATE
RUN .                         1 : RUN NUMBER
TDD .F                          : TOTAL DEPTH DRILLER
TDL .F                          : TOTAL DEPTH LOGGER
BOTL.F                     2039 : BOTTOM LOGGED INTERVAL
TOPL.F                          : TOP LOGGED INTERVAL
CSGS.IN                         : CASING SIZE
CSGD.F                      227 : CASING DRILLER
CSGL.F                      227 : CASING LOGGER
BS  .IN                    8.75 : BIT SIZE
MUD .                       GEL : MUD TYPE
MUDD.                       9.9 : MUD DENSITY
MUDV.                        50 : MUD VISCOSITY
PH  .                           : MUD PH
FL  .                           : FLUID LOSS
MUDS.                           : SOURCE OF SAMPLE
RM  .OHMM                   2.3 : MUD RESISTIVITY
RMT .DEGF                    60 : RM TEMPERATURE
RMF .OHMM                   .76 : MUD FILTRATE RESISTIVITY
RMFT.DEGF                    96 : RMF TEMPERATURE
RMC .OHMM                   1.7 : MUD CAKE RESISTIVITY
RMCT.DEGF                    96 : RMC TEMPERATURE
RMFS.                           : RMF SOURCE
RMCS.                           : RMC SOURCE
RMBH.OHMM                   1.4 : MUD RESISTIVITY AT BHT
BHT .DEGF                    96 : BOTTOM HOLE TEMPERATURE
TIMC.                           : TIME CIRCULATION STOPPED
TIML.                           : TIME LOGGER ON BOTTOM
TMAX.DEGF                       : MAXIMUM RECORDED TEMPERATURE
UNIT.                       785 : EQUIPMENT NUMBER
BASE.                        WF : BASE LOCATION
ENG .                     JONES : RECORDED BY
WIT .               BALCH & NIX : WITNESSED BY
~Curve Information -----------------------------------------
DEPT.F          :DEPTH
CILD.MMHO       :
ILD.OHMM        :
ROP.FT/HR       :
SN.OHMM         :
SP.MV           :
~ASCII ------------------------------------------------------
# ...
1034.00000      356.31162        2.89914        4.47751        2.97554      -25.03050
1034.50000      356.31162        2.88338        4.98446        2.96554      -24.88489
1035.00000      357.20687        2.86762        4.98435        2.95518      -24.56536
1035.50000      358.10213        2.85221        4.98424        2.94518      -23.98859
1036.00000      358.99738        2.83560        4.98394        2.93290      -23.29501
1036.50000      359.89264        2.83209        4.98383        2.92290      -22.74904
1037.00000      360.78789        2.82822        4.98362        2.91290      -22.64509
1037.50000      360.78789        2.82471        4.98351        2.90471      -22.64983
1038.00000      361.68315        2.82083        4.98340        2.89975      -22.79406
1038.50000      362.57841        2.81732        4.98311        2.89444      -22.93830
1039.00000      363.47366        2.81345        4.98299        2.88949      -23.02732
1039.50000      363.47366        2.80994        4.98288        2.88417      -23.09909
1040.00000      363.47366        2.80558        4.98268        2.87801      -23.21796
1040.50000      363.47366        2.80171        4.98256        2.87270      -22.31692
1041.00000      363.47366        2.79820        4.98245        2.86775      -21.19849
1041.50000      363.47366        2.79432        4.98216        2.89234      -20.92969
1042.00000      361.68315        2.81676        4.98205        2.93676      -21.48609
1042.50000      358.99738        2.85613        4.98184        2.97505      -22.09590
1043.00000      354.52111        2.89550        4.98173        2.98955      -22.81621
1043.50000      351.83534        2.94267        4.98162        3.00682      -23.61442
1044.00000      346.46381        2.98204        4.98150        3.08511      -24.04670
1044.50000      341.09228        3.02826        4.98121        3.16339      -25.12208
1045.00000      335.72075        3.08457        4.98110        3.24132      -25.69479
1045.50000      330.34922        3.14088        4.98089        3.30448      -24.97490
1046.00000      325.87295        3.19718        4.98078        3.36403      -24.18256
1046.50000      322.29193        3.20232        4.98067        3.38394      -25.09308
1047.00000      321.39667        3.17322        4.98037        3.34475      -26.13948
1047.50000      323.18718        3.13823        4.98026        3.29751      -25.70582
1048.00000      324.97769        3.10914        4.98015        3.26373      -25.15355
1048.50000      326.76820        3.07247        4.97994        3.23067      -25.27061
1049.00000      331.24448        3.03581        4.97983        3.19797      -25.90216
1049.50000      335.72075        2.99914        4.97972        3.16527      -27.11521
1050.00000      341.09228        2.99097        4.93798        3.16070      -30.49812
1050.50000      341.98754        2.95431        4.93882        3.13196      -29.80680
1051.00000      345.56856        2.95368        4.93966        3.11944      -26.69702
1051.50000      346.46381        2.95292        4.94049        3.10427      -25.84447
1052.00000      345.56856        2.95229        4.94115        3.09824      -26.63319
1052.50000      344.67330        2.95167        4.94226        3.10157      -27.02699
1053.00000      342.88279        2.95104        4.94292        3.10491      -27.37732
1053.50000      341.98754        2.95041        4.94375        3.10861      -27.83271
1054.00000      341.09228        2.94978        4.94459        3.11194      -28.58340
1054.50000      340.19703        2.94915        4.94543        3.11528      -28.57865
1055.00000      341.09228        2.94852        4.94608        3.11897      -28.21065
1055.50000      340.19703        2.94777        4.94692        3.12290      -27.75301
1056.00000      340.19703        2.94714        4.94775        3.12660      -27.65769
1056.50000      341.09228        2.94651        4.94869        3.12380      -27.65295
1057.00000      341.09228        2.94588        4.94952        3.11993      -26.96887
1057.50000      341.98754        2.94525        4.95036        3.11570      -26.28479
1058.00000      343.77805        2.94462        4.95101        3.11147      -26.28004
1058.50000      344.67330        2.94399        4.95185        3.10723      -26.90935
1059.00000      345.56856        2.94336        4.95269        3.10336      -27.62924
1059.50000      346.46381        2.94273        4.95352        3.09913      -26.53660
1060.00000      346.46381        2.94198        4.95446        3.09405      -25.48115
1060.50000      346.46381        2.94135        4.95511        3.09018      -25.11409
1061.00000      346.46381        2.94072        4.95595        3.08595      -24.83943
1061.50000      345.56856        2.94009        4.95678        3.08171      -24.70606
1062.00000      345.56856        2.93946        5.98822        3.07748      -25.08900
1062.50000      345.56856        2.93884        5.98417        3.07361      -25.67482
1063.00000      345.56856        2.93821        5.97930        3.06938      -26.63927
1063.50000      345.56856        2.93758        5.97525        3.06514      -26.86097
1064.00000      345.56856        2.93682        5.55816        3.06043      -26.46856
1064.50000      345.56856        2.93619        5.56352        3.05619      -25.99729
1065.00000      346.46381        2.94025        5.56871        3.05196      -25.66828
1065.50000      347.35907        2.94755        5.57389        3.04809      -25.84469
1066.00000      347.35907        2.95485        4.94303        3.04386      -26.13705
1066.50000      346.46381        2.96179        4.94224        3.06088      -26.28810
1067.00000      345.56856        2.96908        4.94163        3.09197      -27.16921
1067.50000      343.77805        2.97855        4.94101        3.12305      -28.27134
1068.00000      341.09228        2.98968        4.94013        3.15329      -29.37347
1068.50000      339.30177        2.99914        4.93952        3.16671      -30.34516
1069.00000      336.61601        3.00248        4.93873        3.17978      -30.52157
1069.50000      334.82550        3.00185        4.93811        3.16149      -29.71974
1070.00000      333.03499        3.00122        4.93750        3.13491      -28.30102
1070.50000      333.03499        3.00059        4.93689        3.10870      -26.97384
1071.00000      333.03499        2.99996        4.93609        3.10158      -26.42562
1071.50000      333.93024        2.99933        4.93540        3.09447      -27.19080
1072.00000      335.72075        2.99871        4.93460        3.08735      -27.86539
1072.50000      336.61601        2.99795        4.93399        3.07903      -27.13602
1073.00000      338.40652        2.99732        4.93338        3.07192      -26.33419
1073.50000      338.40652        2.99669        4.93258        3.06372      -26.22075
1074.00000      339.30177        2.99606        5.44012        3.05480      -26.68158
1074.50000      341.98754        2.99543        5.44059        3.04588      -27.27285
1075.00000      344.67330        2.97318        5.44116        3.03661      -27.11136
1075.50000      346.46381        2.94553        5.44163        3.02769      -26.65373
1076.00000      350.04483        2.91787        5.44211        3.01877      -26.61819
1076.50000      351.83534        2.88469        5.44258        3.00793      -27.38155
1077.00000      352.73060        2.86892        5.44306        2.99901      -28.54164
1077.50000      352.73060        2.85352        5.44353        2.98433      -27.85756
1078.00000      352.73060        2.85433        4.93767        2.94766      -27.17348
1078.50000      352.73060        2.86667        4.94032        2.92325      -26.89700
1079.00000      351.83534        2.87902        4.94297        2.94857      -26.94117
1079.50000      349.14958        2.89136        4.94625        2.97352      -27.23258
1080.00000      347.35907        2.90335        4.94890        2.99884      -27.40537
1080.50000      344.67330        2.91845        4.95155        3.02511      -27.29918
