~Version ---------------------------------------------------
VERS. 2.0 : CWLS LOG ASCII STANDARD - VERSION 2.0
WRAP. NO  : One line per depth step
DLM . SPACE : Column Data Section Delimiter
~Well ------------------------------------------------------
STRT.F          780 : START DEPTH
STOP.F       1761.5 : STOP DEPTH
STEP.F          0.5 : STEP
NULL.       -999.25 : NULL VALUE
COMP.                 WALSH & WATTS, INC. : COMPANY
WELL.                         SALMON E 42 : WELL
FLD .                        NORTH NOCONA : FIELD
CNTY.                            MONTAGUE : COUNTY
STAT.                               TEXAS : STATE
CTRY.                                 USA : COUNTRY
SEC .                                     : SECTION
TWP .                                     : TOWNSHIP
RGE .                                     : RANGE
LOC . 150' FSL & 300' W OF WELL NO. 1, 407' E OF WELL NO. 5, F. ROBERTSON SURVEY : LOCATION
EKB .F                      880 : ELEVATION KELLY BUSHING
EDF .F                          : ELEVATION DERRICK FLOOR
EGL .F                      874 : ELEVATION GROUND LEVEL
PDAT.              GROUND LEVEL : PERMANENT DATUM
EPD .                       874 : ELEVATION PERMANENT DATUM
APD .                         6 : ABOVE PERMANENT DATUM
LMF .                        KB : LOG MEASURED FROM
DMF .                        KB : DRILLING MEASURED FROM
API .            42337037780000 : API NUMBER
UWI .            42337037780000 : UWI NUMBER
DIGC.                     NthDS : DIGITIZING COMPANY
~Params ----------------------------------------------------
SRVC.                LANE WELLS : LOGGING COMPANY
LOG .                        AC : LOG
DATE.                1965-11-21 : RUN DATE
RUN .                         1 : RUN NUMBER
TDD .F                     1766 : TOTAL DEPTH DRILLER
TDL .F                     1768 : TOTAL DEPTH LOGGER
BOTL.F                     1762 : BOTTOM LOGGED INTERVAL
TOPL.F                      790 : TOP LOGGED INTERVAL
CSGS.IN                         : CASING SIZE
CSGD.F                          : CASING DRILLER
CSGL.F                          : CASING LOGGER
BS  .IN                   7.875 : BIT SIZE
MUD .              CHEMICAL GEL : MUD TYPE
MUDD.                       9.8 : MUD DENSITY
MUDV.                       123 : MUD VISCOSITY
PH  .                           : MUD PH
FL  .                           : FLUID LOSS
MUDS.                CIRCULATED : SOURCE OF SAMPLE
RM  .OHMM                   2.1 : MUD RESISTIVITY
RMT .DEGF                    70 : RM TEMPERATURE
RMF .OHMM                  1.81 : MUD FILTRATE RESISTIVITY
RMFT.DEGF                    70 : RMF TEMPERATURE
RMC .OHMM                  2.34 : MUD CAKE RESISTIVITY
RMCT.DEGF                    70 : RMC TEMPERATURE
RMFS.                  MEASURED : RMF SOURCE
RMCS.                           : RMC SOURCE
RMBH.OHMM                   1.5 : MUD RESISTIVITY AT BHT
BHT .DEGF                    98 : BOTTOM HOLE TEMPERATURE
TIMC.                           : TIME CIRCULATION STOPPED
TIML.                           : TIME LOGGER ON BOTTOM
TMAX.DEGF                    98 : MAXIMUM RECORDED TEMPERATURE
UNIT.                    L-4553 : EQUIPMENT NUMBER
BASE.                      W.F. : BASE LOCATION
ENG .                     ADAMS : RECORDED BY
WIT .   MR. HARRELSON & MR. NIX : WITNESSED BY
~Curve Information -----------------------------------------
DEPT.F          :DEPTH
CALI.IN         :
DT.US/F         :
SP.MV           :
~ASCII ------------------------------------------------------
# ...
1642.50000        7.90099       55.27364      -69.80200
1643.00000        7.90099       54.69354      -68.01982
1643.50000        7.90099       58.00996      -65.94061
1644.00000        7.90099       59.14727      -64.75250
1644.50000        7.90099       61.22986      -64.75250
1645.00000        7.90099       63.94429      -64.45547
1645.50000        7.90099       64.92538      -62.67329
1646.00000        7.90099       65.07464      -60.29705
1646.50000        7.90099       61.84081      -58.51487
1647.00000        7.90099       59.14628      -57.32676
1647.50000        7.90099       60.00001      -56.13864
1648.00000        7.90099       57.96021      -54.95052
1648.50000        7.90099       55.92041      -53.76240
1649.00000        7.90099       57.46867      -52.87131
1649.50000        7.90099       59.18707      -52.27725
1650.00000        7.90099       61.59205      -51.08913
1650.50000        7.95652       64.47762      -50.39528
1651.00000        7.95652       62.86071      -49.80240
1651.50000        7.95652       60.61693      -49.50595
1652.00000        7.95652       57.43285      -48.91307
1652.50000        7.95652       56.83583      -48.91307
1653.00000        7.95652       60.11941      -48.61663
1653.50000        7.95652       63.21692      -48.91307
1654.00000        7.95652       66.76618      -48.91307
1654.50000        7.95652       64.36120      -48.61663
1655.00000        7.95652       66.34827      -47.72730
1655.50000        7.95652       69.43284      -47.13441
1656.00000        7.95652       65.67165      -47.13441
1656.50000        7.95652       58.34130      -47.43085
1657.00000        7.95652       60.23185      -47.43085
1657.50000        7.95059       66.47663      -47.43085
1658.00000        7.94447       76.24578      -47.13441
1658.50000        7.93854       84.42787      -46.54153
1659.00000        7.93261       90.16916      -45.94864
1659.50000        7.92648       92.20896      -45.05931
1660.00000        7.92055       92.85573      -42.98422
1660.50000        7.90119       91.41294      -41.50200
1661.00000        7.85375       90.84578      -39.72335
1661.50000        7.87747       91.17712      -38.83402
1662.00000        7.94328       89.22090      -38.83402
1662.50000        8.00929       86.06966      -40.01979
1663.00000        8.00415       88.70647      -41.79845
1663.50000        7.95178       91.34329      -43.87354
1664.00000        7.89960       88.52438      -46.54153
1664.50000        7.91205       92.84478      -48.61663
1665.00000        8.04783       98.95025      -49.80240
1665.50000        8.01858       98.17314      -50.69172
1666.00000        7.94802       94.14727      -51.87749
1666.50000        7.87747       91.04478      -52.76682
1667.00000        7.91225       87.48757      -53.35971
1667.50000        7.94723       79.65175      -53.65615
1668.00000        7.98913       77.94329      -54.84192
1668.50000        7.94526       80.32041      -56.32413
1669.00000        7.88162       76.81593      -58.10279
1669.50000        7.81818       71.68160      -59.88144
1670.00000        7.85929       76.78608      -61.95654
1670.50000        7.90059       85.59205      -63.43876
1671.00000        7.91700       93.34727      -64.92097
1671.50000        7.87391       96.90150      -65.21741
1672.00000        7.76601      104.24080      -64.03164
1672.50000        7.70257      106.04478      -62.25299
1673.00000        7.81660      103.18408      -58.39923
1673.50000        7.93063       83.58210      -54.24904
1674.00000        7.97589       78.04976      -53.65615
1674.50000        7.97530       82.37812      -53.95259
1675.00000        7.97470       85.20299      -54.54548
1675.50000        7.97391       85.77115      -54.54548
1676.00000        7.97332       82.58707      -53.65615
1676.50000        7.97273       81.51543      -52.17394
1677.00000        7.97213       80.22986      -50.09884
1677.50000        7.97154       81.04976      -48.02374
1678.00000        7.97095       83.12936      -46.83797
1678.50000        7.97036       83.75225      -46.24508
1679.00000        7.96956       82.18906      -46.54153
1679.50000        7.96897       83.10150      -46.83797
1680.00000        7.96838       81.86170      -47.43085
1680.50000        7.96779       82.02289      -47.43085
1681.00000        7.96719       85.70448      -47.13441
1681.50000        7.96660       87.36319      -46.54153
1682.00000        7.96601       83.38309      -46.24508
1682.50000        7.96522       79.40299      -46.24508
1683.00000        7.96462       83.93633      -46.83797
1683.50000        7.96403       88.63185      -47.43085
1684.00000        7.96344       92.28856      -47.72730
1684.50000        7.96285       91.65374      -48.02374
1685.00000        7.96225       89.48956      -48.02374
1685.50000        7.96166       87.68657      -48.02374
1686.00000        7.96087       85.27364      -48.61663
1686.50000        7.96028       85.10150      -50.39528
1687.00000        7.95968       88.90050      -53.06326
1687.50000        7.95909       92.07264      -55.13836
1688.00000        7.95850       92.73632      -58.99212
1688.50000        7.95790       91.49254      -62.15516
1689.00000        7.95731       90.54727      -65.31524
1689.50000        7.95652       91.75125      -68.47828
1690.00000        7.75889       94.08956      -67.88540
1690.50000        7.71364       94.07961      -65.51385
1691.00000        7.70672       92.38807      -61.36366
1691.50000        7.69960       88.28359      -58.69567
1692.00000        7.69249       90.26866      -59.28856
1692.50000        7.68557       98.07662      -59.58500
1693.00000        7.70771      101.24379      -58.69567
1693.50000        7.77747      100.47762      -56.32413
1694.00000        7.84723      100.14926      -55.13836
1694.50000        7.91700       96.66667      -56.62058
1695.00000        7.91700       92.66966      -58.69567
1695.50000        7.91700       93.83085      -60.77077
1696.00000        7.91700       97.21394      -65.51385
1696.50000        7.91700      100.26866      -69.66405
1697.00000        7.84506       98.62687      -73.22136
1697.50000        7.75534       97.13433      -77.07512
1698.00000        7.73419       96.23881      -80.63243
1698.50000        7.75889       95.34329      -81.22531
1699.00000        7.79387       95.45175      -73.10279
1699.50000        7.82905       99.57314      -64.80239
1700.00000        7.86403      103.69553      -60.77077
1700.50000        7.93437      103.31313      -57.69979
1701.00000        7.96876       98.66203      -55.04485
1701.50000        8.00335       94.01193      -51.88400
1702.00000        8.00964       92.02088      -49.14327
1702.50000        8.00912       90.69583      -51.92316
1703.00000        8.00860       93.00001      -56.85251
1703.50000        7.97909       97.87973      -63.44300
1704.00000        7.90580      100.88967      -77.28191
1704.50000        7.83270       99.66899      -82.61658
1705.00000        7.75940       98.44931      -85.87872
1705.50000        7.73314       99.44334      -88.25329
1706.00000        7.73677      100.43738      -91.21958
1706.50000        7.74020       98.91949      -93.59415
1707.00000        7.74382       97.65408      -95.67288
1707.50000        7.74745       96.69782      -97.75315
1708.00000        7.75107       95.74255     -100.06264
1708.50000        7.75470       95.56661     -102.50230
1709.00000        7.75901       96.56064     -103.69346
1709.50000        7.76264       97.75348     -103.99706
1710.00000        7.76606       97.64116     -103.70895
1710.50000        7.76969       93.10637      -98.36625
1711.00000        7.77332       90.28629      -87.88302
1711.50000        7.77694       88.60836      -79.49880
1712.00000        7.78057       91.32307      -74.15610
1712.50000        7.83261       94.03778      -67.90062
1713.00000        7.89580       94.30319      -55.82865
1713.50000        7.95919       92.75050      -55.54054
