~Version ---------------------------------------------------
VERS. 2.0 : CWLS LOG ASCII STANDARD - VERSION 2.0
WRAP. NO  : One line per depth step
DLM . SPACE : Column Data Section Delimiter
~Well ------------------------------------------------------
STRT.F          194 : START DEPTH
STOP.F       1764.0 : STOP DEPTH
STEP.F          0.5 : STEP
NULL.       -999.25 : NULL VALUE
COMP.                 WALSH & WATTS, INC. : COMPANY
WELL.                         SALMON E 42 : WELL
FLD .                        NORTH NOCONA : FIELD
CNTY.                            MONTAGUE : COUNTY
STAT.                               TEXAS : STATE
CTRY.                                 USA : COUNTRY
SEC .                                     : SECTION
TWP .                                     : TOWNSHIP
RGE .                                     : RANGE
LOC . 150' FSL & 300' W OF WELL NO. 1, 407' E OF WELL NO. 5, F. ROBERTSON SURVEY : LOCATION
EKB .F                      880 : ELEVATION KELLY BUSHING
EDF .F                          : ELEVATION DERRICK FLOOR
EGL .F                      874 : ELEVATION GROUND LEVEL
PDAT.              GROUND LEVEL : PERMANENT DATUM
EPD .                       874 : ELEVATION PERMANENT DATUM
APD .                         6 : ABOVE PERMANENT DATUM
LMF .                        KB : LOG MEASURED FROM
DMF .                        KB : DRILLING MEASURED FROM
API .            42337037780000 : API NUMBER
UWI .            42337037780000 : UWI NUMBER
DIGC.                     NthDS : DIGITIZING COMPANY
~Params ----------------------------------------------------
SRVC.                LANE WELLS : LOGGING COMPANY
LOG .                       IEL : LOG
DATE.                1965-11-21 : RUN DATE
RUN .                         1 : RUN NUMBER
TDD .F                     1766 : TOTAL DEPTH DRILLER
TDL .F                     1768 : TOTAL DEPTH LOGGER
BOTL.F                     1764 : BOTTOM LOGGED INTERVAL
TOPL.F                      200 : TOP LOGGED INTERVAL
CSGS.IN                         : CASING SIZE
CSGD.F                          : CASING DRILLER
CSGL.F                          : CASING LOGGER
BS  .IN                   7.875 : BIT SIZE
MUD .              CHEMICAL GEL : MUD TYPE
MUDD.                       9.8 : MUD DENSITY
MUDV.                       123 : MUD VISCOSITY
PH  .                           : MUD PH
FL  .                           : FLUID LOSS
MUDS.                CIRCULATED : SOURCE OF SAMPLE
RM  .OHMM                   2.1 : MUD RESISTIVITY
RMT .DEGF                    70 : RM TEMPERATURE
RMF .OHMM                  1.81 : MUD FILTRATE RESISTIVITY
RMFT.DEGF                    70 : RMF TEMPERATURE
RMC .OHMM                  2.34 : MUD CAKE RESISTIVITY
RMCT.DEGF                    70 : RMC TEMPERATURE
RMFS.                  MEASURED : RMF SOURCE
RMCS.                           : RMC SOURCE
RMBH.OHMM                   1.5 : MUD RESISTIVITY AT BHT
BHT .DEGF                    98 : BOTTOM HOLE TEMPERATURE
TIMC.                           : TIME CIRCULATION STOPPED
TIML.                           : TIME LOGGER ON BOTTOM
TMAX.DEGF                    98 : MAXIMUM RECORDED TEMPERATURE
UNIT.                    L-4553 : EQUIPMENT NUMBER
BASE.                      W.F. : BASE LOCATION
ENG .                     ADAMS : RECORDED BY
WIT .   MR. HARRELSON & MR. NIX : WITNESSED BY
~Curve Information -----------------------------------------
DEPT.F          :DEPTH
CILD.MMHO       :
ILD.OHMM        :
ROP.MIN/FT      :
SN.OHMM         :
SP.MV           :
~ASCII ------------------------------------------------------
# ...
1283.50000      204.36518        5.28599        -999.25       11.99211      -37.64825
1284.00000      177.08343        6.23274        -999.25       14.31952      -39.13046
1284.50000      150.79375        6.58777        -999.25       16.09467      -39.72335
1285.00000      143.98820        6.90335        -999.25       16.60749      -40.01979
1285.50000      147.37114        6.82446        -999.25       16.41025      -40.01979
1286.00000      153.00606        6.42998        -999.25       15.97633      -39.72335
1286.50000      158.64098        6.11440        -999.25       15.46351      -39.42690
1287.00000      166.66677        5.91716        -999.25       14.91124      -39.42690
1287.50000      169.64296        5.91716        -999.25       14.28008      -39.42690
1288.00000      169.64296        5.91716        -999.25       13.64891      -38.83402
1288.50000      167.65883        5.95661        -999.25       13.29388      -38.53758
1289.00000      166.66677        5.95661        -999.25       13.13609      -38.24113
1289.50000      167.65883        5.91716        -999.25       12.97830      -39.72335
1290.00000      171.62709        5.75937        -999.25       12.54438      -41.50200
1290.50000      179.56359        5.52268        -999.25       11.71597      -43.28066
1291.00000      189.48423        5.16765        -999.25       10.65088      -44.76287
1291.50000      202.38105        4.89152        -999.25        9.70414      -45.65220
1292.00000      219.24613        4.37870        -999.25        8.87574      -45.94864
1292.50000      240.07946        4.14201        -999.25        8.32347      -45.65220
1293.00000      249.18660        3.94477        -999.25        8.08678      -46.24508
1293.50000      255.95247        3.90532        -999.25        8.08678      -46.83797
1294.00000      257.05366        3.90532        -999.25        8.24457      -47.43085
1294.50000      258.81953        3.86588        -999.25        8.59960      -47.43085
1295.00000      263.22430        3.78698        -999.25        9.03353      -48.32018
1295.50000      281.54771        3.62919        -999.25        9.46745      -51.58105
1296.00000      307.53977        3.19527        -999.25        9.82248      -56.62058
1296.50000      363.09532        2.76134        -999.25        9.78304      -62.25299
1297.00000      418.65086        2.32742        -999.25        9.19132      -66.40318
1297.50000      476.19054        2.09073        -999.25        7.96844      -70.84982
1298.00000      552.57942        1.69625        -999.25        6.07495      -75.88935
1298.50000      628.96830        1.53846        -999.25        4.49704      -79.44666
1299.00000      690.47623        1.34122        -999.25        3.86588      -81.81820
1299.50000      736.11114        1.30177        -999.25        3.55029      -82.70753
1300.00000      775.79368        1.18343        -999.25        3.47140      -83.00397
1300.50000      818.09147        1.22288        -999.25        3.58974      -82.24854
1301.00000      830.01990        1.18343        -999.25        3.66864      -82.24854
1301.50000      835.98412        1.18343        -999.25        3.78698      -82.54440
1302.00000      838.96622        1.18343        -999.25        3.98422      -83.72783
1302.50000      842.94237        1.18343        -999.25        4.18146      -85.50297
1303.00000      843.08153        1.14398        -999.25        4.33925      -86.68641
1303.50000      843.43938        1.18343        -999.25        4.49704      -87.86984
1304.00000      843.86682        1.10454        -999.25        4.65483      -89.64499
1304.50000      844.22467        1.18343        -999.25        4.69428      -90.82842
1305.00000      844.57258        1.14398        -999.25        4.65483      -90.53256
1305.50000      844.93044        1.18343        -999.25        4.33925      -88.75741
1306.00000      845.28829        1.14398        -999.25        3.86588      -86.68641
1306.50000      845.63620        1.18343        -999.25        3.39250      -84.31954
1307.00000      845.92447        1.18343        -999.25        2.95858      -82.24854
1307.50000      841.94833        1.22288        -999.25        2.68245      -79.88167
1308.00000      833.99604        1.18343        -999.25        2.56410      -77.81067
1308.50000      813.12130        1.22288        -999.25        2.52465      -77.21895
1309.00000      793.24058        1.26233        -999.25        2.56410      -77.81067
1309.50000      780.31812        1.30177        -999.25        2.56410      -77.81067
1310.00000      776.34198        1.26233        -999.25        2.48521      -75.44381
1310.50000      791.25251        1.26233        -999.25        2.44576      -71.30179
1311.00000      824.05569        1.18343        -999.25        2.40631      -66.27221
1311.50000      853.87676        1.14398        -999.25        2.40631      -64.20120
1312.00000      898.74753        1.02327        -999.25        2.44576      -67.75150
1312.50000      938.25050        1.01105        -999.25        2.44103      -76.03552
1313.00000      982.35587        0.99842        -999.25        2.43314      -84.02368
1313.50000     1041.89873        0.98619        -999.25        2.42525      -87.57398
1314.00000     1065.60648        0.97396        -999.25        2.41736      -88.75741
1314.50000     1068.34007        0.95897        -999.25        2.40789      -88.46155
1315.00000     1054.67208        0.94675        -999.25        2.43511      -87.86984
1315.50000     1038.88680        0.98619        -999.25        2.47101      -86.68641
1316.00000     1014.66215        0.98619        -999.25        2.50690      -86.09469
1316.50000      990.72565        1.02564        -999.25        2.54241      -86.09469
1317.00000      968.62823        1.06509        -999.25        2.55976      -86.68641
1317.50000      937.46522        1.10454        -999.25        2.54872      -86.39055
1318.00000      897.34594        1.22288        -999.25        2.52465      -85.20712
1318.50000      820.07954        1.34122        -999.25        2.52465      -82.24854
1319.00000      744.53283        1.49901        -999.25        2.56410      -78.10653
1319.50000      675.94437        1.61736        -999.25        2.60355      -73.37280
1320.00000      610.33802        1.77515        -999.25        2.68245      -67.75150
1320.50000      547.71377        1.93294        -999.25        2.76134      -58.87576
1321.00000      500.00006        1.97239        -999.25        2.87968      -48.22488
1321.50000      463.22074        2.20907        -999.25        2.95858      -43.78701
1322.00000      442.34599        2.28797        -999.25        3.03747      -41.71600
1322.50000      434.39371        2.32742        -999.25        3.03747      -40.82843
1323.00000      435.38774        2.28797        -999.25        3.07692      -39.94086
1323.50000      437.37581        2.28797        -999.25        3.11637      -39.64500
1324.00000      439.36389        2.24852        -999.25        3.15582      -39.64500
1324.50000      439.36389        2.28797        -999.25        3.11637      -39.94086
1325.00000      438.36985        2.24852        -999.25        3.11637      -40.82843
1325.50000      437.37581        2.28797        -999.25        3.11637      -41.42014
1326.00000      437.37581        2.28797        -999.25        3.11637      -42.60358
1326.50000      439.36389        2.28797        -999.25        3.07692      -44.08287
1327.00000      441.35196        2.24852        -999.25        3.07692      -45.26630
1327.50000      442.34599        2.24852        -999.25        3.07692      -45.85801
1328.00000      444.33406        2.20907        -999.25        3.03747      -46.44973
1328.50000      447.31617        2.24852        -999.25        3.03747      -47.63316
1329.00000      446.32214        2.20907        -999.25        2.99803      -48.52073
1329.50000      445.32810        2.24852        -999.25        2.99803      -48.81659
1330.00000      442.34599        2.24852        -999.25        2.95858      -48.81659
