~Version ---------------------------------------------------
VERS. 2.0 : CWLS LOG ASCII STANDARD - VERSION 2.0
WRAP. NO  : One line per depth step
DLM . SPACE : Column Data Section Delimiter
~Well ------------------------------------------------------
STRT.F          866 : START DEPTH
STOP.F       1785.0 : STOP DEPTH
STEP.F          0.5 : STEP
NULL.       -999.25 : NULL VALUE
COMP.                 WALSH & WATTS, INC, : COMPANY
WELL.                         SALMON E 41 : WELL
FLD .                        NORTH NOCONA : FIELD
CNTY.                            MONTAGUE : COUNTY
STAT.                               TEXAS : STATE
CTRY.                                 USA : COUNTRY
SEC .                                     : SECTION
TWP .                                     : TOWNSHIP
RGE .                                     : RANGE
LOC . 300' N OF NO. 40
150' W OF EL & 385' E OF NO. 87
F. ROBERTSON SURVEY : LOCATION
EKB .F                          : ELEVATION KELLY BUSHING
EDF .F                          : ELEVATION DERRICK FLOOR
EGL .F                      878 : ELEVATION GROUND LEVEL
PDAT.              GROUND LEVEL : PERMANENT DATUM
EPD .                       878 : ELEVATION PERMANENT DATUM
APD .                           : ABOVE PERMANENT DATUM
LMF .                        KB : LOG MEASURED FROM
DMF .                        KB : DRILLING MEASURED FROM
API .            42337037790000 : API NUMBER
UWI .            42337037790000 : UWI NUMBER
DIGC.                     NthDS : DIGITIZING COMPANY
~Params ----------------------------------------------------
SRVC.                LANE WELLS : LOGGING COMPANY
LOG .                        AC : LOG
DATE.                1965-12-01 : RUN DATE
RUN .                         1 : RUN NUMBER
TDD .F                     1790 : TOTAL DEPTH DRILLER
TDL .F                     1791 : TOTAL DEPTH LOGGER
BOTL.F                     1784 : BOTTOM LOGGED INTERVAL
TOPL.F                      880 : TOP LOGGED INTERVAL
CSGS.IN                         : CASING SIZE
CSGD.F                          : CASING DRILLER
CSGL.F                          : CASING LOGGER
BS  .IN                       9 : BIT SIZE
MUD .                       GEL : MUD TYPE
MUDD.                        10 : MUD DENSITY
MUDV.                        80 : MUD VISCOSITY
PH  .                       9.0 : MUD PH
FL  .                       6.8 : FLUID LOSS
MUDS.                       PIT : SOURCE OF SAMPLE
RM  .OHMM                  1.95 : MUD RESISTIVITY
RMT .DEGF                    74 : RM TEMPERATURE
RMF .OHMM                   1.5 : MUD FILTRATE RESISTIVITY
RMFT.DEGF                    74 : RMF TEMPERATURE
RMC .OHMM                   2.3 : MUD CAKE RESISTIVITY
RMCT.DEGF                    74 : RMC TEMPERATURE
RMFS.                  MEASURED : RMF SOURCE
RMCS.                           : RMC SOURCE
RMBH.OHMM                   1.5 : MUD RESISTIVITY AT BHT
BHT .DEGF                    97 : BOTTOM HOLE TEMPERATURE
TIMC.                           : TIME CIRCULATION STOPPED
TIML.                           : TIME LOGGER ON BOTTOM
TMAX.DEGF                    97 : MAXIMUM RECORDED TEMPERATURE
UNIT.                    L-5172 : EQUIPMENT NUMBER
BASE.                      W.F. : BASE LOCATION
ENG .             ADAMS & BAKER : RECORDED BY
WIT .                   MR. NIX : WITNESSED BY
~Curve Information -----------------------------------------
DEPT.F          :DEPTH
CALS.IN         :
DT.US/F         :
SP.MV           :
~ASCII ------------------------------------------------------
# ...
1298.00000        8.78000       96.21271      -55.17602
1298.50000        8.75280       99.85223      -59.04902
1299.00000        8.72540      102.28441      -62.92502
1299.50000        8.69820       99.88825      -66.80102
1300.00000        8.67100       98.78838      -69.32702
1300.50000        8.68340       97.62718      -65.59202
1301.00000        8.68760       97.69933      -63.00002
1301.50000        8.69160       97.09025      -61.50002
1302.00000        8.69580       95.83074      -57.00002
1302.50000        8.70000       95.12236      -55.20002
1303.00000        8.70420       98.11736      -54.30002
1303.50000        8.70840       94.35637      -54.30002
1304.00000        8.71260       92.90983      -54.90002
1304.50000        8.71660       94.30207      -56.40002
1305.00000        8.71880       96.76944      -57.00002
1305.50000        8.71300       99.56352      -60.60002
1306.00000        8.70700      102.35860      -62.40002
1306.50000        8.70000      103.27881      -67.50002
1307.00000        8.69420      101.95673      -69.90002
1307.50000        8.68820       98.59494      -71.70002
1308.00000        8.68240       95.83593      -72.60002
1308.50000        8.68240       95.06797      -71.40002
1309.00000        8.68620       96.44398      -69.90002
1309.50000        8.69000       98.07025      -68.50502
1310.00000        8.69380       98.02721      -64.53002
1310.50000        8.69760       98.82362      -60.55502
1311.00000        8.72180      100.61274      -56.58002
1311.50000        8.77640       98.36316      -52.84202
1312.00000        8.84440       95.09472      -50.05802
1312.50000        8.96660       95.90073      -48.60002
1313.00000        9.03140       94.60447      -47.40003
1313.50000        9.01720       92.47802      -45.90003
1314.00000        9.00280       93.14799      -44.40003
1314.50000        8.98860       94.99967      -44.10003
1315.00000        8.97420       96.85235      -44.40003
1315.50000        8.96000       96.83414      -45.60003
1316.00000        8.94580       96.06121      -46.50003
1316.50000        8.93140       94.40745      -47.28003
1317.00000        8.91720       93.41606      -48.57902
1317.50000        8.90280       95.17241      -49.88102
1318.00000        8.88860       92.39354      -51.00002
1318.50000        8.87620       92.09727      -52.20002
1319.00000        8.86480       94.48255      -51.30002
1319.50000        8.85520       95.27863      -50.40002
1320.00000        8.84580       93.95655      -48.90002
1320.50000        8.84260       92.66724      -47.31003
1321.00000        8.84940       91.51001      -45.66003
1321.50000        8.85600       92.96150      -45.09003
1322.00000        8.85500       94.39312      -45.24003
1322.50000        8.84220       94.91612      -46.92003
1323.00000        8.82940       92.50964      -49.62002
1323.50000        8.81680       94.62944      -52.32002
1324.00000        8.80400       96.48510      -56.47502
1324.50000        8.79120       92.90087      -61.59902
1325.00000        8.77860       89.70293      -65.40002
1325.50000        8.76320       90.77011      -68.10002
1326.00000        8.75060       90.66848      -67.80002
1326.50000        8.73780       92.67541      -65.45102
1327.00000        8.72500       94.17457      -62.57402
1327.50000        8.76280       94.98257      -59.70002
1328.00000        8.83420       94.51252      -53.70002
1328.50000        8.90580       93.19044      -47.70003
1329.00000        8.92440       94.85642      -42.90003
1329.50000        8.93000       96.57802      -41.10003
1330.00000        8.93560       97.26189      -41.10003
1330.50000        8.94120       98.37177      -41.10003
1331.00000        8.94660       99.58692      -41.10003
1331.50000        8.95340       97.60248      -42.30003
1332.00000        8.95880       93.25956      -44.10003
1332.50000        8.92220       92.66538      -45.00003
1333.00000        8.87480       94.23140      -47.10003
1333.50000        8.82740       94.17743      -51.95102
1334.00000        8.78000       94.16419      -56.19902
1334.50000        8.76580       94.30684      -59.25002
1335.00000        8.75140       93.97979      -61.50002
1335.50000        8.73720       93.53457      -63.60002
1336.00000        8.72280       94.17474      -63.30002
1336.50000        8.70860       95.85165      -58.50002
1337.00000        8.69420       97.02509      -57.60002
1337.50000        8.68000       96.08335      -55.20002
1338.00000        8.87200       95.29652      -49.80002
1338.50000        8.99940       96.56628      -47.40003
1339.00000        8.99700       96.28722      -43.80003
1339.50000        8.99440       94.55105      -42.30003
1340.00000        8.99180       94.69172      -41.70003
1340.50000        8.98920       95.24947      -41.70003
1341.00000        8.98660       93.73474      -41.40003
1341.50000        8.98420       94.59338      -40.80003
1342.00000        8.98160       95.45302      -41.70003
1342.50000        8.96440       96.31265      -42.30003
1343.00000        8.92520       97.17130      -43.50003
1343.50000        8.88600       95.67643      -45.30003
1344.00000        8.83920       93.59268      -49.20002
1344.50000        8.80000       94.43544      -50.70002
1345.00000        8.79880       94.88197      -54.52502
1345.50000        8.79760       94.57875      -59.40002
1346.00000        8.79640       94.27454      -64.97102
1346.50000        8.79520       93.06269      -72.82502
1347.00000        8.79420       92.50227      -77.10002
1347.50000        8.79300       94.96203      -78.60002
1348.00000        8.79180       92.19606      -78.30002
1348.50000        8.79060       88.74192      -77.10002
1349.00000        8.78940       88.62440      -74.49902
1349.50000        8.78820       92.00239      -70.35002
1350.00000        8.78700       91.64337      -66.30002
1350.50000        8.80560       87.90998      -66.00002
1351.00000        8.80440       89.27716      -68.70002
1351.50000        8.80320       94.04572      -70.50002
1352.00000        8.80220       99.76779      -70.80002
1352.50000        8.80100       98.67383      -68.55002
1353.00000        8.82220       94.90458      -66.30002
1353.50000        8.93340       94.89229      -58.80002
1354.00000        9.04440       94.99354      -51.30002
1354.50000        9.15560       94.49719      -47.66703
1355.00000        9.21360       96.49086      -45.00003
1355.50000        9.24100       97.98653      -43.50003
1356.00000        9.26360       95.70931      -42.60003
1356.50000        9.28640       94.17445      -41.40003
1357.00000        9.29520       95.51673      -40.50003
1357.50000        9.28360       96.86001      -41.40003
1358.00000        9.27180       96.00310      -42.00003
1358.50000        9.26000       96.25375      -42.60003
1359.00000        9.24820       96.60401      -42.60003
1359.50000        9.23640       94.50308      -42.30003
1360.00000        9.22480       94.91409      -42.60003
1360.50000        9.21060       95.13221      -43.20003
1361.00000        9.19880       93.92968      -42.90003
1361.50000        9.18700       92.72815      -43.50003
1362.00000        9.17520       90.46089      -44.70003
1362.50000        9.16360       89.04622      -45.30003
1363.00000        9.15180       91.66439      -45.90003
1363.50000        9.14000       94.69989      -45.60003
1364.00000        9.13100       96.74236      -46.20003
1364.50000        9.12180       97.40868      -46.50003
1365.00000        9.11280       98.78284      -46.80003
1365.50000        9.10180       98.69784      -45.00003
1366.00000        9.10000       97.37977      -44.10003
1366.50000        9.10000       95.97705      -42.90003
1367.00000        9.10000       95.07034      -42.00003
1367.50000        9.13300       96.08494      -42.00003
1368.00000        9.17420       97.38140      -42.00003
1368.50000        9.21520       96.75557      -42.00003
1369.00000        9.25640       95.29341      -42.00003
