~Version ---------------------------------------------------
VERS. 2.0 : CWLS LOG ASCII STANDARD - VERSION 2.0
WRAP. NO  : One line per depth step
DLM . SPACE : Column Data Section Delimiter
~Well ------------------------------------------------------
STRT.F        490.5 : START DEPTH
STOP.F       1005.0 : STOP DEPTH
STEP.F          0.5 : STEP
NULL.       -999.25 : NULL VALUE
COMP.                       WALSH & WATTS : COMPANY
WELL.                           HYNDS B 6 : WELL
FLD .                           N. NOCONA : FIELD
CNTY.                            MONTAGUE : COUNTY
STAT.                               TEXAS : STATE
CTRY.                                 USA : COUNTRY
SEC .                                     : SECTION
TWP .                                     : TOWNSHIP
RGE .                                     : RANGE
LOC . 550' FR W/L OF LEASE, 150' FR S/L OF LEASE, 400' FR NO 4 WELL, 300' FR NO 3 WELL : LOCATION
EKB .F                          : ELEVATION KELLY BUSHING
EDF .F                          : ELEVATION DERRICK FLOOR
EGL .F                          : ELEVATION GROUND LEVEL
PDAT.                        GL : PERMANENT DATUM
EPD .                           : ELEVATION PERMANENT DATUM
APD .                         6 : ABOVE PERMANENT DATUM
LMF .                        KB : LOG MEASURED FROM
DMF .                        KB : DRILLING MEASURED FROM
API .            42337038650000 : API NUMBER
UWI .                           : UWI NUMBER
DIGC.                     NthDS : DIGITIZING COMPANY
~Params ----------------------------------------------------
SRVC.              SCHLUMBERGER : LOGGING COMPANY
LOG .                        ML : LOG
DATE.                1957-10-13 : RUN DATE
RUN .                         1 : RUN NUMBER
TDD .F                     1015 : TOTAL DEPTH DRILLER
TDL .F                     1008 : TOTAL DEPTH LOGGER
BOTL.F                     1005 : BOTTOM LOGGED INTERVAL
TOPL.F                      500 : TOP LOGGED INTERVAL
CSGS.IN                         : CASING SIZE
CSGD.F                          : CASING DRILLER
CSGL.F                          : CASING LOGGER
BS  .IN                         : BIT SIZE
MUD .                       GEL : MUD TYPE
MUDD.                        10 : MUD DENSITY
MUDV.                        53 : MUD VISCOSITY
PH  .                           : MUD PH
FL  .                           : FLUID LOSS
MUDS.                   MUD PIT : SOURCE OF SAMPLE
RM  .OHMM                   1.7 : MUD RESISTIVITY
RMT .DEGF                    68 : RM TEMPERATURE
RMF .OHMM                   1.1 : MUD FILTRATE RESISTIVITY
RMFT.DEGF                    90 : RMF TEMPERATURE
RMC .OHMM                   1.5 : MUD CAKE RESISTIVITY
RMCT.DEGF                    90 : RMC TEMPERATURE
RMFS.                           : RMF SOURCE
RMCS.                           : RMC SOURCE
RMBH.OHMM                   1.3 : MUD RESISTIVITY AT BHT
BHT .DEGF                    90 : BOTTOM HOLE TEMPERATURE
TIMC.                           : TIME CIRCULATION STOPPED
TIML.                           : TIME LOGGER ON BOTTOM
TMAX.DEGF                    90 : MAXIMUM RECORDED TEMPERATURE
UNIT.                       785 : EQUIPMENT NUMBER
BASE.                        WF : BASE LOCATION
ENG .                     JONES : RECORDED BY
WIT .                       NIX : WITNESSED BY
~Curve Information -----------------------------------------
DEPT.F          :DEPTH
CALM.IN         :
MINV.OHMM       :
MNOR.OHMM       :
SP.MV           :
~ASCII ------------------------------------------------------
# ...
663.00000        8.22617        9.51799       11.12975     -107.51984
663.50000        8.33639        8.92424        8.81629     -107.74419
664.00000        8.45205        9.40644       10.18371     -108.81235
664.50000        8.43362        9.12828       10.11174     -109.88052
665.00000        8.41501        8.69934        9.90303     -110.09789
665.50000        8.39659        8.06061        8.48343     -110.31795
666.00000        8.38889        6.80114        6.90189     -109.93145
666.50000        8.38818        7.08901        6.51326     -109.14237
667.00000        8.38746        6.70362        6.28295     -108.39624
667.50000        8.38675        7.14299        7.26894     -107.81650
668.00000        8.38604        7.46686        7.20884     -107.69571
668.50000        8.38532        7.62159        7.05303     -107.69032
669.00000        8.38479        7.72954        7.40568     -107.68493
669.50000        8.38407        7.69356        6.98106     -107.57756
670.00000        8.38336        7.88068        6.90909     -107.07029
670.50000        8.38264       10.18371       10.03977     -106.23290
671.00000        8.38193        9.19413       10.30966     -105.17812
671.50000        8.38139        8.79218        9.60795     -103.91023
672.00000        8.38068        7.73674        8.02462     -102.85545
672.50000        8.37986        8.09659        7.61331     -101.38467
673.00000        8.37914        6.92348        6.81661      -99.05236
673.50000        8.37843        8.06061        8.11458     -100.12053
674.00000        8.37771        8.06061        8.04261     -101.45708
674.50000        8.37771        7.96453        7.89867     -101.18330
675.00000        8.37807        7.77273        7.88068      -99.83598
675.50000        8.37843        7.95265        7.91055      -98.48865
676.00000        8.37879        7.43087        7.34091      -98.99589
676.50000        8.37915        7.70076        7.67089      -99.96743
677.00000        8.37951        7.57229        7.56401     -100.20091
677.50000        8.37987        8.06061        8.34345      -99.94324
678.00000        8.38023        8.70833        8.72632      -99.68557
678.50000        8.38059        8.72992        8.73532      -99.56746
679.00000        8.38095        8.60362        8.50430      -99.67640
679.50000        8.38131        8.12934        8.11458      -99.76763
680.00000        8.38166        8.42045        8.45644      -99.66294
680.50000        8.38202        9.37045        8.86415      -99.50726
681.00000        8.34935        7.89867        7.94221      -99.14760
681.50000        8.29478       10.32765       10.41006      -98.79062
682.00000        8.24003       10.27979       10.11174      -98.43097
682.50000        8.43721        8.58023        9.44242      -98.16524
683.00000        8.43757       10.42373       10.80445      -98.26184
683.50000        8.43793       11.09881       13.07689      -98.36113
684.00000        8.49787       10.82244       12.89445      -98.59729
684.50000        8.52811       11.38920       12.66667      -98.92739
685.00000        8.52847       10.97538       11.44318      -99.00252
685.50000        8.52883        9.22759        9.78788      -98.05777
686.00000        8.54261        9.64394       10.89837      -96.40717
686.50000        8.56533       10.25064       11.59216      -91.03296
687.00000        8.59790        9.32511       11.18409      -85.69471
687.50000        8.66982       16.20505       14.78977      -79.78480
688.00000        8.72619       40.01515       27.20454      -73.85074
688.50000        8.71892       39.97916       40.01515      -68.16896
689.00000        8.71284       11.15530       16.00426      -63.53925
689.50000        8.77779        6.33333        7.72487      -59.22893
690.00000        8.88998        3.70644        2.98674      -55.38829
690.50000        8.75167        3.38258        2.74924      -54.69207
691.00000        8.53965        3.77841        3.23504      -55.52674
691.50000        8.50297        3.92235        3.39553      -56.71299
692.00000        8.51013        4.30019        3.06843      -58.31793
692.50000        8.48472        3.91731        3.07670      -62.33835
693.00000        8.32852        6.63561        5.46970      -68.45220
693.50000        8.21920        9.52699        9.42803      -75.47856
694.00000        8.14137        8.87494        9.28409      -77.88866
694.50000        7.97085        8.62917        8.70833      -75.82474
695.00000        7.80052        8.42045        7.55682      -70.63143
695.50000        7.83577        8.43845        7.03144      -66.06345
696.00000        8.00217        6.27324        4.34697      -58.61032
696.50000        8.23853        5.50568        3.70644      -53.70686
697.00000        8.41191        5.42472        3.40669      -53.96986
697.50000        8.34328        3.94394        3.00114      -52.08576
698.00000        8.25167        3.79028        2.74528      -49.77922
698.50000        8.22823        4.29119        2.63301      -50.82054
699.00000        7.69772        3.23864        3.20265      -52.60530
699.50000        7.16714        3.31780        3.45455      -52.80657
700.00000        6.89200        2.95076        2.77083      -53.06481
700.50000        7.47346        2.36135        2.47650      -52.91656
701.00000        8.05345        2.71462        2.39184      -51.56350
701.50000        8.21025        2.87178        2.88078      -50.51824
702.00000        8.20685        2.44959        3.24125      -49.35896
702.50000        7.80206        2.13032        2.06159      -48.76460
703.00000        7.49626        2.01903        2.32490      -49.66064
703.50000        7.10047        2.39390        3.04522      -52.78957
704.00000        6.57868        2.52407        3.27088      -54.54150
704.50000        6.43794        2.09301        2.87424      -54.51143
705.00000        6.40322        2.50746        2.48623      -51.80838
705.50000        6.39515        2.34616        2.20870      -47.56903
706.00000        6.37433        2.18126        2.10209      -46.63177
706.50000        6.37778        2.50323        2.50935      -45.69181
707.00000        6.38104        2.38403        2.65391      -46.05803
707.50000        6.38431        1.88087        1.80890      -46.98376
708.00000        6.38757        2.31332        2.27733      -47.90950
708.50000        6.39101        2.20599        2.06205      -47.73634
709.00000        6.53576        2.47650        2.42253      -47.73327
709.50000        6.89758        1.93736        2.39221      -49.08021
710.00000        7.38054        1.88401        2.27097      -49.51454
710.50000        7.72689        1.89772        2.19675      -49.34408
711.00000        7.86753        1.90950        2.14017      -48.05852
711.50000        7.86252        1.92093        2.15447      -46.77296
712.00000        7.85732        1.93235        2.16913      -45.48740
712.50000        7.85231        1.94413        2.24712      -44.11213
713.00000        7.74199        1.95556        2.24775      -47.97816
713.50000        7.46463        2.06018        2.32755      -52.98898
714.00000        7.18728        2.22670        2.86075      -58.55600
714.50000        7.23554        2.39358        3.14925      -61.46893
715.00000        7.71545        1.94440        2.52015      -59.79997
715.50000        8.28445        2.77531        2.43094      -60.92280
716.00000        8.29675        3.90694        2.97134      -63.74123
716.50000        8.30686        6.04865        5.23900      -66.56236
717.00000        8.31714        6.58545        6.06727      -66.69160
717.50000        8.32725        4.83003        4.62852      -64.96054
718.00000        8.33753        3.40567        3.13938      -62.93248
718.50000        8.34764        4.95363        3.78773      -62.02222
719.00000        8.35792        4.88229        4.18959      -62.43165
719.50000        8.46306        3.42806        3.60547      -60.62769
720.00000        8.56839        3.12030        3.12534      -58.93713
