~Version ---------------------------------------------------
VERS. 2.0 : CWLS LOG ASCII STANDARD - VERSION 2.0
WRAP. NO  : One line per depth step
DLM . SPACE : Column Data Section Delimiter
~Well ------------------------------------------------------
STRT.F        986.5 : START DEPTH
STOP.F       1761.0 : STOP DEPTH
STEP.F          0.5 : STEP
NULL.       -999.25 : NULL VALUE
COMP.                 WALSH & WATTS, INC. : COMPANY
WELL.                       SALMON D E 6D : WELL
FLD .                             REGULAR : FIELD
CNTY.                            MONTAGUE : COUNTY
STAT.                               TEXAS : STATE
CTRY.                                 USA : COUNTRY
SEC .                                     : SECTION
TWP .                                     : TOWNSHIP
RGE .                                     : RANGE
LOC .  460 FSL 755 FEL
F. ROBERTSON A-620 : LOCATION
EKB .F                      880 : ELEVATION KELLY BUSHING
EDF .F                      878 : ELEVATION DERRICK FLOOR
EGL .F                      874 : ELEVATION GROUND LEVEL
PDAT.                        GL : PERMANENT DATUM
EPD .                       874 : ELEVATION PERMANENT DATUM
APD .                           : ABOVE PERMANENT DATUM
LMF .                        KB : LOG MEASURED FROM
DMF .                        KB : DRILLING MEASURED FROM
API .            42337016430000 : API NUMBER
UWI .            42337016430000 : UWI NUMBER
DIGC.                     NthDS : DIGITIZING COMPANY
~Params ----------------------------------------------------
SRVC.              SCHLUMBERGER : LOGGING COMPANY
LOG .                      DIFL : LOG
DATE.                2005-08-03 : RUN DATE
RUN .                         1 : RUN NUMBER
TDD .F                     1750 : TOTAL DEPTH DRILLER
TDL .F                     1750 : TOTAL DEPTH LOGGER
BOTL.F                     1750 : BOTTOM LOGGED INTERVAL
TOPL.F                      980 : TOP LOGGED INTERVAL
CSGS.IN                       7 : CASING SIZE
CSGD.F                      980 : CASING DRILLER
CSGL.F                      980 : CASING LOGGER
BS  .IN                     6.5 : BIT SIZE
MUD .                       FGM : MUD TYPE
MUDD.                       0.2 : MUD DENSITY
MUDV.                        80 : MUD VISCOSITY
PH  .                        11 : MUD PH
FL  .                         7 : FLUID LOSS
MUDS.                       PIT : SOURCE OF SAMPLE
RM  .OHMM                  1.70 : MUD RESISTIVITY
RMT .DEGF                    70 : RM TEMPERATURE
RMF .OHMM                  1.33 : MUD FILTRATE RESISTIVITY
RMFT.DEGF                    70 : RMF TEMPERATURE
RMC .OHMM                  2.67 : MUD CAKE RESISTIVITY
RMCT.DEGF                    70 : RMC TEMPERATURE
RMFS.                      MEAS : RMF SOURCE
RMCS.                       CAL : RMC SOURCE
RMBH.OHMM                  1.41 : MUD RESISTIVITY AT BHT
BHT .DEGF                    98 : BOTTOM HOLE TEMPERATURE
TIMC.                     2100  : TIME CIRCULATION STOPPED
TIML.                     0300  : TIME LOGGER ON BOTTOM
TMAX.DEGF                    98 : MAXIMUM RECORDED TEMPERATURE
UNIT.                       303 : EQUIPMENT NUMBER
BASE.                  WITCHATA : BASE LOCATION
ENG .              DAVID PARKER : RECORDED BY
WIT .              MR. BURLESON : WITNESSED BY
~Curve Information -----------------------------------------
DEPT.F          :DEPTH
GRR.API         :
ILD.OHMM        :
ILM.OHMM        :
SFL.OHMM        :
SP.MV           :
~ASCII ------------------------------------------------------
# ...
1409.50000      117.03642        3.61765        3.77803        6.21520       -1.80139
1410.00000      121.83542        3.63972        3.77630        6.22151       -1.47871
1410.50000      129.94096        3.66192        3.77457        6.22841       -0.99171
1411.00000      133.11676        3.67003        3.78781        6.23473       -0.78527
1411.50000      132.02413        3.66835        3.80110        6.24107       -0.99966
1412.00000      129.34136        3.66667        3.81444        6.24798       -1.49860
1412.50000      125.65761        3.66499        3.82747        6.26009       -2.42239
1413.00000      123.99686        3.66500        3.84089        6.29480       -3.16582
1413.50000      123.68577        3.67210        3.85437        6.32969       -3.17981
1414.00000      120.54911        3.67888        3.86789        6.36537       -3.19380
1414.50000      113.72415        3.68737        3.86612        6.40066       -3.20780
1415.00000      111.20971        3.69452        3.86435        6.42607       -3.22179
1415.50000      113.30338        3.70134        3.86223        6.44505       -3.23578
1416.00000      116.17858        3.70851        3.86046        6.46409       -3.11751
1416.50000      119.47462        3.71570        3.85869        6.48318       -2.79483
1417.00000      119.71362        3.71024        3.85692        6.50233       -2.47616
1417.50000      117.77031        3.69694        3.85515        6.51014       -2.63444
1418.00000      118.71571        3.68336        3.85339        6.47070       -2.78871
1418.50000      119.66110        3.67016        3.85162        6.43210       -3.07924
1419.00000      121.22572        3.65667        3.84986        6.39313       -4.23549
1419.50000      122.94364        3.64357        3.84810        6.35441       -5.83942
1420.00000      124.66156        3.64794        3.84633        6.31649       -5.99769
1420.50000      126.37949        3.65670        3.84457        6.27823       -6.15597
1421.00000      126.58241        3.66581        3.84281        6.27247       -7.08777
1421.50000      126.40359        3.66818        3.83822        6.28752       -8.21596
1422.00000      127.76080        3.66650        3.83258        6.30609       -8.32213
1422.50000      129.11500        3.66482        3.82730        6.32123       -8.42430
1423.00000      132.71764        3.66315        3.82167        6.33640       -8.53047
1423.50000      136.88240        3.66147        3.81640        6.35160       -8.63664
1424.00000      135.66953        3.65979        3.81114        6.35162       -8.83500
1424.50000      132.65310        3.65811        3.80554        6.32886       -9.10149
1425.00000      129.03548        3.64366        3.80030        6.30560       -8.86298
1425.50000      125.26757        3.62593        3.79471        6.28301       -8.70062
1426.00000      123.06274        3.60862        3.78913        6.25992       -8.63846
1426.50000      121.24868        3.59105        3.78147        6.23749       -8.58031
1427.00000      122.34738        3.58710        3.77382        6.22431       -8.51815
1427.50000      124.17352        3.59041        3.76481        6.21802       -8.46000
1428.00000      123.59791        3.59406        3.75754        6.21174       -8.39784
1428.50000      122.64956        3.59738        3.74995        6.20546       -9.41381
1429.00000      123.32142        3.60103        3.74478        6.19919       -9.49593
1429.50000      124.54035        3.60469        3.74306        6.19236       -8.56806
1430.00000      124.29239        3.60337        3.74135        6.18610       -9.23134
1430.50000      123.06449        3.59509        3.73964        6.17985       -9.89060
1431.00000      121.83960        3.58683        3.73792        6.17361      -10.54987
1431.50000      120.61170        3.57859        3.73621        6.16738      -11.20913
1432.00000      121.14829        3.57037        3.72077        6.16114      -11.87240
1432.50000      124.97037        3.56053        3.70539        6.15435      -12.53167
1433.00000      123.86572        3.54777        3.69007        6.14814      -12.71800
1433.50000      122.51457        3.53538        3.67482        6.14193      -13.28108
1434.00000      121.15141        3.53539        3.65963        6.13459      -14.52550
1434.50000      119.78824        3.55434        3.67992        6.12783      -14.29100
1435.00000      118.60544        3.57305        3.69997        6.14254      -14.20479
1435.50000      118.59494        3.59220        3.72049        6.17147      -14.21878
1436.00000      119.78683        3.61112        3.74077        6.19997      -14.53336
1436.50000      121.27930        3.63047        3.76150        6.22918      -15.29683
1437.00000      122.77178        3.64958        3.78201        6.28393      -15.33087
1437.50000      122.57492        3.66407        3.80823        6.33917      -15.17652
1438.00000      122.29990        3.67896        3.83570        6.39489      -15.59131
1438.50000      121.91367        3.69357        3.86336        6.45110      -16.85977
1439.00000      121.52743        3.70857        3.89158        6.50781      -17.02206
1439.50000      120.91575        3.72330        3.91965        6.56501      -16.91180
1440.00000      120.30407        3.74118        3.90848        6.53908      -16.79754
1440.50000      120.29148        3.72606        3.89484        6.51385      -16.68728
1441.00000      122.62772        3.71066        3.88374        6.48812      -16.57703
1441.50000      126.52494        3.69566        3.87232        6.46249      -16.46677
1442.00000      127.17576        3.68039        3.86129        6.43697      -16.21624
1442.50000      125.92080        3.66551        3.85029        6.41213      -15.76531
1443.00000      125.69388        3.65036        3.83932        6.38680      -15.31038
1443.50000      125.81265        3.63561        3.83580        6.36157      -14.85544
1444.00000      125.60376        3.63160        3.83793        6.33644      -14.40452
1444.50000      124.77265        3.64367        3.83970        6.31200      -13.94958
1445.00000      123.80417        3.65611        3.84183        6.32831      -13.72309
1445.50000      124.82681        3.69948        3.84361        6.40632      -13.83728
1446.00000      119.87546        3.74370        3.84539        6.48588      -13.95147
1446.50000      112.35013        3.78811        3.84753        6.56644      -14.06566
1447.00000      109.10825        3.74855        3.84931        6.53448      -14.13977
1447.50000      107.78116        3.70975        3.85145        6.46268      -14.15376
1448.00000      105.88594        3.67101        3.85323        6.40286      -15.02544
1448.50000      103.84644        3.63268        3.82742        6.34417      -15.42820
1449.00000      101.80694        3.59541        3.80213        6.26580      -15.51834
1449.50000       99.76744        3.55918        3.77666        6.18326      -15.60448
1450.00000       98.59896        3.53013        3.75655        6.11813      -15.89594
1450.50000      100.09144        3.66587        3.91177        6.35464      -15.98207
1451.00000      103.98867        3.64428        3.88443        6.32710      -15.92392
1451.50000      109.23857        3.68913        3.85692        6.33866      -15.26859
1452.00000      113.65281        3.73488        3.87252        6.35025      -14.61325
1452.50000      116.81659        3.83132        4.06391        6.53706      -13.96193
1453.00000      116.94738        4.00847        4.26475        7.29594      -13.83965
1453.50000      113.67544        4.19381        4.43279        7.49398      -14.07809
1454.00000      110.05782        4.19027        4.42906        7.08397      -13.42275
1454.50000      107.85600        4.13882        4.30956        7.03187      -12.46161
1455.00000      106.00888        3.89255        4.16667        7.03954      -12.03072
1455.50000      104.89521        3.40187        4.02852        6.28559      -11.59983
1456.00000      103.78454        3.06224        3.60402        5.25814      -11.16494
