~Version ---------------------------------------------------
VERS. 2.0 : CWLS LOG ASCII STANDARD - VERSION 2.0
WRAP. NO  : One line per depth step
DLM . SPACE : Column Data Section Delimiter
~Well ------------------------------------------------------
STRT.F          100 : START DEPTH
STOP.F       1786.5 : STOP DEPTH
STEP.F          0.5 : STEP
NULL.       -999.25 : NULL VALUE
COMP.                 WALSH & WATTS, INC. : COMPANY
WELL.                         SALMON E 41 : WELL
FLD .                        NORTH NOCONA : FIELD
CNTY.                            MONTAGUE : COUNTY
STAT.                               TEXAS : STATE
CTRY.                                 USA : COUNTRY
SEC .                                     : SECTION
TWP .                                     : TOWNSHIP
RGE .                                     : RANGE
LOC . 300' N OF NO. 40
150' W OF EL & 385' E OF NO. 87
F. ROBERTSON SURVEY : LOCATION
EKB .F                          : ELEVATION KELLY BUSHING
EDF .F                          : ELEVATION DERRICK FLOOR
EGL .F                      878 : ELEVATION GROUND LEVEL
PDAT.              GROUND LEVEL : PERMANENT DATUM
EPD .                       878 : ELEVATION PERMANENT DATUM
APD .                           : ABOVE PERMANENT DATUM
LMF .                        KB : LOG MEASURED FROM
DMF .                        KB : DRILLING MEASURED FROM
API .            42337037790000 : API NUMBER
UWI .            42337037790000 : UWI NUMBER
DIGC.                     NthDS : DIGITIZING COMPANY
~Params ----------------------------------------------------
SRVC.                LANE WELLS : LOGGING COMPANY
LOG .                       IEL : LOG
DATE.                1965-12-01 : RUN DATE
RUN .                         1 : RUN NUMBER
TDD .F                     1790 : TOTAL DEPTH DRILLER
TDL .F                     1791 : TOTAL DEPTH LOGGER
BOTL.F                     1787 : BOTTOM LOGGED INTERVAL
TOPL.F                      100 : TOP LOGGED INTERVAL
CSGS.IN                         : CASING SIZE
CSGD.F                          : CASING DRILLER
CSGL.F                          : CASING LOGGER
BS  .IN                       9 : BIT SIZE
MUD .                       GEL : MUD TYPE
MUDD.                        10 : MUD DENSITY
MUDV.                        80 : MUD VISCOSITY
PH  .                       9.0 : MUD PH
FL  .                       6.8 : FLUID LOSS
MUDS.                       PIT : SOURCE OF SAMPLE
RM  .OHMM                  1.95 : MUD RESISTIVITY
RMT .DEGF                    74 : RM TEMPERATURE
RMF .OHMM                   1.5 : MUD FILTRATE RESISTIVITY
RMFT.DEGF                    74 : RMF TEMPERATURE
RMC .OHMM                   2.3 : MUD CAKE RESISTIVITY
RMCT.DEGF                    74 : RMC TEMPERATURE
RMFS.                  MEASURED : RMF SOURCE
RMCS.                           : RMC SOURCE
RMBH.OHMM                   1.5 : MUD RESISTIVITY AT BHT
BHT .DEGF                    97 : BOTTOM HOLE TEMPERATURE
TIMC.                           : TIME CIRCULATION STOPPED
TIML.                           : TIME LOGGER ON BOTTOM
TMAX.DEGF                    97 : MAXIMUM RECORDED TEMPERATURE
UNIT.                    L-5172 : EQUIPMENT NUMBER
BASE.                      W.F. : BASE LOCATION
ENG .             ADAMS & BAKER : RECORDED BY
WIT .                   MR. NIX : WITNESSED BY
~Curve Information -----------------------------------------
DEPT.F          :DEPTH
CILD.MMHO       :
ILD.OHMM        :
ROP.FT/HR       :
SN.OHMM         :
SP.MV           :
~ASCII ------------------------------------------------------
100.00000       39.85597        3.46678        -999.25        1.19567      -32.99096
100.50000       49.80221        5.14077        -999.25        1.71454      -34.77914
101.00000       85.66432        8.48874        -999.25        3.11011      -38.36431
101.50000       98.59562       11.27872        -999.25        5.26289      -42.54945
102.00000      103.55100       10.41657        -999.25        5.06487      -43.13476
102.50000      109.49745        9.67314        -999.25        4.94653      -44.01712
103.00000      111.46185        9.40262        -999.25        4.86804      -44.30245
103.50000      113.42625        9.13209        -999.25        4.86922      -44.88776
104.00000      112.39968        9.29287        -999.25        4.98992      -44.87310
104.50000      107.38514        9.71237        -999.25        5.26998      -44.55845
105.00000      100.37662       10.56015        -999.25        5.74924      -44.54379
105.50000       90.37712       11.85693        -999.25        6.54722      -43.62917
106.00000       79.37472       13.54756        -999.25        7.74384      -43.01454
106.50000       72.36620       14.95629        -999.25        8.98006      -41.79701
107.00000       62.36671       16.88293        -999.25       10.37564      -40.28242
107.50000       55.35819       20.01856        -999.25       12.48857      -38.76783
108.00000       51.34064       20.01496        -999.25       14.00367      -37.55323
108.50000       47.31718       20.01136        -999.25       15.16021      -36.63861
109.00000       46.29060       20.00776        -999.25       15.95819      -36.02398
109.50000       47.25801       20.00416        -999.25       16.35801      -35.40641
110.00000       50.21941       20.00056        -999.25       16.04047      -35.09177
110.50000       52.18381       19.99736        -999.25       15.40422      -35.37709
111.00000       54.14821       19.99376        -999.25       14.72812      -35.96240
111.50000       58.10659       19.98921        -999.25       14.01218      -36.24773
112.00000       61.06798       18.85392        -999.25       13.69465      -37.13302
112.50000       65.02045       17.16190        -999.25       13.77551      -38.01832
113.00000       68.97883       16.21689        -999.25       14.17509      -38.60363
113.50000       72.93722       15.47107        -999.25       15.25195      -38.88896
114.00000       75.89861       14.72525        -999.25       16.32881      -38.87430
114.50000       76.86602       13.97944        -999.25       16.33023      -39.15669
115.00000       79.82741       13.59895        -999.25       15.69397      -39.44201
115.50000       81.79181       13.21807        -999.25       14.85852      -40.32731
116.00000       83.75621       12.82763        -999.25       14.30194      -40.61263
116.50000       85.71470       12.51009        -999.25       13.86488      -40.59797
117.00000       86.68211       12.15271        -999.25       13.62702      -40.58331
117.50000       88.64651       12.07421        -999.25       13.26965      -40.56865
118.00000       88.61693       11.91627        -999.25       13.07163      -40.55399
118.50000       89.58434       11.83777        -999.25       12.87385      -40.53933
119.00000       90.55175       11.67960        -999.25       12.63599      -40.82172
119.50000       93.51314       11.48158        -999.25       12.31822      -41.10705
120.00000       95.47754       11.08436        -999.25       11.84132      -41.09239
120.50000       98.43301       10.84650        -999.25       11.60346      -40.77774
121.00000      100.39742       10.52897        -999.25       11.40545      -40.76308
121.50000      102.36182       10.33095        -999.25       11.08791      -40.74842
122.00000      106.32020        9.97357        -999.25       10.77037      -40.73376
122.50000      108.28460        9.77555        -999.25       10.53251      -40.71910
123.00000      109.25201        9.65722        -999.25       10.37434      -41.00149
123.50000      110.21942        9.49904        -999.25       10.29584      -41.28682
124.00000      109.18693        9.50022        -999.25       10.33686      -41.27216
124.50000      106.16046        9.70060        -999.25       10.41772      -40.95751
125.00000      104.14281       10.06034        -999.25       10.74583      -41.24284
125.50000      100.12526       10.57968        -999.25       11.00597      -41.22818
126.00000       96.10772       10.98245        -999.25       11.43663      -41.21352
126.50000       91.09318       11.49000        -999.25       11.90991      -40.59888
127.00000       88.07262       11.99755        -999.25       12.38359      -40.28131
127.50000       84.04916       12.50509        -999.25       12.85688      -40.26665
128.00000       81.02860       13.01264        -999.25       13.42482      -40.25199
128.50000       79.00504       13.39573        -999.25       13.76425      -40.23732
129.00000       78.97546       13.53635        -999.25       14.05427      -40.52265
129.50000       78.94588       13.57737        -999.25       14.25465      -40.80798
130.00000       79.91329       13.45903        -999.25       14.29567      -41.39329
130.50000       81.87769       13.14149        -999.25       14.29685      -41.97860
131.00000       82.83918       12.90364        -999.25       14.29803      -41.66395
131.50000       84.80358       12.66578        -999.25       14.29922      -41.94634
132.00000       83.77701       12.70680        -999.25       14.38031      -41.63170
132.50000       81.75344       13.06654        -999.25       14.62054      -41.01707
133.00000       77.73590       13.58564        -999.25       15.02012      -40.10245
133.50000       73.71835       14.66274        -999.25       15.69858      -39.78780
134.00000       68.69790       15.58024        -999.25       16.57624      -38.87318
134.50000       65.67734       16.26189        -999.25       17.29454      -37.95857
135.00000       62.65679       16.94394        -999.25       18.13236      -36.74103
135.50000       59.63623       18.17362        -999.25       19.48834      -36.12640
136.00000       57.61267       19.20546        -999.25       19.80824      -36.71171
136.50000       57.58308       19.58034        -999.25       19.80942      -37.89699
137.00000       59.54748       19.25284        -999.25       19.81060      -39.08227
137.50000       63.49995       18.45723        -999.25       19.45322      -39.96757
138.00000       67.45834       16.38697        -999.25       18.81697      -40.85287
138.50000       70.41973       15.79032        -999.25       18.18071      -40.53822
139.00000       72.38413       15.27358        -999.25       17.62413      -40.52356
139.50000       74.34853       14.87636        -999.25       16.82852      -40.50597
140.00000       78.30691       14.43907        -999.25       16.07274      -40.49131
140.50000       81.26831       13.40465        -999.25       15.35681      -40.77663
141.00000       84.22970       12.76839        -999.25       14.84007      -40.76197
141.50000       84.19420       12.68989        -999.25       14.76157      -40.74731
142.00000       81.17364       13.08948        -999.25       14.96195      -40.73265
142.50000       78.15309       13.52890        -999.25       15.28185      -40.41801
143.00000       72.14156       14.23405        -999.25       16.04023      -39.80337
143.50000       65.13304       16.03424        -999.25       17.36689      -38.28585
144.00000       60.11850       18.20829        -999.25       18.97999      -37.37124
144.50000       54.10105       19.94785        -999.25       19.94762      -35.85665
145.00000       50.08351       21.14299        -999.25       22.24488      -34.34206
145.50000       47.06295       22.14631        -999.25       23.76590      -33.72743
146.00000       45.03939       23.42152        -999.25       24.67810      -33.71277
146.50000       45.00981       23.72579        -999.25       25.59030      -33.39812
147.00000       43.98323       24.10414        -999.25       26.50251      -33.08054
