~Version ---------------------------------------------------
VERS. 2.0 : CWLS LOG ASCII STANDARD - VERSION 2.0
WRAP. NO  : One line per depth step
DLM . SPACE : Column Data Section Delimiter
~Well ------------------------------------------------------
STRT.F          800 : START DEPTH
STOP.F       1756.5 : STOP DEPTH
STEP.F          0.5 : STEP
NULL.       -999.25 : NULL VALUE
COMP.                 WALSH & WATTS, INC. : COMPANY
WELL.                       SALMON D E 6D : WELL
FLD .                             REGULAR : FIELD
CNTY.                            MONTAGUE : COUNTY
STAT.                               TEXAS : STATE
CTRY.                                 USA : COUNTRY
SEC .                                     : SECTION
TWP .                                     : TOWNSHIP
RGE .                                     : RANGE
LOC .  460 FSL 755 FEL
F. ROBERTSON A-620 : LOCATION
EKB .F                      880 : ELEVATION KELLY BUSHING
EDF .F                      878 : ELEVATION DERRICK FLOOR
EGL .F                      874 : ELEVATION GROUND LEVEL
PDAT.                        GL : PERMANENT DATUM
EPD .                       874 : ELEVATION PERMANENT DATUM
APD .                           : ABOVE PERMANENT DATUM
LMF .                        KB : LOG MEASURED FROM
DMF .                        KB : DRILLING MEASURED FROM
API .            42337016430000 : API NUMBER
UWI .            42337016430000 : UWI NUMBER
DIGC.                     NthDS : DIGITIZING COMPANY
~Params ----------------------------------------------------
SRVC.              SCHLUMBERGER : LOGGING COMPANY
LOG .                   CNFD/ML : LOG
DATE.                2005-08-03 : RUN DATE
RUN .                         1 : RUN NUMBER
TDD .F                     1750 : TOTAL DEPTH DRILLER
TDL .F                     1750 : TOTAL DEPTH LOGGER
BOTL.F                     1750 : BOTTOM LOGGED INTERVAL
TOPL.F                      980 : TOP LOGGED INTERVAL
CSGS.IN                       7 : CASING SIZE
CSGD.F                      880 : CASING DRILLER
CSGL.F                      880 : CASING LOGGER
BS  .IN                     6.5 : BIT SIZE
MUD .                       FGM : MUD TYPE
MUDD.                       0.2 : MUD DENSITY
MUDV.                        80 : MUD VISCOSITY
PH  .                        11 : MUD PH
FL  .                         7 : FLUID LOSS
MUDS.                       PIT : SOURCE OF SAMPLE
RM  .OHMM                  1.70 : MUD RESISTIVITY
RMT .DEGF                    70 : RM TEMPERATURE
RMF .OHMM                  1.33 : MUD FILTRATE RESISTIVITY
RMFT.DEGF                    70 : RMF TEMPERATURE
RMC .OHMM                  2.67 : MUD CAKE RESISTIVITY
RMCT.DEGF                    70 : RMC TEMPERATURE
RMFS.                      MEAS : RMF SOURCE
RMCS.                       CAL : RMC SOURCE
RMBH.OHMM                  1.47 : MUD RESISTIVITY AT BHT
BHT .DEGF                    98 : BOTTOM HOLE TEMPERATURE
TIMC.                     2100  : TIME CIRCULATION STOPPED
TIML.                     0300  : TIME LOGGER ON BOTTOM
TMAX.DEGF                    98 : MAXIMUM RECORDED TEMPERATURE
UNIT.                       303 : EQUIPMENT NUMBER
BASE.                   WICHITA : BASE LOCATION
ENG .              DAVID PARKER : RECORDED BY
WIT .              MR. BURLESON : WITNESSED BY
~Curve Information -----------------------------------------
DEPT.F          :DEPTH
CALD.IN         :
DPHI.%          :
GRD.GAPI        :
MINV.OHMM       :
MNOR.OHMM       :
NPHI.%          :
~ASCII ------------------------------------------------------
# ...
1560.00000        5.44960        5.19197        3.80141       12.24560        7.85652        3.81709
1560.50000        5.47470        5.69650        5.74597       12.37588        7.76602        3.00244
1561.00000        5.51084        6.30170        6.08165       12.40943        7.74964        2.69138
1561.50000        5.54699        6.11092        6.95564       12.29787        7.73248        2.43152
1562.00000        5.58313        5.47952        9.97984       11.94056        7.71531        2.29996
1562.50000        5.61928        5.10313       13.00403       11.58248        7.69815        2.43228
1563.00000        5.62149        5.76464       16.63306       11.36170        7.55070        2.56460
1563.50000        5.61526        6.35873       19.95967       11.23141        7.37127        2.75834
1564.00000        5.60904        6.68512       21.47177       10.83666        7.26049        2.96714
1564.50000        5.61104        7.01111       21.84979       10.37560        7.42744        3.17633
1565.00000        5.61888        7.45647       22.37903       10.02765        7.59439        3.38512
1565.50000        5.62651        8.07991       23.13507        9.75460        7.56475        3.82135
1566.00000        5.60984        8.29644       22.42137        9.38560        7.24021        4.25758
1566.50000        5.59297        8.51336       21.69858        8.95184        6.91489        4.74571
1567.00000        5.57630        8.43006       21.51108        8.73496        7.05531        5.23385
1567.50000        5.57028        8.24015       21.32056        8.67021        7.05765        5.64829
1568.00000        5.58032        8.28019       21.62298        8.86524        6.60283        5.95217
1568.50000        5.59036        8.05253       23.89112        9.06028        6.88680        6.31716
1569.00000        5.60040        7.36877       24.89818        8.89099        7.16999        6.55805
1569.50000        5.60643        7.42587       26.61290        8.63120        7.20276        6.75654
1570.00000        5.60643        7.66698       27.36894        8.94326        7.17311        6.95503
1570.50000        5.60643        7.82600       28.42741        9.25531        7.16141        7.24862
1571.00000        5.60643        7.31755       31.23689        8.99553        7.22304        7.19353
1571.50000        5.59980        7.44999       33.52620        8.63120        7.28467        7.03542
1572.00000        5.59297        7.11327       35.68548        6.86808        7.34631        6.83769
1572.50000        5.58634        6.77654       38.70967        6.56382        7.58035        7.01478
1573.00000        5.60221        7.56139       42.48991        6.67148        8.07496        7.70103
1573.50000        5.61807        7.93616       46.51209        6.62233        8.56879        8.38728
1574.00000        5.63394        8.59212       51.75604        6.79007        8.75368        8.89958
1574.50000        5.64498        9.43528       61.04636        6.72765        8.47517        9.29619
1575.00000        5.63735        9.87199       66.22982        6.41560        7.60843        9.87395
1575.50000        5.62811       10.23606       68.57357        6.39687        7.00850       10.78010
1576.00000        5.62028       10.15038       72.40825        6.57475        7.35177       12.34834
1576.50000        5.61265        9.88305       78.02417        6.64652        7.19574       13.57702
1577.00000        5.60984        9.80570       80.61591        6.55914        7.10524       14.23118
1577.50000        5.62651       10.42914       82.10683        6.55056        7.27921       14.88533
1578.00000        5.64317       10.89989       81.77417        6.59425        7.28702       15.84973
1578.50000        5.67530       11.58004       81.16933        6.60283        7.04673       16.64256
1579.00000        5.71104       11.11243       81.80442        6.34304        6.80723       17.52375
1579.50000        5.74699       11.09497       84.07256        6.55836        7.01865       18.14898
1580.00000        5.78715       11.22424       85.93849        6.68085        7.06546       18.65145
1580.50000        5.82731       12.00196       86.18949        6.48581        6.92581       19.06787
1581.00000        5.86747       12.50880       85.05542        6.29077        6.78694       19.51400
1581.50000        5.88012       12.93076       83.92135        6.38829        6.95389       19.76202
1582.00000        5.89257       11.78100       84.37498        6.40389        7.12163       19.96052
1582.50000        5.90522       11.46418       85.88708        6.29780        6.98354       20.13246
1583.00000        5.88655       11.71957       85.88708        6.19170        6.84624       20.19901
1583.50000        5.86004       11.86154       84.58970        6.06375        6.68085       20.47992
1584.00000        5.83373       11.58430       83.61893        6.03099        7.14893       20.76122
1584.50000        5.80723       11.54502       82.25804        6.29077        7.07794       20.78459
1585.00000        5.81908       11.89441       78.93143        6.42730        7.00694       20.63638
1585.50000        5.83092       11.97411       79.43647        6.37893        7.48361       20.79525
1586.00000        5.84257       11.34787       78.72881        6.68085        8.00709       20.95412
1586.50000        5.84739        9.48423       78.68950        6.29077        8.23411       20.54758
1587.00000        5.82490        8.67991       78.47780        6.36879        7.80815       19.89934
1587.50000        5.76827        9.96091       79.03123        5.51063        7.38297       19.25149
1588.00000        5.71185       11.72219       81.04837        5.81411        7.38297       18.70714
1588.50000        5.65944       12.47016       81.04837        6.04737        7.29794       18.74714
1589.00000        5.62289       12.22267       82.08567        5.99822        7.15595       18.77209
1589.50000        5.58634       13.08565       83.10482        6.01772        6.91489       18.64568
1590.00000        5.53614       14.16685       81.13607        6.08248        6.52482       18.48083
1590.50000        5.48594       13.83686       78.54131        6.14801        6.59581       18.40870
1591.00000        5.49839       13.48546       77.33163        6.21276        6.66680       18.56321
1591.50000        5.55241       13.36924       77.87296        6.05673        6.65822       18.73952
1592.00000        5.60643       13.17687       78.74998        5.95297        6.63092       18.40033
1592.50000        5.63996       13.15742       80.24091        6.09574        6.60283       18.14594
1593.00000        5.66004       13.09831       82.92941        6.04035        6.50531       17.94821
1593.50000        5.62651       12.90039       86.53728        5.95843        6.40780       17.81902
1594.00000        5.65161       12.66281       90.37800        5.87574        6.31028       17.96323
1594.50000        5.66506       12.50455       93.54736        5.79382        6.60283       18.10784
1595.00000        5.66124       12.16782       94.05240        5.94517        6.99290       18.34239
1595.50000        5.65743       11.75177       96.98586        6.44680        7.38297       18.57694
1596.00000        5.65361       11.83148       96.83465        6.27985        7.16609       19.69396
1596.50000        5.64960       13.09106       98.02316        6.29780        7.02723       20.22251
1597.00000        5.64418       13.41864      100.10078        6.43978        7.19730       20.65042
1597.50000        5.63233       12.36406       99.34473        6.48971        7.36815       20.67576
1598.00000        5.62068       11.22501       97.37901        6.40155        7.53900       20.90912
1598.50000        5.60883       11.17383       95.92740        6.31340        7.42510       21.28076
1599.00000        5.62651       11.39750       97.37901        6.22524        7.24489       21.37743
1599.50000        5.65161       11.39796       96.16933        6.13709        7.06467       21.51926
