~Version ---------------------------------------------------
VERS. 2.0 : CWLS LOG ASCII STANDARD - VERSION 2.0
WRAP. NO  : One line per depth step
DLM . SPACE : Column Data Section Delimiter
~Well ------------------------------------------------------
STRT.F          780 : START DEPTH
STOP.F       1761.5 : STOP DEPTH
STEP.F          0.5 : STEP
NULL.       -999.25 : NULL VALUE
COMP.                 WALSH & WATTS, INC. : COMPANY
WELL.                         SALMON E 42 : WELL
FLD .                        NORTH NOCONA : FIELD
CNTY.                            MONTAGUE : COUNTY
STAT.                               TEXAS : STATE
CTRY.                                 USA : COUNTRY
SEC .                                     : SECTION
TWP .                                     : TOWNSHIP
RGE .                                     : RANGE
LOC . 150' FSL & 300' W OF WELL NO. 1, 407' E OF WELL NO. 5, F. ROBERTSON SURVEY : LOCATION
EKB .F                      880 : ELEVATION KELLY BUSHING
EDF .F                          : ELEVATION DERRICK FLOOR
EGL .F                      874 : ELEVATION GROUND LEVEL
PDAT.              GROUND LEVEL : PERMANENT DATUM
EPD .                       874 : ELEVATION PERMANENT DATUM
APD .                         6 : ABOVE PERMANENT DATUM
LMF .                        KB : LOG MEASURED FROM
DMF .                        KB : DRILLING MEASURED FROM
API .            42337037780000 : API NUMBER
UWI .            42337037780000 : UWI NUMBER
DIGC.                     NthDS : DIGITIZING COMPANY
~Params ----------------------------------------------------
SRVC.                LANE WELLS : LOGGING COMPANY
LOG .                        AC : LOG
DATE.                1965-11-21 : RUN DATE
RUN .                         1 : RUN NUMBER
TDD .F                     1766 : TOTAL DEPTH DRILLER
TDL .F                     1768 : TOTAL DEPTH LOGGER
BOTL.F                     1762 : BOTTOM LOGGED INTERVAL
TOPL.F                      790 : TOP LOGGED INTERVAL
CSGS.IN                         : CASING SIZE
CSGD.F                          : CASING DRILLER
CSGL.F                          : CASING LOGGER
BS  .IN                   7.875 : BIT SIZE
MUD .              CHEMICAL GEL : MUD TYPE
MUDD.                       9.8 : MUD DENSITY
MUDV.                       123 : MUD VISCOSITY
PH  .                           : MUD PH
FL  .                           : FLUID LOSS
MUDS.                CIRCULATED : SOURCE OF SAMPLE
RM  .OHMM                   2.1 : MUD RESISTIVITY
RMT .DEGF                    70 : RM TEMPERATURE
RMF .OHMM                  1.81 : MUD FILTRATE RESISTIVITY
RMFT.DEGF                    70 : RMF TEMPERATURE
RMC .OHMM                  2.34 : MUD CAKE RESISTIVITY
RMCT.DEGF                    70 : RMC TEMPERATURE
RMFS.                  MEASURED : RMF SOURCE
RMCS.                           : RMC SOURCE
RMBH.OHMM                   1.5 : MUD RESISTIVITY AT BHT
BHT .DEGF                    98 : BOTTOM HOLE TEMPERATURE
TIMC.                           : TIME CIRCULATION STOPPED
TIML.                           : TIME LOGGER ON BOTTOM
TMAX.DEGF                    98 : MAXIMUM RECORDED TEMPERATURE
UNIT.                    L-4553 : EQUIPMENT NUMBER
BASE.                      W.F. : BASE LOCATION
ENG .                     ADAMS : RECORDED BY
WIT .   MR. HARRELSON & MR. NIX : WITNESSED BY
~Curve Information -----------------------------------------
DEPT.F          :DEPTH
CALI.IN         :
DT.US/F         :
SP.MV           :
~ASCII ------------------------------------------------------
# ...
1070.50000        7.56613      116.80940     -107.99437
1071.00000        7.57012      115.11961     -107.99952
1071.50000        7.57411      114.87756     -109.18577
1072.00000        7.57809      116.80765     -110.66729
1072.50000        7.58188      115.74471     -111.55827
1073.00000        7.58659      113.93353     -112.15397
1073.50000        7.59058      112.12333     -112.45542
1074.00000        7.59456      113.98277     -112.16530
1074.50000        7.59855      116.21370     -111.57991
1075.00000        7.60234      117.27015     -110.40397
1075.50000        7.60633      115.11568     -110.40912
1076.00000        7.61103      112.38112     -110.70955
1076.50000        7.61502      109.64655     -111.60156
1077.00000        7.60917      108.65327     -112.49253
1077.50000        7.60331      109.57043     -113.38350
1078.00000        7.59765      112.43782     -113.97921
1078.50000        7.59180      112.40672     -114.57491
1079.00000        7.58594      106.24531     -114.87533
1079.50000        7.57903      104.70875     -115.17679
1080.00000        7.57318      104.32641     -115.18195
1080.50000        7.57835      105.94440     -114.89183
1081.00000        7.58351      107.29240     -113.71588
1081.50000        7.58848      108.04239     -110.76830
1082.00000        7.59365      106.40234     -107.23017
1082.50000        7.59974      105.45583     -103.10149
1083.00000        7.60490      107.28143      -99.56336
1083.50000        7.61007      106.20556      -98.38845
1084.00000        7.61012      105.12870     -101.93689
1084.50000        7.61017      104.48601     -105.48533
1085.00000        7.61022      104.21909     -109.32904
1085.50000        7.61020      104.26163     -109.92474
1086.00000        7.61025      105.53898     -109.63565
1086.50000        7.61031      106.81533     -108.45971
1087.00000        7.61036      108.09169     -106.39794
1087.50000        7.61041      106.00389     -103.74563
1088.00000        7.61026      102.07530      -99.91223
1088.50000        7.61044       98.14671      -96.07882
1089.00000        7.61049       99.64098      -91.95015
1089.50000        7.61034       97.85203      -89.00256
1090.00000        7.61039       91.68430      -91.00184
1090.50000        7.61044       92.68140      -98.04928
1091.00000        7.61049       96.06023     -106.11540
1091.50000        7.61054       97.02614     -112.46894
1092.00000        7.61052       97.99106     -117.67194
1092.50000        7.61057       98.95697     -119.15346
1093.00000        7.61062       96.96867     -119.45389
1093.50000        7.61067       94.98037     -119.16377
1094.00000        7.61072       93.65773     -119.16893
1094.50000        7.61077       95.26777     -118.87881
1095.00000        7.61075       96.60880     -118.58972
1095.50000        7.61080       95.61751     -119.18542
1096.00000        7.61085       91.58643     -119.78112
1096.50000        7.61090       87.19317     -119.78627
1097.00000        7.61095       83.64966     -120.08670
1097.50000        7.61100       84.24840     -120.38713
1098.00000        7.61099       86.14068     -120.98386
1098.50000        7.61104       92.45382     -121.28428
1099.00000        7.61109       98.04194     -121.28944
1099.50000        7.61114       99.20983     -120.40877
1100.00000        7.63319       97.07142     -119.17016
1100.50000        7.63324       96.87057     -117.98957
1101.00000        7.63329       98.19603     -115.62321
1101.50000        7.63334       97.12230     -112.96042
1102.00000        7.63339       98.19950     -109.40830
1102.50000        7.63337       93.99073     -106.15263
1103.00000        7.63342       91.54958     -103.19340
1103.50000        7.63347       92.25637     -102.30925
1104.00000        7.63352       95.05883     -103.79766
1104.50000        7.63358       96.49154     -105.87792
1105.00000        7.63363       96.29069     -108.25462
1105.50000        7.63368       93.72938     -109.14705
1106.00000        7.63373       90.18397     -112.11870
1106.50000        7.63358       87.42405     -112.71675
1107.00000        7.63363       88.25597     -111.53616
1107.50000        7.63368       91.35202     -111.54134
1108.00000        7.63373       94.44708     -112.73227
1108.50000        7.63378       92.33860     -113.03389
1109.00000        7.63383       91.30558     -113.03906
1109.50000        7.62828       91.88725     -112.74780
1110.00000        7.61884       92.46793     -112.75297
1110.50000        7.60960       91.80730     -112.16630
1111.00000        7.60017       89.12782     -111.57859
1111.50000        7.60140       85.94387     -110.69444
1112.00000        7.64414       83.31901     -108.92097
1112.50000        7.68708       81.53327     -107.74038
1113.00000        7.73001       81.29304     -108.04200
1113.50000        7.72196       82.67809     -108.93649
1114.00000        7.71371       84.06213     -109.23811
1114.50000        7.70566       85.92979     -109.24328
1115.00000        7.69741       86.50948     -110.43422
1115.50000        7.68936       84.97597     -111.62515
1116.00000        7.68111       83.63113     -113.70541
1116.50000        7.67140       83.03704     -115.48923
1117.00000        7.66790       82.90471     -117.27305
1117.50000        7.66755       84.62243     -118.46502
1118.00000        7.66721       86.33914     -118.76664
1118.50000        7.66686       84.24456     -119.06825
1119.00000        7.66652       82.63593     -119.07343
1119.50000        7.66973       82.80251     -118.78216
1120.00000        7.67294       81.41100     -117.89801
1120.50000        7.67615       78.97978     -117.31030
1121.00000        7.67917       78.72928     -116.72260
1121.50000        7.68238       79.93359     -115.83845
1122.00000        7.68559       81.13690     -114.95430
1122.50000        7.68881       82.34121     -114.36659
1123.00000        7.69202       81.63987     -113.77888
1123.50000        7.69523       81.17289     -114.08050
1124.00000        7.69897       83.54700     -114.97499
1124.50000        7.70218       84.37594     -115.27764
1125.00000        7.70539       82.53657     -115.28282
1125.50000        7.70860       80.17089     -115.28799
1126.00000        7.71182       77.80422     -114.40384
1126.50000        7.71483       79.19457     -113.81614
1127.00000        7.71804       79.37008     -112.63555
1127.50000        7.71987       77.01334     -111.45496
1128.00000        7.71953       78.43016     -110.86725
1128.50000        7.71918       79.93536     -110.27954
1129.00000        7.71884       78.02251     -109.98827
1129.50000        7.71849       78.69057     -110.88277
1130.00000        7.71815       80.00511     -111.48083
1130.50000        7.71780       81.31865     -112.37532
1131.00000        7.71739       79.24393     -113.56626
1131.50000        7.71704       77.16921     -114.46076
1132.00000        7.71670       81.45031     -115.94917
1132.50000        7.71635       86.14715     -116.84367
1133.00000        7.71601       84.53420     -118.92392
1133.50000        7.71566       81.88252     -119.52198
1134.00000        7.71532       80.04017     -120.12004
1134.50000        7.70193       81.21568     -120.42165
1135.00000        7.68538       82.39119     -120.72327
1135.50000        7.66863       85.24892     -120.13556
1136.00000        7.65208       88.52769     -119.84429
1136.50000        7.63553       87.61319     -119.25658
1137.00000        7.61878       86.04194     -118.37243
1137.50000        7.60223       83.95829     -116.89540
1138.00000        7.58225       81.53303     -115.71481
1138.50000        7.56570       82.43942     -113.42257
1139.00000        7.54896       83.40937     -110.83389
1139.50000        7.53241       81.30089     -108.32035
1140.00000        7.51586       79.19241     -104.47179
1140.50000        7.49911       78.77210     -100.32680
1141.00000        7.48256       81.04392      -93.04842
1141.50000        7.46601       84.33660      -84.65246
