~Version ---------------------------------------------------
VERS. 2.0 : CWLS LOG ASCII STANDARD - VERSION 2.0
WRAP. NO  : One line per depth step
DLM . SPACE : Column Data Section Delimiter
~Well ------------------------------------------------------
STRT.F          100 : START DEPTH
STOP.F       2271.5 : STOP DEPTH
STEP.F          0.5 : STEP
NULL.       -999.25 : NULL VALUE
COMP.                       WALSH & WATTS : COMPANY
WELL.                        SALMON E 24  : WELL
FLD .                               NORTH : FIELD
CNTY.                            MONTAGUE : COUNTY
STAT.                               TEXAS : STATE
CTRY.                                 USA : COUNTRY
SEC .                                     : SECTION
TWP .                                     : TOWNSHIP
RGE .                                     : RANGE
LOC .                 SW CORNER OF LEAGUE : LOCATION
EKB .F                          : ELEVATION KELLY BUSHING
EDF .F                          : ELEVATION DERRICK FLOOR
EGL .F                      850 : ELEVATION GROUND LEVEL
PDAT.                        GL : PERMANENT DATUM
EPD .                       850 : ELEVATION PERMANENT DATUM
APD .                         5 : ABOVE PERMANENT DATUM
LMF .                        RT : LOG MEASURED FROM
DMF .                        RT : DRILLING MEASURED FROM
API .            42337038630000 : API NUMBER
UWI .                           : UWI NUMBER
DIGC.                     NthDS : DIGITIZING COMPANY
~Params ----------------------------------------------------
SRVC.               HALLIBURTON : LOGGING COMPANY
LOG .                        EL : LOG
DATE.                1950-09-25 : RUN DATE
RUN .                         1 : RUN NUMBER
TDD .F                     2272 : TOTAL DEPTH DRILLER
TDL .F                     2272 : TOTAL DEPTH LOGGER
BOTL.F                     2272 : BOTTOM LOGGED INTERVAL
TOPL.F                          : TOP LOGGED INTERVAL
CSGS.IN                         : CASING SIZE
CSGD.F                          : CASING DRILLER
CSGL.F                          : CASING LOGGER
BS  .IN                       9 : BIT SIZE
MUD .        WATER BASE AQUAGEL : MUD TYPE
MUDD.                       9.8 : MUD DENSITY
MUDV.                        39 : MUD VISCOSITY
PH  .                           : MUD PH
FL  .                           : FLUID LOSS
MUDS.                           : SOURCE OF SAMPLE
RM  .OHMM                   2.3 : MUD RESISTIVITY
RMT .DEGF                    70 : RM TEMPERATURE
RMF .OHMM                       : MUD FILTRATE RESISTIVITY
RMFT.DEGF                       : RMF TEMPERATURE
RMC .OHMM                       : MUD CAKE RESISTIVITY
RMCT.DEGF                       : RMC TEMPERATURE
RMFS.                           : RMF SOURCE
RMCS.                           : RMC SOURCE
RMBH.OHMM                       : MUD RESISTIVITY AT BHT
BHT .DEGF                       : BOTTOM HOLE TEMPERATURE
TIMC.                           : TIME CIRCULATION STOPPED
TIML.                           : TIME LOGGER ON BOTTOM
TMAX.DEGF                       : MAXIMUM RECORDED TEMPERATURE
UNIT.                           : EQUIPMENT NUMBER
BASE.                           : BASE LOCATION
ENG .                  HARRISON : RECORDED BY
WIT .                    DAWSON : WITNESSED BY
~Curve Information -----------------------------------------
DEPT.F          :DEPTH
ILD.OHMM        :
SN.OHMM         :
SP.MV           :
~ASCII ------------------------------------------------------
# ...
2049.00000        2.72179        7.06230      -59.39368
2049.50000        2.77072        6.89754      -55.37287
2050.00000        2.77629        6.76127      -49.84992
2050.50000        2.88564        6.51085      -44.15725
2051.00000        2.99416        6.09349      -37.46087
2051.50000        3.10267        5.67613      -32.10277
2052.00000        3.21202        5.42571      -30.75952
2052.50000        3.27462        5.34224      -32.42741
2053.00000        3.30718        5.42571      -34.09530
2053.50000        3.33890        5.34224      -33.08663
2054.00000        3.37062        5.34224      -32.41252
2054.50000        3.40317        5.42571      -35.41870
2055.00000        3.36895        5.59265      -42.10515
2055.50000        3.23456        5.84307      -51.46817
2056.00000        3.10017        5.84307      -60.49663
2056.50000        2.96661        5.75960      -64.50651
2057.00000        2.83222        5.59265      -66.17441
2057.50000        2.67112        5.42571      -65.50030
2058.00000        2.65860        5.59265      -64.49162
2058.50000        2.64608        5.84307      -63.48295
2059.00000        2.63356        6.09349      -63.47798
2059.50000        2.62020        6.09349      -63.13845
2060.00000        2.60768        6.17696      -62.12977
2060.50000        2.59516        6.09349      -61.12110
2061.00000        2.58180        6.17696      -60.78156
2061.50000        2.56761        6.34391      -62.11488
2062.00000        2.55342        6.51085      -62.77906
2062.50000        2.53840        6.59432      -62.77410
2063.00000        2.52421        6.67779      -62.76913
2063.50000        2.51002        6.67779      -63.43331
2064.00000        2.52921        6.67779      -64.09749
2064.50000        2.57930        6.67779      -64.76167
2065.00000        2.62103        6.59432      -64.75671
2065.50000        2.66277        6.59432      -65.08631
2066.00000        2.70451        6.51085      -66.08506
2066.50000        2.74624        6.59432      -67.08381
2067.00000        2.78798        6.42738      -66.74329
2067.50000        2.82972        6.17696      -66.06918
2068.00000        2.87145        6.09349      -64.39136
2068.50000        2.91319        6.09349      -62.04440
2069.00000        2.95492        6.09349      -59.02830
2069.50000        2.99666        6.34391      -56.34677
2070.00000        2.96911        6.67779      -55.33809
2070.50000        2.92487        6.92821      -57.67513
2071.00000        2.87980        6.76127      -59.34302
2071.50000        2.82638        6.59432      -60.67634
2072.00000        2.78130        6.59432      -61.34052
2072.50000        2.76878        6.67779      -62.00469
2073.00000        2.80300        6.84474      -62.33430
2073.50000        2.83806        6.76127      -61.99477
2074.00000        2.87312        6.67779      -61.32066
2074.50000        2.90734        6.59432      -59.30827
2075.00000        2.94240        6.34391      -55.62303
2075.50000        2.97746        6.09349      -48.25750
2076.00000        3.01169        5.75960      -43.60535
2076.50000        3.04674        5.75960      -41.28850
2077.00000        3.08180        6.01002      -47.23890
2077.50000        3.03923        6.26043      -52.58707
2078.00000        2.97746        6.34391      -57.26610
2078.50000        2.91569        6.26043      -56.25743
2079.00000        2.84140        6.17696      -54.24504
2079.50000        2.77963        6.34391      -52.90179
2080.00000        2.72371        6.51085      -53.90054
2080.50000        2.67279        6.59432      -53.56101
2081.00000        2.62187        6.67779      -53.22147
2081.50000        2.57095        6.84474      -53.55009
2082.00000        2.52087        7.09516      -54.88341
2082.50000        2.46995        7.42905      -57.55501
2083.00000        2.41903        7.42905      -61.23033
2083.50000        2.36811        7.34557      -63.56736
2084.00000        2.25376        7.26210      -64.90068
2084.50000        2.27129        7.17863      -64.89572
2085.00000        2.30134        7.09516      -64.22161
2085.50000        2.33139        7.01168      -63.54751
2086.00000        2.36728        6.92821      -62.20426
2086.50000        2.39649        6.84474      -59.41232
2087.00000        2.42070        6.84474      -58.28989
2087.50000        2.42070        6.92821      -59.13139
2088.00000        2.42070        6.84474      -60.84612
2088.50000        2.42070        6.84474      -61.51030
2089.00000        2.42070        6.84474      -61.83991
2089.50000        2.42070        6.92821      -61.83494
2090.00000        2.42070        7.09516      -61.49541
2090.50000        2.43406        7.26210      -61.15587
2091.00000        2.46828        7.34557      -60.14720
2091.50000        2.50250        7.17863      -59.47309
2092.00000        2.53673        7.17863      -61.14098
2092.50000        2.57095        7.26210      -61.47059
2093.00000        2.61185        7.09516      -59.45820
2093.50000        2.64524        7.01168      -56.77667
2094.00000        2.67947        6.92821      -54.42971
2094.50000        2.71369        6.92821      -52.75189
2095.00000        2.74791        6.84474      -53.08150
2095.50000        2.77546        6.76127      -54.41482
2096.00000        2.80133        6.67779      -54.74443
2096.50000        2.82805        6.51085      -51.05918
2097.00000        2.88815        6.34391      -44.69638
2097.50000        2.97162        6.26043      -40.78697
2098.00000        2.82638        6.51085      -44.01731
2098.50000        2.58264        7.01168      -51.37291
2099.00000        2.56010        7.17863      -57.05565
2099.50000        2.53673        7.34557      -60.39640
2100.00000        2.51336        7.67946      -60.89076
2100.50000        2.58938        7.84811      -61.22037
2101.00000        2.53908        8.01651      -61.21540
2101.50000        2.48795        7.93450      -60.87587
2102.00000        2.43766        7.85248      -60.53633
2102.50000        2.46749        7.77047      -59.19309
2103.00000        2.51820        7.68845      -57.51527
2103.50000        2.56890        7.43949      -54.16460
2104.00000        2.61961        7.10706      -50.47935
2104.50000        2.66948        6.85839      -45.31196
2105.00000        2.72019        6.69291      -42.91816
2105.50000        2.77089        6.77783      -44.34516
2106.00000        2.78933        6.94624      -46.11008
2106.50000        2.80498        6.86422      -45.10140
2107.00000        2.81979        6.69873      -42.75444
2107.50000        2.83544        6.61672      -42.41491
2108.00000        2.85109        6.61817      -44.75095
2108.50000        2.85505        6.70310      -47.75712
2109.00000        2.81727        6.78803      -50.42873
2109.50000        2.77866        6.95643      -53.10033
2110.00000        2.74089        6.79095      -54.76822
2110.50000        2.70228        6.79240      -55.43240
2111.00000        2.70374        6.71068      -57.76943
2111.50000        2.70519        6.71214      -59.77189
2112.00000        2.67272        6.71359      -61.43979
2112.50000        2.61825        6.79852      -61.76939
2113.00000        2.56294        6.88345      -62.09900
2113.50000        2.50847        6.96838      -62.42861
2114.00000        2.45317        7.05331      -63.09279
2114.50000        2.39870        7.13824      -63.75696
2115.00000        2.34340        7.30664      -64.42114
2115.50000        2.29978        7.55851      -64.41618
2116.00000        2.30124        7.89386      -63.40750
2116.50000        2.30269        8.22920      -63.06797
2117.00000        2.30415        8.48136      -63.06301
2117.50000        2.30561        8.73324      -62.38890
2118.00000        2.40973        8.90164      -61.04565
2118.50000        2.56591        8.81962      -59.36783
2119.00000        2.70259        8.48719      -57.02087
2119.50000        2.85012        8.32170      -54.00378
2120.00000        2.99765        8.23969      -51.65682
