~Version ---------------------------------------------------
VERS. 2.0 : CWLS LOG ASCII STANDARD - VERSION 2.0
WRAP. NO  : One line per depth step
DLM . SPACE : Column Data Section Delimiter
~Well ------------------------------------------------------
STRT.F          642 : START DEPTH
STOP.F       1779.0 : STOP DEPTH
STEP.F          0.5 : STEP
NULL.       -999.25 : NULL VALUE
COMP.                       WALSH & WATTS : COMPANY
WELL.                        SALMON E 24  : WELL
FLD .                               NORTH : FIELD
CNTY.                            MONTAGUE : COUNTY
STAT.                               TEXAS : STATE
CTRY.                                 USA : COUNTRY
SEC .                                     : SECTION
TWP .                                     : TOWNSHIP
RGE .                                     : RANGE
LOC .                 SW CORNER OF LEAGUE : LOCATION
EKB .F                          : ELEVATION KELLY BUSHING
EDF .F                          : ELEVATION DERRICK FLOOR
EGL .F                      850 : ELEVATION GROUND LEVEL
PDAT.                        GL : PERMANENT DATUM
EPD .                       850 : ELEVATION PERMANENT DATUM
APD .                         5 : ABOVE PERMANENT DATUM
LMF .                        RT : LOG MEASURED FROM
DMF .                        RT : DRILLING MEASURED FROM
API .            42337038630000 : API NUMBER
UWI .                           : UWI NUMBER
DIGC.                     NthDS : DIGITIZING COMPANY
~Params ----------------------------------------------------
SRVC.              SCHLUMBERGER : LOGGING COMPANY
LOG .                       GRN : LOG
DATE.                1964-03-24 : RUN DATE
RUN .                         1 : RUN NUMBER
TDD .F                     1783 : TOTAL DEPTH DRILLER
TDL .F                     1782 : TOTAL DEPTH LOGGER
BOTL.F                     1780 : BOTTOM LOGGED INTERVAL
TOPL.F                      650 : TOP LOGGED INTERVAL
CSGS.IN                     4.5 : CASING SIZE
CSGD.F                     1802 : CASING DRILLER
CSGL.F                          : CASING LOGGER
BS  .IN                       9 : BIT SIZE
MUD .                     WATER : MUD TYPE
MUDD.                           : MUD DENSITY
MUDV.                           : MUD VISCOSITY
PH  .                           : MUD PH
FL  .                           : FLUID LOSS
MUDS.                           : SOURCE OF SAMPLE
RM  .OHMM                       : MUD RESISTIVITY
RMT .DEGF                       : RM TEMPERATURE
RMF .OHMM                       : MUD FILTRATE RESISTIVITY
RMFT.DEGF                       : RMF TEMPERATURE
RMC .OHMM                       : MUD CAKE RESISTIVITY
RMCT.DEGF                       : RMC TEMPERATURE
RMFS.                           : RMF SOURCE
RMCS.                           : RMC SOURCE
RMBH.OHMM                       : MUD RESISTIVITY AT BHT
BHT .DEGF                       : BOTTOM HOLE TEMPERATURE
TIMC.                           : TIME CIRCULATION STOPPED
TIML.                           : TIME LOGGER ON BOTTOM
TMAX.DEGF                   107 : MAXIMUM RECORDED TEMPERATURE
UNIT.                           : EQUIPMENT NUMBER
BASE.                           : BASE LOCATION
ENG .                    MCCUNE : RECORDED BY
WIT .                       NIX : WITNESSED BY
~Curve Information -----------------------------------------
DEPT.F          :DEPTH
GRN.GAPI        :
NEUT.API        :
~ASCII ------------------------------------------------------
# ...
1433.00000       74.83766      531.83413
1433.50000       74.83766      537.16479
1434.00000       73.39478      546.49346
1434.50000       74.03606      554.48947
1435.00000       76.28055      559.82014
1435.50000       78.65810      563.81814
1436.00000       80.12824      566.48347
1436.50000       78.52503      571.81414
1437.00000       78.04407      578.47748
1437.50000       79.16632      586.47348
1438.00000       82.53305      601.13282
1438.50000       83.65529      609.12882
1439.00000       82.37273      607.79615
1439.50000       78.84568      601.13282
1440.00000       75.79958      595.80215
1440.50000       74.03606      590.47148
1441.00000       74.03606      581.14281
1441.50000       74.19638      571.81414
1442.00000       74.19638      566.48347
1442.50000       74.67734      569.14881
1443.00000       75.47894      573.14681
1443.50000       74.35670      574.47947
1444.00000       73.07413      574.47947
1444.50000       71.05890      577.14481
1445.00000       70.90981      590.47148
1445.50000       73.87574      598.46748
1446.00000       76.92183      589.13881
1446.50000       78.36471      586.47348
1447.00000       79.35870      581.14281
1447.50000       79.66972      573.14681
1448.00000       78.52503      563.81814
1448.50000       79.76431      566.48347
1449.00000       81.00199      573.14681
1449.50000       83.81561      570.48147
1450.00000       87.34267      567.81614
1450.50000       88.94587      562.48547
1451.00000       88.94587      563.81814
1451.50000       88.30459      554.48947
1452.00000       86.86171      534.49946
1452.50000       83.97594      518.50745
1453.00000       81.57113      507.84612
1453.50000       80.44888      501.18278
1454.00000       80.44888      495.85211
1454.50000       82.05209      491.85411
1455.00000       84.45690      491.85411
1455.50000       85.25850      495.85211
1456.00000       83.49497      510.51145
1456.50000       80.60920      520.50645
1457.00000       77.08215      519.57359
1457.50000       74.51702      515.25575
1458.00000       73.39478      520.42649
1458.50000       74.67734      527.07650
1459.00000       75.31862      533.16679
1459.50000       76.60119      530.50146
1460.00000       79.00600      517.17479
1460.50000       80.70539      505.18078
1461.00000       77.88375      497.18478
1461.50000       73.87574      489.18878
1462.00000       70.18836      485.19077
1462.50000       68.42484      490.52144
1463.00000       67.14227      502.51545
1463.50000       66.98195      518.50745
1464.00000       68.42484      538.49746
1464.50000       70.34868      547.82613
1465.00000       70.98997      559.82014
1465.50000       70.82965      561.15280
1466.00000       72.25009      569.14881
1466.50000       73.73786      578.47748
1467.00000       73.12063      574.47947
1467.50000       73.44127      566.48347
1468.00000       74.10339      563.81814
1468.50000       72.83365      561.15280
1469.00000       71.56391      555.82213
1469.50000       73.02123      558.48747
1470.00000       73.71542      567.81614
1470.50000       72.75349      579.81014
1471.00000       73.39478      589.13881
1471.50000       75.95991      590.47148
1472.00000       78.82323      583.80814
1472.50000       80.76952      587.80615
1473.00000       78.04407      593.13681
1473.50000       75.31862      593.13681
1474.00000       73.55510      586.47348
1474.50000       72.27253      590.47148
1475.00000       71.63125      585.14081
1475.50000       72.91381      573.14681
1476.00000       74.51702      566.48347
1476.50000       75.31862      559.82014
1477.00000       76.92183      558.48747
1477.50000       80.44888      553.15680
1478.00000       81.93185      550.49147
1478.50000       79.62644      546.49346
1479.00000       76.76151      546.49346
1479.50000       75.15830      551.82413
1480.00000       75.47894      554.48947
1480.50000       77.72343      558.48747
1481.00000       80.52904      561.15280
1481.50000       81.33706      561.15280
1482.00000       80.34948      553.15680
1482.50000       79.16632      549.15880
1483.00000       78.04407      546.49346
1483.50000       76.12023      533.16679
1484.00000       75.47894      517.17479
1484.50000       76.60119      507.84612
1485.00000       77.56311      518.50745
1485.50000       79.10219      531.83413
1486.00000       79.80760      538.49746
1486.50000       80.00800      534.49946
1487.00000       81.41081      525.17079
1487.50000       79.64728      521.17279
1488.00000       77.72343      526.50346
1488.50000       78.04407      533.16679
1489.00000       78.68536      531.83413
1489.50000       78.52503      530.50146
1490.00000       79.96792      531.83413
1490.50000       83.01401      526.50346
1491.00000       84.93786      522.50545
1491.50000       85.41882      517.17479
1492.00000       83.17433      507.84612
1492.50000       80.44888      503.84811
1493.00000       79.80760      497.18478
1493.50000       81.41081      495.85211
1494.00000       79.96792      490.52144
1494.50000       78.04407      483.85811
1495.00000       75.79958      482.52544
1495.50000       73.55510      478.52744
1496.00000       71.95189      478.52744
1496.50000       71.47093      478.52744
1497.00000       71.31061      478.52744
1497.50000       70.66933      486.52344
1498.00000       71.63125      490.52144
1498.50000       73.39478      495.85211
1499.00000       75.15830      507.84612
1499.50000       75.47894      523.83812
1500.00000       73.71542      546.49346
1500.50000       71.31061      565.15080
1501.00000       70.82965      574.47947
1501.50000       70.50900      583.80814
1502.00000       70.98997      589.13881
1502.50000       71.63125      591.80415
1503.00000       71.15029      605.13082
1503.50000       70.34868      618.45749
1504.00000       69.22644      625.12083
1504.50000       67.14227      627.78616
1505.00000       64.89778      630.45150
1505.50000       65.69939      630.45150
1506.00000       69.22644      630.45150
1506.50000       71.95189      629.11883
1507.00000       73.23445      619.79016
1507.50000       70.98997      611.79416
1508.00000       66.98195      609.12882
1508.50000       64.57714      606.46349
1509.00000       64.57714      602.46549
1509.50000       64.41682      590.47148
1510.00000       64.41682      573.14681
1510.50000       65.85971      555.82213
1511.00000       68.42484      537.16479
1511.50000       70.66933      525.17079
1512.00000       72.36872      521.17279
1512.50000       73.89177      522.50545
1513.00000       72.37995      530.50146
1513.50000       69.06612      545.16080
1514.00000       67.30259      565.15080
1514.50000       69.06612      578.47748
1515.00000       70.66933      579.81014
1515.50000       71.95189      581.14281
1516.00000       73.07413      593.13681
1516.50000       73.23445      607.12982
1517.00000       74.51702      611.79416
1517.50000       75.95991      601.79915
1518.00000       77.76351      605.13082
1518.50000       76.66051      611.79416
1519.00000       74.03606      600.69304
1519.50000       73.23445      587.80615
1520.00000       70.18836      573.14681
1520.50000       67.30259      558.48747
1521.00000       65.53907      550.49147
1521.50000       66.34067      545.16080
1522.00000       67.46291      547.82613
1522.50000       68.58516      555.82213
1523.00000       70.18836      565.15080
1523.50000       69.86772      567.81614
1524.00000       69.22644      570.48147
1524.50000       67.78355      579.81014
1525.00000       65.85971      586.47348
1525.50000       65.53907      597.13482
1526.00000       66.34067      613.12682
1526.50000       67.46291      616.45849
1527.00000       67.94387      622.45549
1527.50000       67.30259      618.45749
1528.00000       67.30259      626.45349
1528.50000       68.58516      635.96874
1529.00000       71.63125      643.01855
1529.50000       76.12023      632.54378
1530.00000       80.76952      627.78616
1530.50000       83.81561      618.45749
