~Version ---------------------------------------------------
VERS. 2.0 : CWLS LOG ASCII STANDARD - VERSION 2.0
WRAP. NO  : One line per depth step
DLM . SPACE : Column Data Section Delimiter
~Well ------------------------------------------------------
STRT.F        986.5 : START DEPTH
STOP.F       1761.0 : STOP DEPTH
STEP.F          0.5 : STEP
NULL.       -999.25 : NULL VALUE
COMP.                 WALSH & WATTS, INC. : COMPANY
WELL.                       SALMON D E 6D : WELL
FLD .                             REGULAR : FIELD
CNTY.                            MONTAGUE : COUNTY
STAT.                               TEXAS : STATE
CTRY.                                 USA : COUNTRY
SEC .                                     : SECTION
TWP .                                     : TOWNSHIP
RGE .                                     : RANGE
LOC .  460 FSL 755 FEL
F. ROBERTSON A-620 : LOCATION
EKB .F                      880 : ELEVATION KELLY BUSHING
EDF .F                      878 : ELEVATION DERRICK FLOOR
EGL .F                      874 : ELEVATION GROUND LEVEL
PDAT.                        GL : PERMANENT DATUM
EPD .                       874 : ELEVATION PERMANENT DATUM
APD .                           : ABOVE PERMANENT DATUM
LMF .                        KB : LOG MEASURED FROM
DMF .                        KB : DRILLING MEASURED FROM
API .            42337016430000 : API NUMBER
UWI .            42337016430000 : UWI NUMBER
DIGC.                     NthDS : DIGITIZING COMPANY
~Params ----------------------------------------------------
SRVC.              SCHLUMBERGER : LOGGING COMPANY
LOG .                      DIFL : LOG
DATE.                2005-08-03 : RUN DATE
RUN .                         1 : RUN NUMBER
TDD .F                     1750 : TOTAL DEPTH DRILLER
TDL .F                     1750 : TOTAL DEPTH LOGGER
BOTL.F                     1750 : BOTTOM LOGGED INTERVAL
TOPL.F                      980 : TOP LOGGED INTERVAL
CSGS.IN                       7 : CASING SIZE
CSGD.F                      980 : CASING DRILLER
CSGL.F                      980 : CASING LOGGER
BS  .IN                     6.5 : BIT SIZE
MUD .                       FGM : MUD TYPE
MUDD.                       0.2 : MUD DENSITY
MUDV.                        80 : MUD VISCOSITY
PH  .                        11 : MUD PH
FL  .                         7 : FLUID LOSS
MUDS.                       PIT : SOURCE OF SAMPLE
RM  .OHMM                  1.70 : MUD RESISTIVITY
RMT .DEGF                    70 : RM TEMPERATURE
RMF .OHMM                  1.33 : MUD FILTRATE RESISTIVITY
RMFT.DEGF                    70 : RMF TEMPERATURE
RMC .OHMM                  2.67 : MUD CAKE RESISTIVITY
RMCT.DEGF                    70 : RMC TEMPERATURE
RMFS.                      MEAS : RMF SOURCE
RMCS.                       CAL : RMC SOURCE
RMBH.OHMM                  1.41 : MUD RESISTIVITY AT BHT
BHT .DEGF                    98 : BOTTOM HOLE TEMPERATURE
TIMC.                     2100  : TIME CIRCULATION STOPPED
TIML.                     0300  : TIME LOGGER ON BOTTOM
TMAX.DEGF                    98 : MAXIMUM RECORDED TEMPERATURE
UNIT.                       303 : EQUIPMENT NUMBER
BASE.                  WITCHATA : BASE LOCATION
ENG .              DAVID PARKER : RECORDED BY
WIT .              MR. BURLESON : WITNESSED BY
~Curve Information -----------------------------------------
DEPT.F          :DEPTH
GRR.API         :
ILD.OHMM        :
ILM.OHMM        :
SFL.OHMM        :
SP.MV           :
~ASCII ------------------------------------------------------
# ...
1221.50000      124.38686        3.16576        3.28748        5.51363      -14.23985
1222.00000      123.96279        3.16469        3.27412        5.51207      -14.75766
1222.50000      124.77976        3.16380        3.25791        5.51052      -15.72664
1223.00000      126.88539        3.16290        3.25368        5.50896      -16.53412
1223.50000      129.85112        3.15704        3.25547        5.50741      -17.34160
1224.00000      131.19784        3.14421        3.25726        5.50554      -18.14908
1224.50000      131.52167        3.13114        3.25905        5.50398      -19.35615
1225.00000      131.79104        3.13866        3.26114        5.50243      -20.36204
1225.50000      131.89077        3.14649        3.26294        5.50088      -21.36794
1226.00000      124.51449        3.15405        3.26473        5.49932      -21.38179
1226.50000      115.35046        3.15648        3.26653        5.49777      -21.39564
1227.00000      116.77754        3.15559        3.26874        5.49622      -20.77736
1227.50000      120.53789        3.15469        3.27084        5.49466      -19.99758
1228.00000      121.68521        3.15089        3.27264        5.49311      -21.43996
1228.50000      123.52389        3.14273        3.26416        5.49125      -21.45382
1229.00000      125.82892        3.13458        3.25571        5.48970      -21.47044
1229.50000      127.93455        3.12646        3.24727        5.48815      -21.48429
1230.00000      128.51938        3.12616        3.23886        5.48660      -21.49814
1230.50000      129.10422        3.13715        3.25686        5.48505      -21.51199
1231.00000      127.30608        3.14846        3.27466        5.48807      -21.52584
1231.50000      125.80763        3.16198        3.29634        5.49718      -20.35202
1232.00000      122.57411        3.17339        3.28536        5.50682      -19.17542
1232.50000      121.91790        3.18455        3.27413        5.51648      -18.50675
1233.00000      129.34781        3.19604        3.26323        5.52788      -17.83411
1233.50000      134.47122        3.19779        3.25237        5.53758      -17.16544
1234.00000      136.46763        3.18479        3.24124        5.54677      -16.36066
1234.50000      134.67157        3.17214        3.23045        5.55650      -15.68802
1235.00000      129.98571        3.15924        3.23402        5.56624      -14.95189
1235.50000      129.88901        3.14669        3.23790        5.54566      -14.11655
1236.00000      132.85474        3.13140        3.24219        5.48038      -13.28122
1236.50000      134.92555        3.11867        3.24608        5.41587      -13.07166
1237.00000      136.40322        3.10743        3.24966        5.43239      -13.22439
1237.50000      135.50000        3.10110        3.25326        5.45219      -13.38110
1238.00000      132.77539        3.09478        3.25715        5.46832      -13.11321
1238.50000      129.50705        3.08819        3.26075        5.48500      -13.48817
1239.00000      126.78245        3.08190        3.26466        5.50174      -14.45715
1239.50000      124.35843        3.07562        3.26827        5.51802      -14.48687
1240.00000      123.88079        3.09128        3.27188        5.53485      -14.31819
1240.50000      127.21943        3.11002        3.27652        5.55174      -15.17726
1241.00000      131.67321        3.12586        3.27832        5.53787      -16.71488
1241.50000      133.55266        3.14149        3.27740        5.51689      -18.31876
1242.00000      134.65832        3.15749        3.27647        5.49161      -18.63816
1242.50000      135.76397        3.16245        3.27555        5.47029      -18.95756
1243.00000      135.38157        3.16741        3.27462        5.44956      -18.46349
1243.50000      131.79776        3.17237        3.27370        5.45307      -17.22221
1244.00000      128.81125        3.17735        3.27277        5.46313      -16.18450
1244.50000      126.77711        3.18233        3.27185        5.47322      -15.26980
1245.00000      124.98105        3.17449        3.27074        5.48282      -14.53764
1245.50000      124.23943        3.16803        3.27345        5.49294      -13.80945
1246.00000      123.11300        3.16128        3.29043        5.50308      -14.02448
1246.50000      120.87052        3.15484        3.30719        5.51497      -15.07005
1247.00000      121.99999        3.14841        3.32434        5.52515      -16.08784
1247.50000      125.03209        3.12230        3.30257        5.52308      -17.16119
1248.00000      127.83115        3.09641        3.27125        5.47423      -18.23454
1248.50000      128.06778        3.07073        3.24022        5.42532      -18.33846
1249.00000      127.59907        3.04526        3.20949        5.37685      -18.22533
1249.50000      127.34167        3.03131        3.17300        5.32881      -18.11617
1250.00000      128.26912        3.12220        3.25215        5.43616      -17.26516
1250.50000      128.60498        3.12302        3.24369        5.39650      -17.27918
1251.00000      129.98600        3.12496        3.22686        5.38940      -17.29320
1251.50000      131.36401        3.12663        3.21309        5.41025      -17.03815
1252.00000      131.64566        3.12800        3.19909        5.43169      -16.78711
1252.50000      130.27975        3.12967        3.21949        5.45270      -16.53206
1253.00000      129.52227        3.13134        3.24003        5.47431      -18.35607
1253.50000      129.68043        3.13272        3.26070        5.49600      -19.08091
1254.00000      128.25730        3.13439        3.28149        5.52183      -19.27967
1254.50000      125.78299        3.13287        3.30243        5.54320      -19.34991
1255.00000      123.57072        3.13136        3.31000        5.55539      -19.23943
1255.50000      121.75302        3.12984        3.30839        5.55270      -19.12896
1256.00000      120.71844        3.12802        3.30647        5.55002      -19.01848
1256.50000      120.85852        3.13926        3.30487        5.54733      -18.90399
1257.00000      118.61614        3.17040        3.31398        5.59615      -18.79351
1257.50000      112.79552        3.23309        3.33913        5.68049      -18.68304
1258.00000      110.10736        3.31905        3.36447        5.76556      -19.70105
1258.50000      107.77252        3.40698        3.39001        5.85245      -20.71906
1259.00000      107.31021        3.49723        3.41573        6.06162      -21.73707
1259.50000      106.72742        3.59021        3.50136        6.27768      -22.68680
1260.00000      105.96391        3.70069        3.60477        6.55938      -23.54016
1260.50000      105.20040        3.83827        3.71123        6.81395      -24.38950
1261.00000      107.90066        3.95053        3.82083        7.02363      -23.49189
1261.50000      112.27860        4.01935        3.93368        7.02023      -22.59027
1262.00000      116.57822        4.08974        4.00924        7.01683      -22.33522
1262.50000      120.03358        4.05049        4.08963        7.01343      -22.23679
1263.00000      124.12537        3.99757        4.15818        7.01004      -22.13836
1263.50000      127.87982        3.96106        4.20527        7.00664      -22.06403
1264.00000      129.22470        3.89271        4.16570        6.92597      -22.07805
1264.50000      127.50640        3.80191        4.12612        6.73322      -23.59806
1265.00000      125.48991        3.76509        4.08730        6.61823      -24.55181
1265.50000      121.29968        3.76327        4.04847        6.61503      -24.65820
1266.00000      117.07240        3.73545        4.01037        6.55097      -24.76458
1266.50000      114.41135        3.70133        3.97227        6.47255      -24.86695
1267.00000      115.90683        3.66107        3.92725        6.39507      -24.97334
1267.50000      119.91127        3.63502        3.87701        6.31852      -24.05164
1268.00000      121.30735        3.61082        3.77714        6.24289      -22.94399
