~Version ---------------------------------------------------
VERS. 2.0 : CWLS LOG ASCII STANDARD - VERSION 2.0
WRAP. NO  : One line per depth step
DLM . SPACE : Column Data Section Delimiter
~Well ------------------------------------------------------
STRT.F          100 : START DEPTH
STOP.F       2271.5 : STOP DEPTH
STEP.F          0.5 : STEP
NULL.       -999.25 : NULL VALUE
COMP.                       WALSH & WATTS : COMPANY
WELL.                        SALMON E 24  : WELL
FLD .                               NORTH : FIELD
CNTY.                            MONTAGUE : COUNTY
STAT.                               TEXAS : STATE
CTRY.                                 USA : COUNTRY
SEC .                                     : SECTION
TWP .                                     : TOWNSHIP
RGE .                                     : RANGE
LOC .                 SW CORNER OF LEAGUE : LOCATION
EKB .F                          : ELEVATION KELLY BUSHING
EDF .F                          : ELEVATION DERRICK FLOOR
EGL .F                      850 : ELEVATION GROUND LEVEL
PDAT.                        GL : PERMANENT DATUM
EPD .                       850 : ELEVATION PERMANENT DATUM
APD .                         5 : ABOVE PERMANENT DATUM
LMF .                        RT : LOG MEASURED FROM
DMF .                        RT : DRILLING MEASURED FROM
API .            42337038630000 : API NUMBER
UWI .                           : UWI NUMBER
DIGC.                     NthDS : DIGITIZING COMPANY
~Params ----------------------------------------------------
SRVC.               HALLIBURTON : LOGGING COMPANY
LOG .                        EL : LOG
DATE.                1950-09-25 : RUN DATE
RUN .                         1 : RUN NUMBER
TDD .F                     2272 : TOTAL DEPTH DRILLER
TDL .F                     2272 : TOTAL DEPTH LOGGER
BOTL.F                     2272 : BOTTOM LOGGED INTERVAL
TOPL.F                          : TOP LOGGED INTERVAL
CSGS.IN                         : CASING SIZE
CSGD.F                          : CASING DRILLER
CSGL.F                          : CASING LOGGER
BS  .IN                       9 : BIT SIZE
MUD .        WATER BASE AQUAGEL : MUD TYPE
MUDD.                       9.8 : MUD DENSITY
MUDV.                        39 : MUD VISCOSITY
PH  .                           : MUD PH
FL  .                           : FLUID LOSS
MUDS.                           : SOURCE OF SAMPLE
RM  .OHMM                   2.3 : MUD RESISTIVITY
RMT .DEGF                    70 : RM TEMPERATURE
RMF .OHMM                       : MUD FILTRATE RESISTIVITY
RMFT.DEGF                       : RMF TEMPERATURE
RMC .OHMM                       : MUD CAKE RESISTIVITY
RMCT.DEGF                       : RMC TEMPERATURE
RMFS.                           : RMF SOURCE
RMCS.                           : RMC SOURCE
RMBH.OHMM                       : MUD RESISTIVITY AT BHT
BHT .DEGF                       : BOTTOM HOLE TEMPERATURE
TIMC.                           : TIME CIRCULATION STOPPED
TIML.                           : TIME LOGGER ON BOTTOM
TMAX.DEGF                       : MAXIMUM RECORDED TEMPERATURE
UNIT.                           : EQUIPMENT NUMBER
BASE.                           : BASE LOCATION
ENG .                  HARRISON : RECORDED BY
WIT .                    DAWSON : WITNESSED BY
~Curve Information -----------------------------------------
DEPT.F          :DEPTH
ILD.OHMM        :
SN.OHMM         :
SP.MV           :
~ASCII ------------------------------------------------------
# ...
1620.00000        2.17551        3.67799      -20.64066
1620.50000        2.16767        3.68017      -21.29683
1621.00000        2.15817        3.68236      -21.95516
1621.50000        2.14784        3.76802      -23.28262
1622.00000        2.13750        3.85367      -23.94095
1622.50000        2.12717        3.85586      -24.26471
1623.00000        2.11767        3.94195      -24.92304
1623.50000        2.10733        4.02761      -24.91223
1624.00000        2.10995        3.86285      -24.90143
1624.50000        2.07541        3.61462      -25.55976
1625.00000        1.98411        3.61681      -27.55635
1625.50000        1.90533        3.61899      -30.89120
1626.00000        1.83406        3.70465      -32.55322
1626.50000        1.76279        3.62336      -29.52917
1627.00000        1.70571        3.54208      -26.84185
1627.50000        1.70789        3.62773      -28.16930
1628.00000        1.71008        3.62992      -31.50416
1628.50000        1.71226        3.79905      -34.50444
1629.00000        1.67856        3.96817      -33.48994
1629.50000        1.62649        4.30425      -31.13718
1630.00000        1.59695        4.64032      -27.78073
1630.50000        1.56658        5.14333      -25.76253
1631.00000        1.59214        5.89719      -27.75912
1631.50000        1.61770        6.56715      -31.76310
1632.00000        1.50135        7.48752      -36.77078
1632.50000        1.39586        8.99219      -39.77107
1633.00000        1.33588       11.16463      -42.43679
1633.50000        1.39065       13.25359      -44.76794
1634.00000        1.59067       15.34300      -46.09540
1634.50000        1.82740       16.43031      -47.75743
1635.00000        2.06498       16.93332      -48.41575
1635.50000        2.35514       16.76857      -48.73952
1636.00000        2.68203       16.35339      -48.39415
1636.50000        3.00892       15.85475      -47.37965
1637.00000        3.33581       15.60652      -46.03059
1637.50000        3.73114       15.52524      -44.34696
1638.00000        4.12564       15.52742      -42.66333
1638.50000        4.52098       15.86349      -41.31426
1639.00000        4.87458       16.19956      -40.29976
1639.50000        5.26701       16.53563      -38.95070
1640.00000        5.59390       16.78823      -38.27076
1640.50000        5.99841       17.20777      -38.25996
1641.00000        6.71678       17.87817      -38.58156
1641.50000        7.44600       18.38118      -38.57076
1642.00000        8.16354       18.63378      -38.55996
1642.50000        8.82181       18.38555      -38.54915
1643.00000        9.07608       17.55302      -38.20379
1643.50000        9.23018       16.63702      -37.18929
1644.00000        9.25741       15.72103      -36.50935
1644.50000        9.30634       15.13891      -35.82942
1645.00000        9.87239       14.89068      -35.81862
1645.50000       11.10327       14.55898      -35.47325
1646.00000       13.18389       14.00108      -34.45875
1646.50000       15.30291       13.21613      -33.44425
1647.00000       16.31844       11.90614      -32.09519
1647.50000       16.00760       10.89499      -31.41525
1648.00000       15.39628       10.14593      -30.73532
1648.50000       14.33420        9.73076      -30.72452
1649.00000       13.27213        9.48253      -31.04828
1649.50000       12.21005        9.15083      -31.70661
1650.00000       11.26906        8.84839      -33.11929
1650.50000       10.43653        8.93405      -33.44305
1651.00000       10.30517        9.10318      -34.10138
1651.50000       10.34909        9.10536      -34.42514
1652.00000       10.28533        9.27449      -34.41434
1652.50000       10.19486        9.38102      -33.39768
1653.00000       10.10439        9.59188      -33.05231
1653.50000       10.28314       10.03273      -33.04151
1654.00000       11.06996       10.12756      -32.69614
1654.50000       11.94859       10.21155      -31.68164
1655.00000       13.93823       10.25213      -30.66714
1655.50000       16.20666       10.29188      -29.31808
1656.00000       18.47425        9.96018      -27.96902
1656.50000       19.39462        9.46154      -26.61995
1657.00000       18.89642        8.79595      -24.60176
1657.50000       17.19579        8.13037      -22.91813
1658.00000       15.37202        7.38131      -21.56906
1658.50000       13.09293        6.96614      -20.88913
1659.00000       11.05842        6.80138      -20.20919
1659.50000       11.13740        6.80357      -19.86383
1660.00000       11.94258        7.05617      -19.51846
1660.50000       12.90846        7.30877      -19.69501
1661.00000       13.25622        7.22748      -20.14591
1661.50000       13.49045        7.31314      -20.60015
1662.00000       13.22469        7.39879      -21.14591
1662.50000       12.95810        7.23404      -21.60350
1663.00000       12.55545        6.98581      -21.42542
1663.50000       11.60690        6.32066      -21.24733
1664.00000       10.65835        5.90549      -21.19303
1664.50000        9.71063        5.49032      -20.57332
1665.00000        8.92651        5.07515      -20.07956
1665.50000        8.25342        4.65998      -19.73203
1666.00000        7.57948        4.24481      -20.05579
1666.50000        6.90639        3.91311      -21.38325
1667.00000        6.63812        3.74835      -23.37984
1667.50000        6.98004        3.66706      -26.04556
1668.00000        7.32112        3.58578      -28.71128
1668.50000        7.52530        3.42102      -30.70787
1669.00000        7.17941        3.17279      -30.36251
1669.50000        5.81601        2.67415      -28.67888
1670.00000        4.45177        2.42592      -27.32981
1670.50000        3.82458        2.31709      -26.98444
1671.00000        3.38186        2.17988      -26.97364
1671.50000        2.93915        2.04266      -26.96284
1672.00000        2.79609        2.08408      -27.28660
1672.50000        2.72900        2.16974      -28.27949
1673.00000        2.66607        2.20531      -29.27239
1673.50000        2.61066        2.22836      -28.59245
1674.00000        2.54484        2.25603      -26.57426
1674.50000        2.48943        2.27908      -23.21780
1675.00000        2.43402        2.32801      -21.19744
1675.50000        2.37861        2.37610      -20.80524
1676.00000        2.36911        2.42503      -20.73421
1676.50000        2.37129        2.51069      -20.66319
1677.00000        2.37348        2.65144      -20.59216
1677.50000        2.37566        2.79302      -20.52114
1678.00000        2.37785        2.93460      -20.39658
1678.50000        2.38003        3.11876      -20.05122
1679.00000        2.48489        3.31293      -20.27461
1679.50000        2.61562        3.53798      -21.43478
1680.00000        2.86321        3.88156      -23.09681
1680.50000        3.58158        4.22514      -25.42796
1681.00000        5.05246        5.41139      -27.42455
1681.50000        6.38017        6.40021      -29.75571
1682.00000        7.70872        7.66364      -31.08317
1682.50000        8.49136        8.12993      -31.74150
1683.00000        8.91090        8.31742      -31.39613
1683.50000        8.88554        8.08755      -31.05076
1684.00000        8.56302        7.80260      -30.70539
1684.50000        8.24050        7.48008      -29.69089
1685.00000        7.91799        7.17426      -29.34552
1685.50000        7.17644        6.87261      -27.99646
1686.00000        6.43406        6.32472      -26.98196
1686.50000        5.69252        5.76931      -26.30203
1687.00000        4.95098        5.84746      -26.62579
1687.50000        4.40893        5.92560      -27.95325
1688.00000        4.16821        6.09473      -28.94614
1688.50000        3.92666        6.51471      -29.26991
1689.00000        4.20681        6.85078      -30.26064
1689.50000        4.58672        7.52073      -30.91897
1690.00000        4.97371        8.27416      -31.91186
1690.50000        5.36153        8.69370      -33.57388
1691.00000        5.53567        8.86283      -35.23591
