~Version ---------------------------------------------------
VERS. 2.0 : CWLS LOG ASCII STANDARD - VERSION 2.0
WRAP. NO  : One line per depth step
DLM . SPACE : Column Data Section Delimiter
~Well ------------------------------------------------------
STRT.F         98.5 : START DEPTH
STOP.F       1003.5 : STOP DEPTH
STEP.F          0.5 : STEP
NULL.       -999.25 : NULL VALUE
COMP.                       WALSH & WATTS : COMPANY
WELL.                          SALMON D 8 : WELL
FLD .                          OLD NOCOMA : FIELD
CNTY.                            MONTAGUE : COUNTY
STAT.                               TEXAS : STATE
CTRY.                                 USA : COUNTRY
SEC .                                     : SECTION
TWP .                                     : TOWNSHIP
RGE .                                     : RANGE
LOC .                          OLD NOCOMA : LOCATION
EKB .F                          : ELEVATION KELLY BUSHING
EDF .F                      855 : ELEVATION DERRICK FLOOR
EGL .F                          : ELEVATION GROUND LEVEL
PDAT.                        RT : PERMANENT DATUM
EPD .                           : ELEVATION PERMANENT DATUM
APD .                         4 : ABOVE PERMANENT DATUM
LMF .                           : LOG MEASURED FROM
DMF .                           : DRILLING MEASURED FROM
API .            42337016420000 : API NUMBER
UWI .            42337016420000 : UWI NUMBER
DIGC.                     NthDS : DIGITIZING COMPANY
~Params ----------------------------------------------------
SRVC.              SCHLUMBERGER : LOGGING COMPANY
LOG .                        EL : LOG
DATE.                1948-12-15 : RUN DATE
RUN .                         1 : RUN NUMBER
TDD .F                          : TOTAL DEPTH DRILLER
TDL .F                          : TOTAL DEPTH LOGGER
BOTL.F                     1005 : BOTTOM LOGGED INTERVAL
TOPL.F                     1004 : TOP LOGGED INTERVAL
CSGS.IN                         : CASING SIZE
CSGD.F                          : CASING DRILLER
CSGL.F                          : CASING LOGGER
BS  .IN                       9 : BIT SIZE
MUD .                   AQUAGEL : MUD TYPE
MUDD.                      10.2 : MUD DENSITY
MUDV.                        40 : MUD VISCOSITY
PH  .                           : MUD PH
FL  .                           : FLUID LOSS
MUDS.                           : SOURCE OF SAMPLE
RM  .OHMM                    .8 : MUD RESISTIVITY
RMT .DEGF                    65 : RM TEMPERATURE
RMF .OHMM                       : MUD FILTRATE RESISTIVITY
RMFT.DEGF                       : RMF TEMPERATURE
RMC .OHMM                       : MUD CAKE RESISTIVITY
RMCT.DEGF                       : RMC TEMPERATURE
RMFS.                           : RMF SOURCE
RMCS.                           : RMC SOURCE
RMBH.OHMM                       : MUD RESISTIVITY AT BHT
BHT .DEGF                       : BOTTOM HOLE TEMPERATURE
TIMC.                           : TIME CIRCULATION STOPPED
TIML.                           : TIME LOGGER ON BOTTOM
TMAX.DEGF                       : MAXIMUM RECORDED TEMPERATURE
UNIT.                       201 : EQUIPMENT NUMBER
BASE.                           : BASE LOCATION
ENG .                    LITTLE : RECORDED BY
WIT .                 MR. WATTS : WITNESSED BY
~Curve Information -----------------------------------------
DEPT.F          :DEPTH
ILD.OHMM        :
LAT.OHMM        :
SN.OHMM         :
SP.MV           :
~ASCII ------------------------------------------------------
98.50000       26.67873       15.47767       16.76907      -45.59421
99.00000       25.84725       14.92678       14.96157      -45.61185
99.50000       23.20672       14.37500       13.50399      -45.62950
100.00000       21.19408       14.20357       12.66185      -45.64358
100.50000       19.99048       14.03125       11.74453      -45.66123
101.00000       18.27535       13.77768       11.37042      -45.68311
101.50000       17.24049       13.40000       10.99630      -45.69720
102.00000       16.20564       13.02232       10.62219      -45.71484
102.50000       14.49050       12.81250       10.24808      -45.73249
103.00000       13.00449       12.67857        9.87396      -45.74657
103.50000       12.45098       12.64910        9.48120      -45.76422
104.00000       11.84597       12.61875        9.08755      -45.78186
104.50000       10.99792       12.58928        8.69478      -45.79595
105.00000       10.82185       12.38839        8.46751      -45.81783
105.50000       10.64578       12.18750        8.48327      -45.83548
106.00000       10.43863       11.98660        8.49903      -45.84956
106.50000       10.10715       11.78571        8.51391      -45.86721
107.00000        9.97548       11.78571        8.52966      -45.88485
107.50000       10.45039       11.78571        8.54542      -45.89894
108.00000       11.24145       11.78571        8.63756      -45.91658
108.50000       11.74064       11.56696        9.04142      -45.93423
109.00000       11.70134       11.29285        9.52551      -45.95255
109.50000       11.67092       11.01964        9.92848      -45.97020
110.00000       12.47175       10.74553       10.40427      -45.87401
110.50000       14.27880       10.47232       11.17047      -45.77782
111.00000       16.37447       10.19910       11.93667      -45.68518
111.50000       18.31416        9.87500       12.70376      -45.58899
112.00000       18.96042        9.60714       13.54398      -45.49280
112.50000       18.97298        9.33928       13.66631      -45.39662
113.00000       18.94669        9.20357       13.78953      -45.28332
113.50000       19.12586        9.10000       13.70848      -45.18713
114.00000       19.37252        8.97321       13.57682      -45.09094
114.50000       19.71865        8.75000       13.10768      -44.99831
115.00000       20.65834        8.52678       12.55417      -44.90212
115.50000       20.48227        8.25893       12.00066      -44.80593
116.00000       19.64546        8.03571       11.38854      -44.70974
116.50000       18.69941        7.98036       10.60621      -44.61711
117.00000       17.31909        7.98661        9.95501      -44.50026
117.50000       15.98850        8.08750        9.42282      -44.40407
118.00000       14.73251        8.18750        9.06913      -44.31144
118.50000       13.47563        8.28839        8.71545      -44.54607
119.00000       12.14504        8.38839        8.36176      -45.28229
119.50000       10.66614        8.48928        7.94057      -46.01851
120.00000        9.48386        8.60982        7.41726      -46.75473
120.50000        8.95255        8.70982        6.96500      -46.61230
121.00000        8.31498        8.68571        6.76703      -46.44565
121.50000        7.85117        8.57768        6.60251      -46.30321
122.00000        7.65468        8.46964        6.47085      -46.16433
122.50000        7.45907        8.36250        6.47240      -46.02190
123.00000        7.26346        8.25446        6.47395      -45.88302
123.50000        7.06786        8.14643        6.47550      -45.74059
124.00000        6.87136        8.16964        6.47705      -45.75467
124.50000        6.87557        8.23661        6.55497      -45.80433
125.00000        6.93871        8.29286        6.67051      -45.86891
125.50000        6.99177        8.44911        6.79284      -45.91856
126.00000        7.04572        8.63125        7.01641      -45.97178
126.50000        7.09878        8.81250        7.23999      -46.02144
127.00000        7.15184        8.99464        7.46356      -46.07466
127.50000        7.20490        9.17678        7.74664      -46.02471
128.00000        7.25796        9.19643        8.26594      -45.91429
128.50000        7.53926        8.92857        8.78525      -45.80032
129.00000        9.02868        8.62143        9.40878      -45.66568
129.50000       10.88634        8.31518       10.32951      -45.55171
130.00000       12.77243        8.00803       11.34970      -45.44129
130.50000       14.29528        7.88303       12.36989      -45.32731
131.00000       16.22400        7.80446       13.21957      -45.21689
131.50000       15.79660        7.72589       13.73888      -45.10291
132.00000       14.91036        7.75803       13.23542      -45.09566
132.50000       14.17124        7.95625       12.68724      -45.15599
133.00000       13.67724        8.57143       12.13906      -45.22768
133.50000       13.34575        9.24107       11.59088      -45.28801
134.00000       13.00094        9.91071       11.34021      -45.34834
134.50000       12.60285       10.53571       11.30623      -45.41223
135.00000       12.03069       10.98214       11.30778      -45.47256
135.50000       10.76404       11.11964       11.30933      -45.53289
136.00000       10.07199       11.25714       11.16257      -45.59322
136.50000        9.52381       11.44643       10.86870      -45.65355
137.00000        8.86582       11.71428       10.59227      -45.72524
137.50000        8.31764       12.03571       10.31674      -45.78913
138.00000        7.96306       12.30357       10.04032      -45.84946
138.50000        7.65733       12.57143        9.82872      -45.90979
139.00000        7.42265       12.54464        9.63312      -45.97012
139.50000        7.47393       12.32143        9.59026      -46.03046
140.00000        7.77122       12.02410        9.54741      -46.09079
140.50000        8.43884       11.42857       10.03328      -46.15112
141.00000        9.88385       10.78571       10.43891      -46.00581
141.50000       11.19534        9.89285       11.26550      -45.70330
142.00000       12.50683        9.11875       12.15603      -45.40078
142.50000       13.81832        8.34553       13.09008      -45.09827
143.00000       14.43088        7.63393       13.73106      -44.79220
143.50000       14.50259        7.35714       13.56742      -44.48969
144.00000       13.20161        7.46428       12.78687      -44.50022
144.50000       11.87102        8.02232       11.90033      -44.58901
145.00000       10.54043        8.67411       10.71805      -44.69271
145.50000        9.20984        9.33214        9.77200      -44.78150
146.00000        8.02756       10.14910        9.18208      -44.87029
146.50000        7.43675       10.82946        8.59127      -44.95908
147.00000        7.31130       11.50893        8.33883      -45.04787
147.50000        7.18586       12.14285        8.08727      -45.13310
148.00000        7.06041       12.58928        7.90055      -45.07248
148.50000        6.93585       12.61875        7.97581      -44.90871
149.00000        7.35600       12.25446        8.51052      -44.71359
149.50000        8.48010       11.69643        9.03694      -44.54982
150.00000        9.48061       11.11607        9.59400      -44.10894
150.50000       10.72323       10.45114       10.44823      -43.90934
151.00000       11.92657        9.78523       11.47032      -43.90221
151.50000       13.12990        9.11932       12.49241      -44.00558
152.00000       14.35913        8.89632       13.48860      -44.10894
152.50000       15.00801        8.71730       13.88302      -44.21231
153.00000       14.02743        8.93721       13.35243      -44.31568
153.50000       12.48346        9.52650       12.56114      -44.41904
154.00000       10.93950       10.11492       12.11092      -44.51884
154.50000        9.78035       10.70421       11.88926      -44.62221
155.00000        9.19887       11.29351       11.29529      -44.72558
155.50000        8.61651       11.80574       10.70221      -44.82894
