~Version ---------------------------------------------------
VERS. 2.0 : CWLS LOG ASCII STANDARD - VERSION 2.0
WRAP. NO  : One line per depth step
DLM . SPACE : Column Data Section Delimiter
~Well ------------------------------------------------------
STRT.F          800 : START DEPTH
STOP.F       1756.5 : STOP DEPTH
STEP.F          0.5 : STEP
NULL.       -999.25 : NULL VALUE
COMP.                 WALSH & WATTS, INC. : COMPANY
WELL.                       SALMON D E 6D : WELL
FLD .                             REGULAR : FIELD
CNTY.                            MONTAGUE : COUNTY
STAT.                               TEXAS : STATE
CTRY.                                 USA : COUNTRY
SEC .                                     : SECTION
TWP .                                     : TOWNSHIP
RGE .                                     : RANGE
LOC .  460 FSL 755 FEL
F. ROBERTSON A-620 : LOCATION
EKB .F                      880 : ELEVATION KELLY BUSHING
EDF .F                      878 : ELEVATION DERRICK FLOOR
EGL .F                      874 : ELEVATION GROUND LEVEL
PDAT.                        GL : PERMANENT DATUM
EPD .                       874 : ELEVATION PERMANENT DATUM
APD .                           : ABOVE PERMANENT DATUM
LMF .                        KB : LOG MEASURED FROM
DMF .                        KB : DRILLING MEASURED FROM
API .            42337016430000 : API NUMBER
UWI .            42337016430000 : UWI NUMBER
DIGC.                     NthDS : DIGITIZING COMPANY
~Params ----------------------------------------------------
SRVC.              SCHLUMBERGER : LOGGING COMPANY
LOG .                   CNFD/ML : LOG
DATE.                2005-08-03 : RUN DATE
RUN .                         1 : RUN NUMBER
TDD .F                     1750 : TOTAL DEPTH DRILLER
TDL .F                     1750 : TOTAL DEPTH LOGGER
BOTL.F                     1750 : BOTTOM LOGGED INTERVAL
TOPL.F                      980 : TOP LOGGED INTERVAL
CSGS.IN                       7 : CASING SIZE
CSGD.F                      880 : CASING DRILLER
CSGL.F                      880 : CASING LOGGER
BS  .IN                     6.5 : BIT SIZE
MUD .                       FGM : MUD TYPE
MUDD.                       0.2 : MUD DENSITY
MUDV.                        80 : MUD VISCOSITY
PH  .                        11 : MUD PH
FL  .                         7 : FLUID LOSS
MUDS.                       PIT : SOURCE OF SAMPLE
RM  .OHMM                  1.70 : MUD RESISTIVITY
RMT .DEGF                    70 : RM TEMPERATURE
RMF .OHMM                  1.33 : MUD FILTRATE RESISTIVITY
RMFT.DEGF                    70 : RMF TEMPERATURE
RMC .OHMM                  2.67 : MUD CAKE RESISTIVITY
RMCT.DEGF                    70 : RMC TEMPERATURE
RMFS.                      MEAS : RMF SOURCE
RMCS.                       CAL : RMC SOURCE
RMBH.OHMM                  1.47 : MUD RESISTIVITY AT BHT
BHT .DEGF                    98 : BOTTOM HOLE TEMPERATURE
TIMC.                     2100  : TIME CIRCULATION STOPPED
TIML.                     0300  : TIME LOGGER ON BOTTOM
TMAX.DEGF                    98 : MAXIMUM RECORDED TEMPERATURE
UNIT.                       303 : EQUIPMENT NUMBER
BASE.                   WICHITA : BASE LOCATION
ENG .              DAVID PARKER : RECORDED BY
WIT .              MR. BURLESON : WITNESSED BY
~Curve Information -----------------------------------------
DEPT.F          :DEPTH
CALD.IN         :
DPHI.%          :
GRD.GAPI        :
MINV.OHMM       :
MNOR.OHMM       :
NPHI.%          :
~ASCII ------------------------------------------------------
# ...
1720.00000        5.50536       12.25182      114.60106        6.13185        4.46704       18.30626
1720.50000        5.55060       12.98556      116.27759        6.00020        4.20589       18.21467
1721.00000        5.51903       14.19491      114.13160        6.14863        4.41594       18.12308
1721.50000        5.48130       15.45048      113.57027        6.71755        4.68997       18.17293
1722.00000        5.46827       16.06932      111.16722        7.28646        4.96322       18.14553
1722.50000        5.46774       16.28400      107.00110        6.86383        5.23724       17.94814
1723.00000        5.46721       14.88091       95.49982        6.61750        5.42468       17.57246
1723.50000        5.46668       14.99495       88.68756        6.69416        5.24622       16.92813
1724.00000        5.46837       14.88949       89.13327        5.52259        4.55210       16.24656
1724.50000        5.47309       13.19636       93.17771        5.40448        4.20124       15.81144
1725.00000        5.47780       13.15747       98.10219        5.36384        4.07973       15.45556
1725.50000        5.48252       13.79215      100.90371        5.45063        3.95823       15.48601
1726.00000        5.48723       13.78297      110.11945        5.59516        4.71723       16.09890
1726.50000        5.49195       13.94417      116.69064        6.48549        5.78856       16.85245
1727.00000        5.49666       15.54564      117.51437        7.40208        6.84038       17.28110
1727.50000        5.50207       16.72726      115.26700        6.50122        5.44569       17.54610
1728.00000        5.50679       13.82748      106.91242        6.21355        5.00434       17.48066
1728.50000        5.51150       13.55877      107.29764        6.08736        5.02638       16.95322
1729.00000        5.51601       14.73841      104.71920        6.04544        4.79098       16.43450
1729.50000        5.52073       14.53944      103.10848        6.28748        4.36288       15.95064
1730.00000        5.52544       14.11581      106.00072        6.09108        3.50883       15.55792
1730.50000        5.52996       13.76667      109.84255        5.89468        2.10322       15.30110
1731.00000        5.53467       13.80028      112.94044        5.85432        1.13449       15.21069
1731.50000        5.53938       14.02289      113.07163        5.81395        1.66752       15.46119
1732.00000        5.54390       13.43364      113.19980        5.95223        1.21602       15.71946
1732.50000        5.54861       12.61379      112.68685        6.08973        0.76452       16.32839
1733.00000        5.55312       13.33327      111.67189        6.12192        0.16686       16.87551
1733.50000        5.55300       13.75874      113.17605        5.73049        0.33791       17.34853
1734.00000        5.52978       13.24993      115.88987        5.96317        0.97002       17.77995
1734.50000        5.51030       13.52801      115.44950        6.02656        0.86490       18.04496
1735.00000        5.49788       14.28156      118.89818        6.41499        0.45084       18.19902
1735.50000        5.51308       13.29173      124.33374        6.73895       -0.57484       18.18628
1736.00000        5.52828       13.73979      123.76333        7.23921        0.24295       18.17393
1736.50000        5.54348       14.56110      122.20100        7.20431        2.26370       18.09541
1737.00000        5.55867       14.23177      117.87157        7.98308        0.78632       17.91784
1737.50000        5.57387       14.96684      115.77396        7.27960        1.21013       17.78504
1738.00000        5.58907       16.76246      112.34876        8.13639        1.38040       17.68037
1738.50000        5.55729       16.62451      104.83029        7.35489        2.31520       17.29809
1739.00000        5.51342       15.56851      105.00987        6.88544        3.14079       16.76391
1739.50000        5.46974       14.67773      107.83860        6.45501        5.31055       16.52968
1740.00000        5.41730       14.44746      107.32565        5.86854        3.68416       16.36082
1740.50000        5.41193       14.60667        -999.25        5.76654        2.90266       16.19157
1741.00000        5.41624       14.75004        -999.25        5.98284        4.30555       16.25846
1741.50000        5.42055       14.79039        -999.25        6.17651        2.94675       16.48345
1742.00000        5.42466       14.56923        -999.25        6.37018        0.40186       16.74846
1742.50000        5.42615       13.93600        -999.25        6.56386        0.40050       16.96235
1743.00000        5.42562       14.25370        -999.25        6.50711        0.39914       17.10057
1743.50000        5.42509       15.27787        -999.25        6.95093        1.11317       17.23839
1744.00000        5.42457       15.83569        -999.25        7.40205        0.89025       16.96691
1744.50000        5.41396       16.25695        -999.25        7.20799       -0.05352       16.59360
1745.00000        5.39327       15.40580        -999.25        6.55678       -0.42155       16.66050
1745.50000        5.34234       13.52828        -999.25        5.90556       -0.56489       16.69411
1746.00000        5.31146       11.22695        -999.25        5.86987       -0.62321        -999.25
1746.50000        5.24037       10.85126        -999.25        5.98865       -0.62457        -999.25
1747.00000        5.13904       11.05010        -999.25        6.05750       -0.62593        -999.25
1747.50000        5.05021       11.92266        -999.25        5.92586       -0.62729        -999.25
1748.00000        4.96420       12.51772        -999.25        6.02201       -0.56156        -999.25
1748.50000        4.89956       12.32034        -999.25        6.11817       -0.47945        -999.25
1749.00000        4.91919       12.23112        -999.25        6.15582       -0.39733        -999.25
1749.50000        -999.25       12.14151        -999.25        5.79949       -0.21174        -999.25
1750.00000        -999.25        -999.25        -999.25        6.36320       -0.08800        -999.25
1750.50000        -999.25        -999.25        -999.25        6.81886       -0.18591        -999.25
1751.00000        -999.25        -999.25        -999.25        6.77579       -0.27673        -999.25
1751.50000        -999.25        -999.25        -999.25        7.06313       -0.11388        -999.25
1752.00000        -999.25        -999.25        -999.25        7.67145        2.23487        -999.25
1752.50000        -999.25        -999.25        -999.25        8.03864        2.78291        -999.25
1753.00000        -999.25        -999.25        -999.25        8.16234        2.91366        -999.25
1753.50000        -999.25        -999.25        -999.25        8.10676        4.85765        -999.25
1754.00000        -999.25        -999.25        -999.25        7.86170        0.40832        -999.25
1754.50000        -999.25        -999.25        -999.25        7.87188        2.23487        -999.25
1755.00000        -999.25        -999.25        -999.25        8.34163        1.68683        -999.25
1755.50000        -999.25        -999.25        -999.25        7.91103        2.70462        -999.25
1756.00000        -999.25        -999.25        -999.25        7.48042        1.66099        -999.25
1756.50000        -999.25        -999.25        -999.25        7.48042        -999.25        -999.25
