~Version ---------------------------------------------------
VERS. 2.0 : CWLS LOG ASCII STANDARD - VERSION 2.0
WRAP. NO  : One line per depth step
DLM . SPACE : Column Data Section Delimiter
~Well ------------------------------------------------------
STRT.F          572 : START DEPTH
STOP.F       1770.0 : STOP DEPTH
STEP.F          0.5 : STEP
NULL.       -999.25 : NULL VALUE
COMP.         WALSH & WATTS, INCORPORATED : COMPANY
WELL.                         SALMON E 44 : WELL
FLD .                             REGULAR : FIELD
CNTY.                            MONTAGUE : COUNTY
STAT.                               TEXAS : STATE
CTRY.                                 USA : COUNTRY
SEC .                                     : SECTION
TWP .                                     : TOWNSHIP
RGE .                                     : RANGE
LOC . 300' WEST OF NO 23, 300' SOUTH OF D-9, F.ROBERTSON SURV. : LOCATION
EKB .F                      862 : ELEVATION KELLY BUSHING
EDF .F                          : ELEVATION DERRICK FLOOR
EGL .F                      856 : ELEVATION GROUND LEVEL
PDAT.                        GL : PERMANENT DATUM
EPD .                       856 : ELEVATION PERMANENT DATUM
APD .                         6 : ABOVE PERMANENT DATUM
LMF .                        KB : LOG MEASURED FROM
DMF .                        KB : DRILLING MEASURED FROM
API .            42337038720000 : API NUMBER
UWI .                           : UWI NUMBER
DIGC.                     NthDS : DIGITIZING COMPANY
~Params ----------------------------------------------------
SRVC.              SCHLUMBERGER : LOGGING COMPANY
LOG .                     SONIC : LOG
DATE.                1965-11-28 : RUN DATE
RUN .                         1 : RUN NUMBER
TDD .F                     1179 : TOTAL DEPTH DRILLER
TDL .F                     1179 : TOTAL DEPTH LOGGER
BOTL.F                     1170 : BOTTOM LOGGED INTERVAL
TOPL.F                      600 : TOP LOGGED INTERVAL
CSGS.IN                         : CASING SIZE
CSGD.F                          : CASING DRILLER
CSGL.F                          : CASING LOGGER
BS  .IN                   7.875 : BIT SIZE
MUD .                       GEL : MUD TYPE
MUDD.                        10 : MUD DENSITY
MUDV.                        98 : MUD VISCOSITY
PH  .                           : MUD PH
FL  .                           : FLUID LOSS
MUDS.                CIRCULATED : SOURCE OF SAMPLE
RM  .OHMM                   2.0 : MUD RESISTIVITY
RMT .DEGF                    81 : RM TEMPERATURE
RMF .OHMM                   1.5 : MUD FILTRATE RESISTIVITY
RMFT.DEGF                    81 : RMF TEMPERATURE
RMC .OHMM                       : MUD CAKE RESISTIVITY
RMCT.DEGF                       : RMC TEMPERATURE
RMFS.                         M : RMF SOURCE
RMCS.                           : RMC SOURCE
RMBH.OHMM                   1.6 : MUD RESISTIVITY AT BHT
BHT .DEGF                   100 : BOTTOM HOLE TEMPERATURE
TIMC.                           : TIME CIRCULATION STOPPED
TIML.                           : TIME LOGGER ON BOTTOM
TMAX.DEGF                   100 : MAXIMUM RECORDED TEMPERATURE
UNIT.                      4559 : EQUIPMENT NUMBER
BASE.                       WFS : BASE LOCATION
ENG .                      FINK : RECORDED BY
WIT .                       NIX : WITNESSED BY
~Curve Information -----------------------------------------
DEPT.F          :DEPTH
CALS.IN         :
DT.US/F         :
SP.MV           :
~ASCII ------------------------------------------------------
572.00000        8.16733        -999.25      -78.54085
572.50000        8.19123        -999.25      -76.33269
573.00000        8.19123        -999.25      -76.49404
573.50000        8.11155        -999.25      -78.43627
574.00000        7.83705        -999.25      -82.70918
574.50000        7.74861        -999.25      -87.77392
575.00000        7.64602        -999.25      -89.01097
575.50000        7.53386        -999.25      -89.34264
576.00000        7.56235        -999.25      -89.15440
576.50000        7.59084        -999.25      -88.96914
577.00000        7.59621        -999.25      -88.78089
577.50000        7.49163        -999.25      -87.14045
578.00000        7.50060        -999.25      -85.53587
578.50000        7.53386        -999.25      -83.93129
579.00000        7.57131        -999.25      -82.32671
579.50000        7.61474        -999.25      -80.72213
580.00000        7.65837        -999.25      -79.63149
580.50000        7.68466        -999.25      -80.45918
581.00000        7.64203        -999.25      -81.68129
581.50000        7.49004        -999.25      -81.20022
582.00000        7.51116        -999.25      -79.58069
582.50000        7.43426        -999.25      -78.28687
583.00000        7.44422        -999.25      -76.49404
583.50000        7.91235        -999.25      -73.50599
584.00000        8.06733        -999.25      -71.95221
584.50000        8.14402        -999.25      -73.30580
585.00000        7.90737        -999.25      -75.29882
585.50000        7.79283        -999.25      -77.85958
586.00000        7.82072        -999.25      -77.45022
586.50000        7.93665        -999.25      -74.26496
587.00000        8.04741        -999.25      -72.08070
587.50000        8.11155        -999.25      -69.89643
588.00000        8.15139        -999.25      -69.86058
588.50000        8.12351        -999.25      -70.90639
589.00000        7.96215        -999.25      -72.78886
589.50000        7.94084        -999.25      -74.88050
590.00000        8.07171        -999.25      -73.70619
590.50000        8.19920        -999.25      -71.71317
591.00000        8.21912        -999.25      -70.21914
591.50000        8.23108        -999.25      -69.67831
592.00000        8.23108        -999.25      -69.77094
592.50000        8.31076        -999.25      -69.86357
593.00000        8.25956        -999.25      -70.25500
593.50000        8.08167        -999.25      -70.81675
594.00000        7.73088        -999.25      -75.05082
594.50000        7.35458        -999.25      -79.24305
595.00000        7.50398        -999.25      -80.07970
595.50000        7.67612        -999.25      -77.33966
596.00000        7.84826        -999.25      -75.59763
596.50000        8.02040        -999.25      -70.51795
597.00000        8.07311        -999.25      -71.71317
597.50000        7.92689        -999.25      -72.88723
598.00000        7.78088        -999.25      -74.10734
598.50000        7.69323        -999.25      -75.32745
599.00000        7.69323        -999.25      -76.54755
599.50000        7.69323      118.34269      -77.76766
600.00000        7.69323      119.15832      -79.37452
600.50000        7.69323      120.21042      -80.12153
601.00000        7.69323      122.42485      -80.97611
601.50000        7.73227      122.64529      -79.78089
602.00000        7.77112      109.93988      -81.08667
602.50000        7.81016       93.54710      -82.39543
603.00000        7.84920       87.64530      -83.70121
603.50000        7.85259       93.03908      -84.17631
604.00000        7.81932      103.32666      -83.54583
604.50000        7.80279      111.34269      -82.35061
605.00000        7.81554      108.42385      -82.84962
605.50000        7.77291      102.85071      -84.48109
606.00000        7.77291      104.30862      -85.33866
606.50000        7.77291      110.34069      -83.96416
607.00000        7.88247      116.00201      -80.97611
607.50000        8.05179      117.06814      -75.21217
608.00000        8.30677      118.03407      -72.12253
608.50000        8.33944      119.48096      -70.73608
609.00000        8.26215      117.55511      -70.33866
609.50000        8.21773      116.01203      -69.94125
610.00000        8.19562      118.18137      -69.94125
610.50000        8.15438      119.52205      -71.54285
611.00000        8.10857      119.83467      -73.14444
611.50000        8.01693      114.12325      -74.30380
612.00000        7.77291      103.28858      -74.91337
612.50000        7.71972      107.21443      -75.98309
613.00000        8.05578      110.64129      -74.79982
613.50000        8.05179      103.37676      -76.34464
614.00000        7.73307      102.56513      -84.86057
614.50000        7.74721       98.44990      -86.35460
615.00000        7.70817       93.10622      -86.45320
615.50000        7.63347       99.76954      -85.71516
616.00000        7.72311      107.40982      -84.26296
616.50000        7.97211      111.08217      -81.02691
617.00000        7.93486      111.02505      -76.79285
617.50000        7.86972      110.32966      -75.29882
618.00000        7.76295      109.63327      -75.29882
618.50000        7.65617      108.93788      -76.91834
619.00000        7.64761      110.73347      -78.86058
619.50000        7.76633      112.52806      -79.48209
620.00000        7.96215      111.92385      -75.29882
620.50000        8.10976      109.98998      -72.06277
621.00000        8.10060      111.24249      -70.66735
621.50000        8.09163      111.24249      -69.96217
622.00000        8.00857      110.24048      -70.17731
622.50000        8.10359      111.17535      -70.96615
623.00000        7.98805      112.06914      -71.89843
623.50000        8.01594      113.13327      -72.83368
624.00000        7.92570      114.38878      -73.76595
624.50000        7.79283      115.69139      -75.41834
625.00000        7.57370      118.43688      -78.40639
625.50000        7.17530      120.98197      -79.78089
626.00000        7.02590      116.41984      -82.81077
626.50000        7.25498      106.73347      -83.66535
627.00000        7.36454       99.81964      -85.56874
627.50000        7.41434      102.52505      -89.11854
628.00000        7.36454       97.91584      -95.61754
628.50000        7.31474      101.12225      -97.49702
629.00000        7.26494      109.23848      -97.92133
629.50000        7.27151      115.08317      -94.27292
630.00000        7.06235      113.20642      -89.59962
630.50000        6.85159      109.39880      -86.65340
631.00000        6.85657      110.74149      -85.45818
631.50000        7.21235      107.81864      -83.96416
632.00000        7.47410      107.23447      -82.47014
632.50000        7.52390      108.15331      -79.69424
633.00000        7.38645      108.03608      -75.00002
633.50000        7.37052      111.68638      -73.50599
634.00000        7.54263      114.88277      -73.62552
634.50000        7.79004      116.55311      -75.05978
635.00000        7.97490      114.54910      -75.15838
635.50000        8.07390      112.02706      -74.98209
636.00000        8.15139      110.94189      -74.80580
636.50000        8.13147      112.04409      -75.54683
637.00000        7.94880      105.43087      -77.66536
637.50000        7.69980      104.12826      -79.78089
638.00000        7.65339      109.20942      -78.08667
638.50000        7.75299      109.05211      -75.26595
639.00000        7.79621      103.45992      -77.83866
639.50000        7.61355      103.98497      -82.32073
640.00000        7.56574      108.13628      -86.35460
640.50000        7.54044      104.51804      -84.22113
641.00000        7.57370      102.14930      -83.21715
641.50000        7.60697      105.15932      -85.63747
642.00000        7.62052      108.73748      -89.42332
642.50000        7.62908      107.23447      -93.20619
643.00000        7.63785      108.80461      -96.21515
643.50000        7.64641      110.74850      -91.52093
644.00000        7.64343      112.43087      -90.76197
644.50000        7.66833      114.44890      -88.38647
