~Version ---------------------------------------------------
VERS. 2.0 : CWLS LOG ASCII STANDARD - VERSION 2.0
WRAP. NO  : One line per depth step
DLM . SPACE : Column Data Section Delimiter
~Well ------------------------------------------------------
STRT.F          100 : START DEPTH
STOP.F       1218.0 : STOP DEPTH
STEP.F          0.5 : STEP
NULL.       -999.25 : NULL VALUE
COMP.                       WALSH & WATTS : COMPANY
WELL.                          SALMON A 6 : WELL
FLD .                          OLD NOCONA : FIELD
CNTY.                            MONTAGUE : COUNTY
STAT.                               TEXAS : STATE
CTRY.                                 USA : COUNTRY
SEC .                                     : SECTION
TWP .                                     : TOWNSHIP
RGE .                                     : RANGE
LOC .                                     : LOCATION
EKB .F                          : ELEVATION KELLY BUSHING
EDF .F                      884 : ELEVATION DERRICK FLOOR
EGL .F                      878 : ELEVATION GROUND LEVEL
PDAT.                           : PERMANENT DATUM
EPD .                           : ELEVATION PERMANENT DATUM
APD .                       5.5 : ABOVE PERMANENT DATUM
LMF .                       KDB : LOG MEASURED FROM
DMF .                       KDB : DRILLING MEASURED FROM
API .            42337039770000 : API NUMBER
UWI .                           : UWI NUMBER
DIGC.                     NthDS : DIGITIZING COMPANY
~Params ----------------------------------------------------
SRVC.     THE ELGEN CORPORATION : LOGGING COMPANY
LOG .                        EL : LOG
DATE.                1954-12-19 : RUN DATE
RUN .                         1 : RUN NUMBER
TDD .F                     1217 : TOTAL DEPTH DRILLER
TDL .F                     1219 : TOTAL DEPTH LOGGER
BOTL.F                     1218 : BOTTOM LOGGED INTERVAL
TOPL.F                      100 : TOP LOGGED INTERVAL
CSGS.IN                         : CASING SIZE
CSGD.F                          : CASING DRILLER
CSGL.F                          : CASING LOGGER
BS  .IN                    8.75 : BIT SIZE
MUD .                       GEL : MUD TYPE
MUDD.                        10 : MUD DENSITY
MUDV.                        60 : MUD VISCOSITY
PH  .                           : MUD PH
FL  .                           : FLUID LOSS
MUDS.                           : SOURCE OF SAMPLE
RM  .OHMM                   2.4 : MUD RESISTIVITY
RMT .DEGF                    58 : RM TEMPERATURE
RMF .OHMM                       : MUD FILTRATE RESISTIVITY
RMFT.DEGF                       : RMF TEMPERATURE
RMC .OHMM                       : MUD CAKE RESISTIVITY
RMCT.DEGF                       : RMC TEMPERATURE
RMFS.                           : RMF SOURCE
RMCS.                           : RMC SOURCE
RMBH.OHMM                       : MUD RESISTIVITY AT BHT
BHT .DEGF                       : BOTTOM HOLE TEMPERATURE
TIMC.                           : TIME CIRCULATION STOPPED
TIML.                           : TIME LOGGER ON BOTTOM
TMAX.DEGF                       : MAXIMUM RECORDED TEMPERATURE
UNIT.                           : EQUIPMENT NUMBER
BASE.                           : BASE LOCATION
ENG .                 STONE-302 : RECORDED BY
WIT .                      TODD : WITNESSED BY
~Curve Information -----------------------------------------
DEPT.F          :DEPTH
LAT.OHMM        :
LN.OHMM         :
SN.OHMM         :
SP.MV           :
~ASCII ------------------------------------------------------
# ...
387.50000        9.63417        7.67843        8.35957      -63.10163
388.00000        9.23703        8.00651        8.39445      -62.38862
388.50000        8.82021        8.25268        8.42844      -61.31910
389.00000        8.40340        8.58055        8.46333      -59.89308
389.50000        7.98748        8.66331        8.49731      -59.18007
390.00000        7.57066        8.82778        8.53130      -57.75404
390.50000        7.15384        8.74715        8.56619      -57.75404
391.00000        6.73703        8.58482        8.60912      -57.75404
391.50000        6.32021        8.50419        8.66547      -58.11055
392.00000        5.90340        8.50526        8.72093      -58.82356
392.50000        6.14848        8.42463        8.77728      -58.46705
393.00000        6.39356        8.50740        8.83274      -58.46705
393.50000        6.63953        8.59017        8.99284      -59.18007
394.00000        6.88461        8.83634        9.22182      -59.89308
394.50000        7.12969        8.91911        9.45170      -59.89308
395.00000        7.37477        9.24697        9.68068      -59.89308
395.50000        7.31037        9.41144        9.90966      -59.18007
396.00000        7.16816        9.57591       10.13953      -59.89308
396.50000        7.02594        9.49528       10.36851      -59.89308
397.00000        6.88282        9.49635       10.59839      -60.60609
397.50000        6.90698        9.49742       10.84883      -61.31910
398.00000        7.18068        9.49848       11.10375      -62.74513
398.50000        7.45349        9.58125       11.35957      -63.81465
399.00000        7.72719        9.58232       11.61538      -64.88417
399.50000        8.00000        9.58339       11.87030      -65.95368
400.00000        8.21914        9.48863       12.07513      -67.13784
400.50000        8.56272        9.40720       12.14605      -67.84455
401.00000        8.87097        9.32577       12.18638      -68.19791
401.50000        9.31899        9.16184       12.22670      -68.55127
402.00000        9.76702        8.91539       12.26792      -67.84455
402.50000       10.21505        8.83397       12.30824      -66.43112
403.00000       10.80018        8.42251       12.34946      -65.37105
403.50000       11.47760        8.09356       12.49193      -64.31098
404.00000       12.15502        7.76460       12.70251      -63.60427
404.50000       12.83243        7.76568       12.91398      -63.25091
405.00000       13.50985        7.76676       13.02688      -62.89756
405.50000       14.18727        7.85035       12.75000      -62.19084
406.00000       14.86380        8.01645       12.47401      -61.83749
406.50000       15.54122        8.10004       12.19713      -61.83749
407.00000       16.21863        8.26613       11.92025      -61.83749
407.50000       15.62096        8.51474       11.64337      -61.13077
408.00000       14.80286        8.76334       11.36648      -61.13077
408.50000       13.92921        9.01194       11.07079      -60.42406
409.00000       13.05555        9.26055       10.74462      -60.07070
409.50000       12.18190        9.42664       10.41846      -59.36399
410.00000       11.09140        9.26271       10.09319      -58.30392
410.50000        9.94623        9.26379        9.76702      -57.95056
411.00000        8.80107        9.09985        9.44086      -57.95056
411.50000        7.86111        8.85341        9.11559      -57.95056
412.00000        7.74193        8.68947        9.12186      -58.30392
412.50000        7.62276        8.36052        9.21147      -58.65727
413.00000        7.57975        8.11408        9.30107      -59.71734
413.50000        7.84319        7.86763        9.39068      -60.07070
414.00000        8.10663        7.70370        9.48028      -60.07070
414.50000        8.37007        7.62227        9.56989      -60.07070
415.00000        8.63351        7.62335        9.65950      -60.42406
415.50000        8.89695        7.70694        9.74910      -60.77742
416.00000        9.16129        7.70802        9.83871      -61.48413
416.50000        9.22312        7.79160        9.68100      -62.19084
417.00000        8.93548        7.87519        9.41846      -62.54420
417.50000        8.69623        7.95878        9.19892      -62.54420
418.00000        8.45609        7.95986        8.97939      -62.54420
418.50000        8.21684        8.04345        8.76075      -61.83749
419.00000        7.97670        7.87973        8.54122      -61.13077
419.50000        7.73745        7.79830        8.32168      -60.42406
420.00000        7.49731        7.55186        8.10304      -60.07070
420.50000        7.25806        7.38792        7.88351      -59.36399
421.00000        7.53226        7.14148        7.77061      -58.65727
421.50000        7.80555        7.06005        7.72939      -57.24385
422.00000        8.07975        6.97862        7.68727      -55.83042
422.50000        8.35304        6.97970        7.64606      -54.77035
423.00000        8.62724        6.98078        7.60394      -53.71028
423.50000        8.90054        6.98186        7.56272      -53.71028
424.00000        9.17473        6.98294        7.52061      -54.41699
424.50000        9.44803        6.98402        7.47939      -54.77035
425.00000        9.72222        7.06761        7.43727      -55.12371
425.50000        9.99641        7.06869        7.48566      -55.83042
426.00000       10.14785        7.15228        7.53315      -56.18378
426.50000        9.81183        7.23587        7.58154      -56.18378
427.00000        9.47580        7.15444        7.62903      -55.47706
427.50000        9.13978        7.15552        7.67742      -54.41699
428.00000        9.15233        7.15660        7.72491      -54.06364
428.50000        9.16487        7.24019        7.77330      -54.06364
429.00000        9.17742        7.32377        7.82168      -54.41699
429.50000        9.18996        7.48987        7.86917      -55.12371
430.00000        9.20161        7.49095        7.91756      -56.18378
430.50000        9.21416        7.57454        7.96505      -57.59720
431.00000        9.22670        7.57562        8.29480      -59.71734
431.50000        9.10394        7.65921        8.69444      -60.77742
432.00000        8.94713        7.82530        9.09408      -62.19084
432.50000        8.79032        7.90889        9.49373      -62.89756
433.00000        8.63351        7.99248        9.89337      -63.25091
433.50000        8.81810        8.07607       10.37276      -63.25091
434.00000        9.03315        8.07715       10.77240      -63.60427
434.50000        9.24910        8.16073       11.02957      -63.95763
435.00000        9.46505        8.32683       11.19265      -63.95763
435.50000        9.68100        8.49293       11.35573      -64.31098
436.00000        9.59050        8.49401       11.51881      -65.37105
436.50000        9.29749        8.49509       11.68100      -66.78448
437.00000        9.00358        8.41366       11.84408      -67.84455
437.50000        8.71057        8.41474       12.00717      -68.90462
438.00000        8.41666        8.33331       11.67473      -69.61134
438.50000        8.12365        8.25188       11.34140      -68.55127
439.00000        8.23835        8.08795       11.00896      -67.49119
439.50000        8.45609        8.08903       10.67562      -66.07777
440.00000        8.67383        7.92509       10.34319      -63.25091
440.50000        8.89158        7.92617       10.00985      -60.42406
441.00000        9.10932        7.76223        9.67742      -57.95056
441.50000        9.32706        7.68081        9.71057      -55.47706
442.00000        9.54390        7.51687        9.74373      -54.41699
442.50000        9.68996        7.51795        9.77688      -54.41699
443.00000        9.81810        7.43652        9.81003      -54.06364
443.50000        9.94623        7.43760        9.84319      -54.06364
444.00000       10.07437        7.35617        9.85663      -53.35692
444.50000       10.20251        7.43998        9.85663      -53.00357
