~Version ---------------------------------------------------
VERS. 2.0 : CWLS LOG ASCII STANDARD - VERSION 2.0
WRAP. NO  : One line per depth step
DLM . SPACE : Column Data Section Delimiter
~Well ------------------------------------------------------
STRT.F          100 : START DEPTH
STOP.F       1218.0 : STOP DEPTH
STEP.F          0.5 : STEP
NULL.       -999.25 : NULL VALUE
COMP.                       WALSH & WATTS : COMPANY
WELL.                          SALMON A 6 : WELL
FLD .                          OLD NOCONA : FIELD
CNTY.                            MONTAGUE : COUNTY
STAT.                               TEXAS : STATE
CTRY.                                 USA : COUNTRY
SEC .                                     : SECTION
TWP .                                     : TOWNSHIP
RGE .                                     : RANGE
LOC .                                     : LOCATION
EKB .F                          : ELEVATION KELLY BUSHING
EDF .F                      884 : ELEVATION DERRICK FLOOR
EGL .F                      878 : ELEVATION GROUND LEVEL
PDAT.                           : PERMANENT DATUM
EPD .                           : ELEVATION PERMANENT DATUM
APD .                       5.5 : ABOVE PERMANENT DATUM
LMF .                       KDB : LOG MEASURED FROM
DMF .                       KDB : DRILLING MEASURED FROM
API .            42337039770000 : API NUMBER
UWI .                           : UWI NUMBER
DIGC.                     NthDS : DIGITIZING COMPANY
~Params ----------------------------------------------------
SRVC.     THE ELGEN CORPORATION : LOGGING COMPANY
LOG .                        EL : LOG
DATE.                1954-12-19 : RUN DATE
RUN .                         1 : RUN NUMBER
TDD .F                     1217 : TOTAL DEPTH DRILLER
TDL .F                     1219 : TOTAL DEPTH LOGGER
BOTL.F                     1218 : BOTTOM LOGGED INTERVAL
TOPL.F                      100 : TOP LOGGED INTERVAL
CSGS.IN                         : CASING SIZE
CSGD.F                          : CASING DRILLER
CSGL.F                          : CASING LOGGER
BS  .IN                    8.75 : BIT SIZE
MUD .                       GEL : MUD TYPE
MUDD.                        10 : MUD DENSITY
MUDV.                        60 : MUD VISCOSITY
PH  .                           : MUD PH
FL  .                           : FLUID LOSS
MUDS.                           : SOURCE OF SAMPLE
RM  .OHMM                   2.4 : MUD RESISTIVITY
RMT .DEGF                    58 : RM TEMPERATURE
RMF .OHMM                       : MUD FILTRATE RESISTIVITY
RMFT.DEGF                       : RMF TEMPERATURE
RMC .OHMM                       : MUD CAKE RESISTIVITY
RMCT.DEGF                       : RMC TEMPERATURE
RMFS.                           : RMF SOURCE
RMCS.                           : RMC SOURCE
RMBH.OHMM                       : MUD RESISTIVITY AT BHT
BHT .DEGF                       : BOTTOM HOLE TEMPERATURE
TIMC.                           : TIME CIRCULATION STOPPED
TIML.                           : TIME LOGGER ON BOTTOM
TMAX.DEGF                       : MAXIMUM RECORDED TEMPERATURE
UNIT.                           : EQUIPMENT NUMBER
BASE.                           : BASE LOCATION
ENG .                 STONE-302 : RECORDED BY
WIT .                      TODD : WITNESSED BY
~Curve Information -----------------------------------------
DEPT.F          :DEPTH
LAT.OHMM        :
LN.OHMM         :
SN.OHMM         :
SP.MV           :
~ASCII ------------------------------------------------------
# ...
1019.50000        6.34196        6.33623       18.31071     -111.57897
1020.00000        6.95268        6.66374       19.39017     -113.33335
1020.50000        7.56250        7.15626       19.77678     -114.38598
1021.00000        8.17232        7.73129       19.43303     -115.43861
1021.50000        8.58036        8.30631       18.68392     -116.14037
1022.00000        8.17589        8.88134       17.93571     -116.49125
1022.50000        7.77232        9.53887       17.18750     -116.14037
1023.00000        7.36786        9.86638       16.43928     -115.78949
1023.50000        6.96428       10.19389       15.69107     -114.73686
1024.00000        6.41518       10.43889       14.94196     -113.68423
1024.50000        5.86518       10.43637       14.58928     -112.98247
1025.00000        5.31607       10.51635       14.50000     -111.57897
1025.50000        4.65625       10.59634       14.39285     -110.17546
1026.00000        4.10714       10.75883       14.66696     -109.47370
1026.50000        4.17321       10.83882       15.03214     -109.12283
1027.00000        4.23928       10.91881       15.72857     -109.47370
1027.50000        4.30536       11.04747       16.64464     -110.52634
1028.00000        4.34553       11.17614       17.56071     -111.57897
1028.50000        4.93482       11.30480       18.47767     -112.28072
1029.00000        5.42232       11.43347       19.77678     -113.68423
1029.50000        5.90893       11.54563       21.17232     -115.43861
1030.00000        6.39643       11.31622       22.56696     -117.19300
1030.50000        6.93393       10.98367       23.96249     -118.59651
1031.00000        7.67232       10.65113       25.35714     -120.00002
1031.50000        8.41161       10.31858       25.80357     -120.70177
1032.00000        9.15000        9.98603       25.07767     -121.40353
1032.50000        9.88928        9.81850       24.07767     -120.70177
1033.00000       10.62768        9.65097       22.66339     -120.00002
1033.50000       11.23393        9.64844       21.25000     -118.24563
1034.00000       11.63928        9.81094       18.57142     -116.49125
1034.50000       11.94910       10.22095       15.89285     -114.03511
1035.00000       11.87500       10.54795       14.20893     -111.57897
1035.50000       11.80089       10.54543       13.18839     -108.42107
1036.00000       11.14821       10.46041       12.16875     -105.61406
1036.50000       10.35089       10.21037       12.00357     -103.15792
1037.00000        9.55357        9.79531       12.05357     -102.10528
1037.50000        9.29821        9.21525       13.37768     -100.70178
1038.00000        9.71875        8.55267       14.96696     -102.10528
1038.50000       10.37053        7.64258       16.29196     -105.61406
1039.00000       11.19018        6.64998       17.61607     -112.63160
1039.50000       12.67857        5.57487       18.94017     -118.59651
1040.00000       14.16696        4.82979       19.86071     -122.80703
1040.50000       15.65446        4.08471       19.16696     -125.96493
1041.00000       17.14285        3.58665       18.06339     -128.07019
1041.50000       18.27410        3.25410       16.34642     -129.12282
1042.00000       18.86875        2.83905       14.62946     -129.12282
1042.50000       19.06250        2.67151       12.57946     -128.42107
1043.00000       18.28750        2.42147       10.44643     -126.66668
1043.50000       16.46071        2.25394        8.31339     -124.21054
1044.00000       14.61696        2.00390        6.45446     -121.05265
1044.50000       12.70089        1.91887        5.69286     -116.49125
1045.00000       10.78482        1.75134        4.93214     -112.63160
1045.50000        8.86875        1.66631        4.17053     -107.71932
1046.00000        6.95268        1.58129        3.90625     -103.85967
1046.50000        5.62500        1.41375        3.76696     -104.21055
1047.00000        5.17857        1.32873        3.62678     -106.31581
1047.50000        4.73214        1.24370        3.48750     -108.42107
1048.00000        4.28571        1.07617        3.34821     -109.47370
1048.50000        3.95893        0.99114        3.20893     -108.77195
1049.00000        3.71339        0.98862        3.10446     -107.71932
1049.50000        3.46696        0.90359        3.05357     -106.31581
1050.00000        3.22054        1.23760        3.00268     -104.56142
1050.50000        2.98854        1.23508        2.96610     -102.98772
1051.00000        2.68953        1.23206        2.90228     -102.28473
1051.50000        2.60359        1.22954        2.84955     -100.87876
1052.00000        2.51674        1.14451        2.79681      -99.12129
1052.50000        2.43080        1.22450        2.74408      -98.06681
1053.00000        2.34485        1.22198        2.69135      -98.41830
1053.50000        2.25801        1.21946        2.63772     -100.17577
1054.00000        2.17206        1.21694        2.58498     -104.39369
1054.50000        2.08611        1.13191        2.53225     -110.01759
1055.00000        1.99927        1.12939        2.47952     -115.29000
1055.50000        1.91332        1.12687        2.42678     -117.39896
1056.00000        1.82737        1.04134        2.32198     -117.75046
1056.50000        1.78272        1.03882        2.18218     -117.04747
1057.00000        1.80000        1.03630        2.04237     -116.34448
1057.50000        1.81819        1.03378        2.18353     -115.99299
1058.00000        1.83964        1.03126        2.35311     -115.64149
1058.50000        1.85783        1.02874        2.49427     -116.34448
1059.00000        1.84100        1.10872        2.63543     -117.75046
1059.50000        1.82507        1.18871        2.63386     -119.50793
1060.00000        1.80824        1.10368        2.59549     -120.21091
1060.50000        1.79142        1.18367        2.55712     -120.21091
1061.00000        1.77549        1.18115        2.51965     -120.21091
1061.50000        1.75866        1.17863        2.48128     -120.56241
1062.00000        1.74183        1.17561        2.44380     -120.56241
1062.50000        1.72590        1.17309        2.40543     -120.56241
1063.00000        1.70908        1.17057        2.40656     -121.96838
1063.50000        1.69225        1.16805        2.46424     -124.42884
1064.00000        1.67632        1.16553        2.52281     -124.78033
1064.50000        1.65949        1.24551        2.58139     -123.72585
1065.00000        1.79496        1.24299        2.63907     -121.96838
1065.50000        1.90829        1.24047        2.70900     -120.91390
1066.00000        2.02162        1.23795        2.76758     -120.91390
1066.50000        2.13406        1.23543        2.82616     -119.50793
1067.00000        2.24739        1.31542        2.88383     -118.10195
1067.50000        2.35983        1.31240        3.07706     -116.69598
1068.00000        2.47316        1.39238        3.36005     -115.29000
1068.50000        2.58650        1.30736        3.64304     -113.53253
1069.00000        2.69893        1.38734        3.92603     -111.42357
1069.50000        2.79611        1.38482        4.20992     -108.96311
1070.00000        2.88880        1.54732        4.49292     -108.26013
1070.50000        2.98238        1.46229        4.77591     -108.96311
1071.00000        3.07507        1.62478        5.05890     -109.66610
1071.50000        2.94424        1.62226        5.14889     -109.66610
1072.00000        2.81341        1.70225        4.95164     -110.36909
1072.50000        2.65534        1.78224        4.75348     -111.07208
1073.00000        2.52451        1.77921        4.51552     -112.47805
1073.50000        2.39368        1.85920        4.31826     -114.23552
1074.00000        2.26285        1.85668        4.12011     -114.93851
1074.50000        2.13202        1.85416        3.92195     -115.29000
1075.00000        2.00029        1.80378        3.72380     -114.58701
1075.50000        1.86946        1.75424        3.52654     -114.23552
