~Version ---------------------------------------------------
VERS. 2.0 : CWLS LOG ASCII STANDARD - VERSION 2.0
WRAP. NO  : One line per depth step
DLM . SPACE : Column Data Section Delimiter
~Well ------------------------------------------------------
STRT.F          100 : START DEPTH
STOP.F       1218.0 : STOP DEPTH
STEP.F          0.5 : STEP
NULL.       -999.25 : NULL VALUE
COMP.                       WALSH & WATTS : COMPANY
WELL.                          SALMON A 6 : WELL
FLD .                          OLD NOCONA : FIELD
CNTY.                            MONTAGUE : COUNTY
STAT.                               TEXAS : STATE
CTRY.                                 USA : COUNTRY
SEC .                                     : SECTION
TWP .                                     : TOWNSHIP
RGE .                                     : RANGE
LOC .                                     : LOCATION
EKB .F                          : ELEVATION KELLY BUSHING
EDF .F                      884 : ELEVATION DERRICK FLOOR
EGL .F                      878 : ELEVATION GROUND LEVEL
PDAT.                           : PERMANENT DATUM
EPD .                           : ELEVATION PERMANENT DATUM
APD .                       5.5 : ABOVE PERMANENT DATUM
LMF .                       KDB : LOG MEASURED FROM
DMF .                       KDB : DRILLING MEASURED FROM
API .            42337039770000 : API NUMBER
UWI .                           : UWI NUMBER
DIGC.                     NthDS : DIGITIZING COMPANY
~Params ----------------------------------------------------
SRVC.     THE ELGEN CORPORATION : LOGGING COMPANY
LOG .                        EL : LOG
DATE.                1954-12-19 : RUN DATE
RUN .                         1 : RUN NUMBER
TDD .F                     1217 : TOTAL DEPTH DRILLER
TDL .F                     1219 : TOTAL DEPTH LOGGER
BOTL.F                     1218 : BOTTOM LOGGED INTERVAL
TOPL.F                      100 : TOP LOGGED INTERVAL
CSGS.IN                         : CASING SIZE
CSGD.F                          : CASING DRILLER
CSGL.F                          : CASING LOGGER
BS  .IN                    8.75 : BIT SIZE
MUD .                       GEL : MUD TYPE
MUDD.                        10 : MUD DENSITY
MUDV.                        60 : MUD VISCOSITY
PH  .                           : MUD PH
FL  .                           : FLUID LOSS
MUDS.                           : SOURCE OF SAMPLE
RM  .OHMM                   2.4 : MUD RESISTIVITY
RMT .DEGF                    58 : RM TEMPERATURE
RMF .OHMM                       : MUD FILTRATE RESISTIVITY
RMFT.DEGF                       : RMF TEMPERATURE
RMC .OHMM                       : MUD CAKE RESISTIVITY
RMCT.DEGF                       : RMC TEMPERATURE
RMFS.                           : RMF SOURCE
RMCS.                           : RMC SOURCE
RMBH.OHMM                       : MUD RESISTIVITY AT BHT
BHT .DEGF                       : BOTTOM HOLE TEMPERATURE
TIMC.                           : TIME CIRCULATION STOPPED
TIML.                           : TIME LOGGER ON BOTTOM
TMAX.DEGF                       : MAXIMUM RECORDED TEMPERATURE
UNIT.                           : EQUIPMENT NUMBER
BASE.                           : BASE LOCATION
ENG .                 STONE-302 : RECORDED BY
WIT .                      TODD : WITNESSED BY
~Curve Information -----------------------------------------
DEPT.F          :DEPTH
LAT.OHMM        :
LN.OHMM         :
SN.OHMM         :
SP.MV           :
~ASCII ------------------------------------------------------
# ...
732.50000        4.31200        3.94953        5.89800      -64.75747
733.00000        4.29173        3.94557        5.93687      -64.76987
733.50000        4.27147        3.94161        5.93452      -64.42704
734.00000        4.25120        3.85515        5.93218      -63.37375
734.50000        4.23093        3.76868        5.83754      -63.03092
735.00000        4.25188        3.76472        5.68107      -62.33286
735.50000        4.28359        3.67826        5.52461      -63.05572
736.00000        4.31529        3.67430        5.36814      -64.13381
736.50000        4.34699        3.66955        5.21168      -65.56714
737.00000        4.37870        3.58308        5.05521      -65.57954
737.50000        4.41040        3.57912        4.93280      -64.52624
738.00000        4.44211        3.49266        4.94120      -63.47295
738.50000        4.47291        3.48870        4.95051      -61.70920
739.00000        4.50462        3.40223        4.95981      -62.07683
739.50000        4.53632        3.31577        4.96911      -63.86786
740.00000        4.56803        3.22930        4.97841      -66.36688
740.50000        4.59973        3.22534        4.98682      -67.08974
741.00000        4.63724        3.22138        4.99612      -66.39168
741.50000        4.83381        3.21742        5.07574      -65.69362
742.00000        5.07161        3.29597        5.19885      -66.06125
742.50000        5.30940        3.37451        5.32195      -66.42888
743.00000        5.54720        3.45306        5.44505      -67.86220
743.50000        5.78499        3.53160        5.56815      -70.36122
744.00000        5.92511        3.69265        5.55774      -71.43932
744.50000        5.67904        3.93620        5.45772      -71.80695
745.00000        5.43208        4.01475        5.35771      -72.17458
745.50000        5.18511        3.92828        5.25859      -72.18698
746.00000        4.93904        3.84182        5.15857      -72.19938
746.50000        4.69208        3.75535        5.33006      -73.99041
747.00000        4.44511        3.66889        5.50244      -75.77897
747.50000        4.44456        3.58242        5.67393      -77.21229
748.00000        4.60887        3.49596        5.73520      -77.57992
748.50000        4.77319        3.40950        5.62892      -77.23709
749.00000        4.93751        3.32303        5.52353      -76.89426
749.50000        5.10093        3.23657        5.41813      -76.55143
750.00000        5.34152        3.46519        5.38828      -75.57740
750.50000        5.50486        3.46123        5.26656      -75.58985
751.00000        5.47576        3.45727        5.08818      -74.88930
751.50000        5.31806        3.53581        4.90890      -73.83225
752.00000        5.16126        3.53185        4.73053      -73.13170
752.50000        5.00357        3.44539        4.65646      -72.07465
753.00000        4.84677        3.44143        4.65254      -71.73060
753.50000        4.65772        3.43747        4.64783      -71.74304
754.00000        4.50092        3.35100        4.64390      -71.75549
754.50000        4.34323        3.34704        4.63998      -71.76793
755.00000        4.18643        3.34229        4.63606      -72.13687
755.50000        4.19600        3.33833        4.63213      -72.14932
756.00000        4.20556        3.25186        4.62821      -71.44877
756.50000        4.21513        3.33041        4.62429      -71.46121
757.00000        4.22559        3.24394        4.62036      -70.40416
757.50000        4.23516        3.23998        4.61644      -69.34711
758.00000        4.24472        3.23602        4.61072      -69.00306
758.50000        4.25429        3.23206        4.59870      -70.44150
759.00000        4.26385        3.22810        4.58668      -71.16693
759.50000        4.27342        3.22414        4.57466      -71.17938
760.00000        4.28388        3.22018        4.56265      -70.83533
760.50000        4.29536        3.21622        4.54805      -70.49127
761.00000        4.30492        3.21226        4.53603      -70.14722
761.50000        4.31449        3.20830        4.52401      -70.15966
762.00000        4.28449        3.20434        4.51200      -69.81561
762.50000        4.25359        3.20038        4.49998      -69.82805
763.00000        4.22358        3.19642        4.48706      -69.48400
763.50000        4.19268        3.19246        4.47864      -68.78345
764.00000        4.16268        3.18850        4.47472      -68.08290
764.50000        4.13268        3.18454        4.47080      -67.73885
765.00000        4.10178        3.18058        4.46687      -67.03830
765.50000        4.07088        3.17662        4.46295      -66.33775
766.00000        4.03908        3.25517        4.45902      -65.99369
766.50000        4.00818        3.16870        4.45510      -64.93664
767.00000        3.97727        3.16474        4.42870      -63.87960
767.50000        3.93929        3.15999        4.35654      -63.17905
768.00000        3.90839        3.23854        4.29687      -62.12200
768.50000        3.95033        3.15207        4.32981      -60.35195
769.00000        4.01115        3.14811        4.50304      -59.29491
769.50000        4.07107        3.14415        4.67627      -60.37684
770.00000        4.13100        3.22270        4.84949      -61.81528
770.50000        4.19182        3.38374        5.02272      -63.25371
771.00000        4.25174        3.37978        5.19595      -64.69215
771.50000        4.31256        3.54083        5.36918      -66.48708
772.00000        4.37698        3.61938        5.34997      -68.63851
772.50000        4.44140        3.69792        5.28310      -71.14643
773.00000        4.44197        3.77647        5.21712      -73.29786
773.50000        4.18446        3.85501        5.15025      -72.95381
774.00000        3.92605        4.01606        5.08338      -71.18377
774.50000        3.61650        4.17711        5.01651      -68.70073
775.00000        3.35899        4.17315        4.93716      -65.50470
775.50000        3.35686        4.16919        4.87029      -63.37816
776.00000        3.41948        4.16523        4.84209      -62.32111
776.50000        3.48210        4.16127        4.87324      -62.33355
777.00000        3.54472        4.23981        4.90348      -61.63300
777.50000        3.60824        4.15335        4.93463      -60.21946
778.00000        3.67086        4.06688        4.96488      -59.16241
778.50000        3.73348        3.98042        5.01311      -59.17485
779.00000        3.79610        3.81145        5.12879      -59.90029
779.50000        3.85873        3.80749        5.24446      -61.33872
780.00000        3.92135        3.80353        5.36104      -63.13366
780.50000        3.98397        3.79957        5.47671      -65.28509
781.00000        4.23992        3.71231        5.59239      -68.86499
781.50000        4.49678        3.70835        5.66131      -71.72942
782.00000        4.80411        3.62189        5.54228      -73.88085
782.50000        4.93507        3.61793        5.39819      -75.67578
783.00000        4.87630        3.53146        5.27916      -75.33173
783.50000        4.81752        3.52750        5.15923      -73.20518
784.00000        4.75874        3.60605        5.04021      -70.36565
784.50000        4.69996        3.60209        4.92028      -66.45662
785.00000        4.64119        3.68063        4.83093      -63.26059
785.50000        4.58241        3.67667        4.78744      -62.20354
786.00000        4.52363        3.67271        4.74395      -62.21598
786.50000        4.47564        3.75126        4.70045      -62.94142
787.00000        4.47172        3.91231        4.65696      -64.73636
787.50000        4.46780        3.99085        4.61347      -65.46179
788.00000        4.46387        4.06940        4.56998      -66.18723
788.50000        4.37002        4.14794        4.59483      -64.41719
789.00000        4.09554        4.22648        4.66555      -62.29065
789.50000        3.86681        4.30503        4.75076      -60.52061
