~Version ---------------------------------------------------
VERS. 2.0 : CWLS LOG ASCII STANDARD - VERSION 2.0
WRAP. NO  : One line per depth step
DLM . SPACE : Column Data Section Delimiter
~Well ------------------------------------------------------
STRT.F        986.5 : START DEPTH
STOP.F       1761.0 : STOP DEPTH
STEP.F          0.5 : STEP
NULL.       -999.25 : NULL VALUE
COMP.                 WALSH & WATTS, INC. : COMPANY
WELL.                       SALMON D E 6D : WELL
FLD .                             REGULAR : FIELD
CNTY.                            MONTAGUE : COUNTY
STAT.                               TEXAS : STATE
CTRY.                                 USA : COUNTRY
SEC .                                     : SECTION
TWP .                                     : TOWNSHIP
RGE .                                     : RANGE
LOC .  460 FSL 755 FEL
F. ROBERTSON A-620 : LOCATION
EKB .F                      880 : ELEVATION KELLY BUSHING
EDF .F                      878 : ELEVATION DERRICK FLOOR
EGL .F                      874 : ELEVATION GROUND LEVEL
PDAT.                        GL : PERMANENT DATUM
EPD .                       874 : ELEVATION PERMANENT DATUM
APD .                           : ABOVE PERMANENT DATUM
LMF .                        KB : LOG MEASURED FROM
DMF .                        KB : DRILLING MEASURED FROM
API .            42337016430000 : API NUMBER
UWI .            42337016430000 : UWI NUMBER
DIGC.                     NthDS : DIGITIZING COMPANY
~Params ----------------------------------------------------
SRVC.              SCHLUMBERGER : LOGGING COMPANY
LOG .                      DIFL : LOG
DATE.                2005-08-03 : RUN DATE
RUN .                         1 : RUN NUMBER
TDD .F                     1750 : TOTAL DEPTH DRILLER
TDL .F                     1750 : TOTAL DEPTH LOGGER
BOTL.F                     1750 : BOTTOM LOGGED INTERVAL
TOPL.F                      980 : TOP LOGGED INTERVAL
CSGS.IN                       7 : CASING SIZE
CSGD.F                      980 : CASING DRILLER
CSGL.F                      980 : CASING LOGGER
BS  .IN                     6.5 : BIT SIZE
MUD .                       FGM : MUD TYPE
MUDD.                       0.2 : MUD DENSITY
MUDV.                        80 : MUD VISCOSITY
PH  .                        11 : MUD PH
FL  .                         7 : FLUID LOSS
MUDS.                       PIT : SOURCE OF SAMPLE
RM  .OHMM                  1.70 : MUD RESISTIVITY
RMT .DEGF                    70 : RM TEMPERATURE
RMF .OHMM                  1.33 : MUD FILTRATE RESISTIVITY
RMFT.DEGF                    70 : RMF TEMPERATURE
RMC .OHMM                  2.67 : MUD CAKE RESISTIVITY
RMCT.DEGF                    70 : RMC TEMPERATURE
RMFS.                      MEAS : RMF SOURCE
RMCS.                       CAL : RMC SOURCE
RMBH.OHMM                  1.41 : MUD RESISTIVITY AT BHT
BHT .DEGF                    98 : BOTTOM HOLE TEMPERATURE
TIMC.                     2100  : TIME CIRCULATION STOPPED
TIML.                     0300  : TIME LOGGER ON BOTTOM
TMAX.DEGF                    98 : MAXIMUM RECORDED TEMPERATURE
UNIT.                       303 : EQUIPMENT NUMBER
BASE.                  WITCHATA : BASE LOCATION
ENG .              DAVID PARKER : RECORDED BY
WIT .              MR. BURLESON : WITNESSED BY
~Curve Information -----------------------------------------
DEPT.F          :DEPTH
GRR.API         :
ILD.OHMM        :
ILM.OHMM        :
SFL.OHMM        :
SP.MV           :
~ASCII ------------------------------------------------------
# ...
1550.50000       99.35269        4.26938        4.46685        7.52401      -41.40187
1551.00000      101.78790        4.26314        4.47723        7.55124      -42.54438
1551.50000      104.78936        4.30152        4.51046        7.57926      -43.36561
1552.00000      108.13117        4.34066        4.55024        7.60669      -43.96997
1552.50000      111.69587        4.37974        4.59036        7.63492      -44.57434
1553.00000      113.39315        4.41918        4.63084        7.74287      -45.22288
1553.50000      113.78323        4.45897        4.67168        7.85161      -46.04009
1554.00000      112.74864        4.49954        4.71287        7.96262      -46.85730
1554.50000      111.05142        4.54006        4.75443        8.07446      -47.58616
1555.00000      109.53492        4.60722        4.81632        8.18862      -47.96563
1555.50000      108.01842        4.67495        4.87901        8.30363      -48.34511
1556.00000      101.38156        4.74411        4.94251        8.42103      -49.90929
1556.50000       89.01985        4.81429        5.00731        8.54009      -51.47748
1557.00000       70.63630        4.88506        5.07248        8.66003      -53.04166
1557.50000       58.05079        4.95733        5.13566        8.76547      -54.60585
1558.00000       40.93016        5.03067        5.19771        8.86074      -55.70418
1558.50000       30.10666        5.08910        5.26051        8.95704      -56.49328
1559.00000       22.92765        5.08541        5.32407        9.02353      -57.27836
1559.50000       21.22139        5.08173        5.38789        9.04532      -56.83456
1560.00000       22.07833        5.07804        5.45299        9.06633      -56.39477
1560.50000       23.57380        5.07437        5.45256        9.08740      -55.95097
1561.00000       25.06928        5.07069        5.43555        9.10935      -55.50717
1561.50000       26.67619        5.03578        5.41810        9.13051      -54.80635
1562.00000       28.36142        4.95564        5.40120        9.08106      -53.92480
1562.50000       27.22141        4.90566        5.32457        8.92829      -53.76212
1563.00000       26.63260        4.87549        5.24902        8.77729      -53.77614
1563.50000       26.87509        4.84550        5.17455        8.62963      -52.18377
1564.00000       27.11457        4.81748        5.13846        8.58052      -51.79619
1564.50000       28.39620        4.79537        5.12763        8.53089      -51.27609
1565.00000       28.81338        4.77336        5.11683        8.48234      -50.61944
1565.50000       31.90219        4.74313        5.10558        8.43406      -49.87846
1566.00000       31.38868        4.71135        5.09482        8.38529      -49.01700
1566.50000       36.90212        4.67935        5.08409        8.33756      -48.15152
1567.00000       38.42772        4.64757        5.07338        8.29011      -47.24588
1567.50000       38.29973        4.61600        5.02082        8.24216      -46.17960
1568.00000       38.17477        4.57849        4.96834        8.18575      -45.11333
1568.50000       40.10095        4.54739        4.91687        8.13316      -44.39243
1569.00000       40.86451        4.51776        4.87133        8.08016      -43.90445
1569.50000       39.51668        4.49039        4.84718        8.02824      -42.99078
1570.00000       38.97004        4.46277        4.82360        7.97592      -42.07711
1570.50000       41.63717        4.43533        4.80013        7.88674      -41.39235
1571.00000       44.50309        4.36434        4.77633        7.65312      -41.04092
1571.50000       47.67322        4.23350        4.64831        7.42643      -40.56097
1572.00000       50.96684        4.09183        4.52814        7.20645      -39.57100
1572.50000       55.07671        3.95490        4.41107        6.99299      -39.38422
1573.00000       57.11133        3.84200        4.29743        6.84749      -39.19744
1573.50000       55.76350        3.80993        4.18633        6.72113      -38.20747
1574.00000       57.71980        3.74203        4.08262        6.59709      -37.21749
1574.50000       61.87786        3.69337        3.99989        6.48611      -36.64116
1575.00000       65.20672        3.67269        3.91883        6.42188      -36.33792
1575.50000       69.81657        3.65246        3.86252        6.36063      -36.03468
1576.00000       75.74567        3.63201        3.84196        6.30986      -35.73144
1576.50000       83.47894        3.61100        3.82150        6.25949      -35.27960
1577.00000       89.24238        3.58946        3.80115        6.20952      -34.79163
1577.50000       95.40641        3.56771        3.78091        6.17817      -34.30365
1578.00000      101.74514        3.54642        3.76078        6.17369      -33.81567
1578.50000      105.30382        3.52526        3.74076        6.16922      -33.72929
1579.00000      108.15468        3.50423        3.72084        6.16475      -34.54650
1579.50000      110.22243        3.48332        3.70103        6.16028      -34.30752
1580.00000      113.13864        3.47694        3.68132        6.15582      -34.42193
1580.50000      120.44421        3.48052        3.66612        6.15136      -35.06646
1581.00000      124.78299        3.48378        3.65705        6.14690      -35.70697
1581.50000      128.10372        3.48737        3.64833        6.14245      -36.36756
1582.00000      125.83422        3.49063        3.63930        6.13913      -37.11248
1582.50000      122.30874        3.49293        3.63063        6.13978      -37.85741
1583.00000      117.22907        3.49040        3.62164        6.14100      -38.60233
1583.50000      116.46556        3.48787        3.62370        6.14165      -39.34725
1584.00000      113.13977        3.48535        3.62609        6.14286      -39.96367
1584.50000      106.46075        3.48282        3.62814        6.14351      -40.55197
1585.00000      105.89001        3.48030        3.63020        6.14416      -41.14027
1585.50000      109.39447        3.47778        3.63226        6.14538      -42.30286
1586.00000      108.27856        3.47526        3.63466        6.14603      -43.25661
1586.50000      105.55727        3.47114        3.63672        6.14724      -44.23726
1587.00000      102.96549        3.46446        3.63073        6.14789      -45.05448
1587.50000       98.45810        3.45748        3.62509        6.12646      -45.87169
1588.00000       94.68262        3.45084        3.61912        6.08990      -46.84954
1588.50000       89.70235        3.44420        3.61316        6.05301      -47.86755
1589.00000       88.15573        3.43758        3.60722        6.01689      -48.79721
1589.50000       99.92203        3.43097        3.60161        5.98099      -49.70277
1590.00000      110.07693        3.42438        3.59568        5.94530      -50.60833
1590.50000      122.26702        3.42095        3.58976        5.90983      -51.39342
1591.00000      127.75335        3.41847        3.58418        5.93395      -51.69658
1591.50000      125.03206        3.41599        3.57828        5.99844      -51.99574
1592.00000      119.41717        3.41352        3.57239        6.04576      -52.36316
1592.50000      112.05744        3.41104        3.56651        6.01825      -52.83500
1593.00000      108.37232        3.40857        3.56097        5.99560      -53.30684
1593.50000      103.24145        3.40610        3.55511        5.98132      -53.77466
1594.00000      103.59238        3.40314        3.54925        5.97974      -54.24650
1594.50000      106.59384        3.40068        3.54374        5.97872      -53.71836
1595.00000      109.95071        3.39821        3.53791        5.97714      -53.19424
1595.50000      114.73225        3.39575        3.53208        5.97557      -52.66610
1596.00000      119.51378        3.39329        3.52659        5.97455      -52.14198
1596.50000      126.03022        3.39083        3.52079        5.97297      -51.61385
1597.00000      127.88923        3.38837        3.52065        5.97140      -51.55156
