~Version ---------------------------------------------------
VERS. 2.0 : CWLS LOG ASCII STANDARD - VERSION 2.0
WRAP. NO  : One line per depth step
DLM . SPACE : Column Data Section Delimiter
~Well ------------------------------------------------------
STRT.F          866 : START DEPTH
STOP.F       1785.0 : STOP DEPTH
STEP.F          0.5 : STEP
NULL.       -999.25 : NULL VALUE
COMP.                 WALSH & WATTS, INC, : COMPANY
WELL.                         SALMON E 41 : WELL
FLD .                        NORTH NOCONA : FIELD
CNTY.                            MONTAGUE : COUNTY
STAT.                               TEXAS : STATE
CTRY.                                 USA : COUNTRY
SEC .                                     : SECTION
TWP .                                     : TOWNSHIP
RGE .                                     : RANGE
LOC . 300' N OF NO. 40
150' W OF EL & 385' E OF NO. 87
F. ROBERTSON SURVEY : LOCATION
EKB .F                          : ELEVATION KELLY BUSHING
EDF .F                          : ELEVATION DERRICK FLOOR
EGL .F                      878 : ELEVATION GROUND LEVEL
PDAT.              GROUND LEVEL : PERMANENT DATUM
EPD .                       878 : ELEVATION PERMANENT DATUM
APD .                           : ABOVE PERMANENT DATUM
LMF .                        KB : LOG MEASURED FROM
DMF .                        KB : DRILLING MEASURED FROM
API .            42337037790000 : API NUMBER
UWI .            42337037790000 : UWI NUMBER
DIGC.                     NthDS : DIGITIZING COMPANY
~Params ----------------------------------------------------
SRVC.                LANE WELLS : LOGGING COMPANY
LOG .                        AC : LOG
DATE.                1965-12-01 : RUN DATE
RUN .                         1 : RUN NUMBER
TDD .F                     1790 : TOTAL DEPTH DRILLER
TDL .F                     1791 : TOTAL DEPTH LOGGER
BOTL.F                     1784 : BOTTOM LOGGED INTERVAL
TOPL.F                      880 : TOP LOGGED INTERVAL
CSGS.IN                         : CASING SIZE
CSGD.F                          : CASING DRILLER
CSGL.F                          : CASING LOGGER
BS  .IN                       9 : BIT SIZE
MUD .                       GEL : MUD TYPE
MUDD.                        10 : MUD DENSITY
MUDV.                        80 : MUD VISCOSITY
PH  .                       9.0 : MUD PH
FL  .                       6.8 : FLUID LOSS
MUDS.                       PIT : SOURCE OF SAMPLE
RM  .OHMM                  1.95 : MUD RESISTIVITY
RMT .DEGF                    74 : RM TEMPERATURE
RMF .OHMM                   1.5 : MUD FILTRATE RESISTIVITY
RMFT.DEGF                    74 : RMF TEMPERATURE
RMC .OHMM                   2.3 : MUD CAKE RESISTIVITY
RMCT.DEGF                    74 : RMC TEMPERATURE
RMFS.                  MEASURED : RMF SOURCE
RMCS.                           : RMC SOURCE
RMBH.OHMM                   1.5 : MUD RESISTIVITY AT BHT
BHT .DEGF                    97 : BOTTOM HOLE TEMPERATURE
TIMC.                           : TIME CIRCULATION STOPPED
TIML.                           : TIME LOGGER ON BOTTOM
TMAX.DEGF                    97 : MAXIMUM RECORDED TEMPERATURE
UNIT.                    L-5172 : EQUIPMENT NUMBER
BASE.                      W.F. : BASE LOCATION
ENG .             ADAMS & BAKER : RECORDED BY
WIT .                   MR. NIX : WITNESSED BY
~Curve Information -----------------------------------------
DEPT.F          :DEPTH
CALS.IN         :
DT.US/F         :
SP.MV           :
~ASCII ------------------------------------------------------
# ...
1155.00000        8.66580       86.49889      -85.50002
1155.50000        8.66500       87.68307      -85.20002
1156.00000        8.66400       88.68074      -85.50002
1156.50000        8.66340       88.53358      -85.80002
1157.00000        8.66260       87.10368      -85.50002
1157.50000        8.66180       83.91685      -86.10002
1158.00000        8.66100       82.90362      -86.70002
1158.50000        8.66020       83.18304      -87.00002
1159.00000        8.62360       82.68866      -87.60002
1159.50000        8.57820       83.40657      -87.90002
1160.00000        8.53280       84.22964      -88.20002
1160.50000        8.48720       85.71970      -88.50002
1161.00000        8.48220       86.79574      -88.50002
1161.50000        8.54880       85.99977      -87.90002
1162.00000        8.60440       84.96075      -87.30002
1162.50000        8.66000       84.58541      -86.40002
1163.00000        8.69120       85.43031      -85.50002
1163.50000        8.72260       86.68889      -84.00002
1164.00000        8.75380       87.97128      -83.70002
1164.50000        8.73660       89.25467      -83.10002
1165.00000        8.70760       87.66902      -82.80002
1165.50000        8.67840       83.80164      -82.80002
1166.00000        8.64920       76.39559      -82.50002
1166.50000        8.62000       70.90817      -82.50002
1167.00000        8.58500       72.00108      -83.70002
1167.50000        8.55580       77.19053      -84.30002
1168.00000        8.52660       78.53542      -85.50002
1168.50000        8.49760       76.96664      -87.30002
1169.00000        8.51140       76.69546      -88.50002
1169.50000        8.59000       78.16040      -88.80002
1170.00000        8.66860       82.42789      -88.50002
1170.50000        8.70760       88.38188      -87.33302
1171.00000        8.72000       95.03064      -85.50002
1171.50000        8.73260       98.03326      -82.50002
1172.00000        8.74500       96.95158      -76.63202
1172.50000        8.76000       95.13478      -68.73302
1173.00000        8.83060       96.93602      -62.15102
1173.50000        8.90120       98.70948      -56.91302
1174.00000        8.97180      100.13275      -53.40002
1174.50000        9.06540       97.12548      -53.40002
1175.00000        9.17460       93.65492      -52.50002
1175.50000        9.20720       94.00412      -51.60002
1176.00000        9.12540       91.77363      -52.50002
1176.50000        9.06220       91.64333      -53.10002
1177.00000        9.07340       93.42572      -53.70002
1177.50000        9.10260       96.71405      -54.00002
1178.00000        9.17000       97.82184      -52.80002
1178.50000        9.22620       96.78183      -51.90002
1179.00000        9.17720       96.11582      -51.30002
1179.50000        8.97000       97.43987      -50.40002
1180.00000        8.76280       99.42596      -49.20002
1180.50000        8.65920      100.56848      -49.20002
1181.00000        8.62440      100.83798      -49.80002
1181.50000        8.58960      100.37335      -49.50002
1182.00000        8.55480       94.88297      -49.20002
1182.50000        8.52000       84.22660      -48.90002
1183.00000        8.74000       76.18861      -49.20002
1183.50000        8.96920      101.62001      -49.50002
1184.00000        9.01540      115.77567      -49.50002
1184.50000        9.06160      101.07799      -49.50002
1185.00000        9.30500       95.57339      -49.80002
1185.50000        9.68000       98.22085      -49.50002
1186.00000        9.60400      104.50553      -49.50002
1186.50000        9.36400      105.69764      -49.20002
1187.00000        9.32660      106.88976      -48.60002
1187.50000        9.50900      103.64241      -48.90002
1188.00000        9.35460       98.46055      -49.20002
1188.50000        9.20000       94.79158      -50.10002
1189.00000        9.47140       83.74865      -51.60002
1189.50000        9.29040       86.93976      -53.40002
1190.00000        9.10960       95.01279      -55.20002
1190.50000        8.92860       99.56004      -56.40002
1191.00000        8.87200       93.21252      -57.30002
1191.50000        9.00200       91.42846      -56.40002
1192.00000        9.00500       96.98596      -55.20002
1192.50000        8.81740       94.54019      -54.00002
1193.00000        8.78000       86.57231      -53.70002
1193.50000        8.82200       83.33290      -53.70002
1194.00000        9.03200       90.06499      -53.70002
1194.50000        9.19780       95.87018      -54.00002
1195.00000        9.19220      106.71799      -52.80002
1195.50000        9.18660       98.45282      -51.60002
1196.00000        9.18120       94.86619      -48.90002
1196.50000        9.27780       84.74884      -48.90002
1197.00000        9.40000       90.00145      -48.00003
1197.50000        9.37140       95.34268      -47.70003
1198.00000        9.31800       90.70646      -48.60002
1198.50000        9.24800       86.75640      -49.50002
1199.00000        9.17800       90.34268      -50.70002
1199.50000        9.10800       98.99507      -51.00002
1200.00000        9.03800      108.20421      -53.10002
1200.50000        8.97400      103.98961      -53.70002
1201.00000        9.11340       90.89609      -51.60002
1201.50000        9.30500       95.02470      -49.50002
1202.00000        9.34300      109.42639      -47.70003
1202.50000        9.15080      107.22071      -47.40003
1203.00000        8.95840       99.13708      -47.10003
1203.50000        9.09060       95.65264      -46.80003
1204.00000        9.30400       98.96180      -45.60003
1204.50000        9.51740      105.78881      -45.30003
1205.00000        9.38580      102.49682      -44.40003
1205.50000        9.10000       93.88740      -43.50003
1206.00000        9.37140       91.80572      -43.20003
1206.50000        9.43260       87.34311      -40.50003
1207.00000        9.19500       89.39534      -39.60003
1207.50000        9.13640       91.76106      -38.10003
1208.00000        9.18180       88.27363      -37.20003
1208.50000        9.19360       89.10265      -35.70003
1209.00000        9.18280       93.34369      -36.30003
1209.50000        9.17220      101.73815      -37.20003
1210.00000        9.16140      113.89250      -38.10003
1210.50000        9.15080      112.65440      -39.30003
1211.00000        9.14000      106.30655      -39.90003
1211.50000        9.42000      103.58003      -40.80003
1212.00000        9.70000      100.85352      -40.80003
1212.50000        9.98000      100.69941      -39.60003
1213.00000        9.58000      102.42459      -39.30003
1213.50000        9.74000      101.15640      -38.70003
1214.00000        9.67340       86.07844      -38.70003
1214.50000        9.39080       73.58015      -40.50003
1215.00000        9.12160       82.01429      -40.80003
1215.50000        8.96000       91.88724      -42.00003
1216.00000        8.96000       82.51361      -42.90003
1216.50000        8.96000       75.29009      -45.23703
1217.00000        8.96000       82.12040      -47.43603
1217.50000        8.96000       89.61903      -49.63202
1218.00000        8.90220       91.39249      -51.83102
1218.50000        8.84420       89.36736      -54.02702
1219.00000        8.78640       91.96522      -56.22602
1219.50000        8.72880       95.45527      -58.42202
1220.00000        8.67340       94.47180      -60.62102
1220.50000        8.61780       95.22741      -66.30002
1221.00000        8.56220       97.89670      -68.96702
1221.50000        8.49560       99.60667      -71.40002
1222.00000        8.44000      100.29184      -72.60002
1222.50000        8.54000       98.74587      -73.50002
1223.00000        8.60180       96.97174      -75.00002
1223.50000        8.51100       98.19956      -76.20002
1224.00000        8.42000       99.84505      -76.20002
1224.50000        8.43260      101.01964      -76.50002
1225.00000        8.53140       99.85561      -76.80002
1225.50000        8.76000       95.00312      -76.80002
1226.00000        8.80440       89.39236      -75.00002
