~Version ---------------------------------------------------
VERS. 2.0 : CWLS LOG ASCII STANDARD - VERSION 2.0
WRAP. NO  : One line per depth step
DLM . SPACE : Column Data Section Delimiter
~Well ------------------------------------------------------
STRT.F          194 : START DEPTH
STOP.F       1764.0 : STOP DEPTH
STEP.F          0.5 : STEP
NULL.       -999.25 : NULL VALUE
COMP.                 WALSH & WATTS, INC. : COMPANY
WELL.                         SALMON E 42 : WELL
FLD .                        NORTH NOCONA : FIELD
CNTY.                            MONTAGUE : COUNTY
STAT.                               TEXAS : STATE
CTRY.                                 USA : COUNTRY
SEC .                                     : SECTION
TWP .                                     : TOWNSHIP
RGE .                                     : RANGE
LOC . 150' FSL & 300' W OF WELL NO. 1, 407' E OF WELL NO. 5, F. ROBERTSON SURVEY : LOCATION
EKB .F                      880 : ELEVATION KELLY BUSHING
EDF .F                          : ELEVATION DERRICK FLOOR
EGL .F                      874 : ELEVATION GROUND LEVEL
PDAT.              GROUND LEVEL : PERMANENT DATUM
EPD .                       874 : ELEVATION PERMANENT DATUM
APD .                         6 : ABOVE PERMANENT DATUM
LMF .                        KB : LOG MEASURED FROM
DMF .                        KB : DRILLING MEASURED FROM
API .            42337037780000 : API NUMBER
UWI .            42337037780000 : UWI NUMBER
DIGC.                     NthDS : DIGITIZING COMPANY
~Params ----------------------------------------------------
SRVC.                LANE WELLS : LOGGING COMPANY
LOG .                       IEL : LOG
DATE.                1965-11-21 : RUN DATE
RUN .                         1 : RUN NUMBER
TDD .F                     1766 : TOTAL DEPTH DRILLER
TDL .F                     1768 : TOTAL DEPTH LOGGER
BOTL.F                     1764 : BOTTOM LOGGED INTERVAL
TOPL.F                      200 : TOP LOGGED INTERVAL
CSGS.IN                         : CASING SIZE
CSGD.F                          : CASING DRILLER
CSGL.F                          : CASING LOGGER
BS  .IN                   7.875 : BIT SIZE
MUD .              CHEMICAL GEL : MUD TYPE
MUDD.                       9.8 : MUD DENSITY
MUDV.                       123 : MUD VISCOSITY
PH  .                           : MUD PH
FL  .                           : FLUID LOSS
MUDS.                CIRCULATED : SOURCE OF SAMPLE
RM  .OHMM                   2.1 : MUD RESISTIVITY
RMT .DEGF                    70 : RM TEMPERATURE
RMF .OHMM                  1.81 : MUD FILTRATE RESISTIVITY
RMFT.DEGF                    70 : RMF TEMPERATURE
RMC .OHMM                  2.34 : MUD CAKE RESISTIVITY
RMCT.DEGF                    70 : RMC TEMPERATURE
RMFS.                  MEASURED : RMF SOURCE
RMCS.                           : RMC SOURCE
RMBH.OHMM                   1.5 : MUD RESISTIVITY AT BHT
BHT .DEGF                    98 : BOTTOM HOLE TEMPERATURE
TIMC.                           : TIME CIRCULATION STOPPED
TIML.                           : TIME LOGGER ON BOTTOM
TMAX.DEGF                    98 : MAXIMUM RECORDED TEMPERATURE
UNIT.                    L-4553 : EQUIPMENT NUMBER
BASE.                      W.F. : BASE LOCATION
ENG .                     ADAMS : RECORDED BY
WIT .   MR. HARRELSON & MR. NIX : WITNESSED BY
~Curve Information -----------------------------------------
DEPT.F          :DEPTH
CILD.MMHO       :
ILD.OHMM        :
ROP.MIN/FT      :
SN.OHMM         :
SP.MV           :
~ASCII ------------------------------------------------------
# ...
289.00000      128.49181        6.32825        -999.25       10.15466      -76.89349
289.50000      127.51610        6.32784        -999.25       10.19383      -76.60325
290.00000      127.53343        6.28812        -999.25       10.31176      -76.31199
290.50000      128.54380        6.36660        -999.25       10.46914      -76.61360
291.00000      131.54026        6.44508        -999.25       10.62651      -76.61878
291.50000      136.52281        6.52370        -999.25       10.82334      -76.32751
292.00000      143.49490        6.60218        -999.25       10.98085      -76.33268
292.50000      148.47745        6.91735        -999.25       11.17781      -76.04142
293.00000      152.46695        7.07473        -999.25       11.45353      -75.45371
293.50000      154.47037        7.23224        -999.25       11.72925      -74.86600
294.00000      155.48074        7.35017        -999.25       11.76856      -73.98185
294.50000      156.49112        7.58644        -999.25       12.04414      -73.98806
295.00000      156.50845        7.66492        -999.25       12.24097      -73.69679
295.50000      153.54665        7.70409        -999.25       12.31959      -73.40553
296.00000      145.62311        7.74313        -999.25       12.59517      -73.41070
296.50000      138.68914        7.82161        -999.25       12.75268      -73.41587
297.00000      132.74822        7.82134        -999.25       12.98896      -73.71749
297.50000      129.78643        7.82092        -999.25       13.26468      -73.72266
298.00000      127.81767        7.78106        -999.25       13.46164      -73.72784
298.50000      126.84196        7.78065        -999.25       13.57957      -73.73301
299.00000      126.85929        7.74093        -999.25       13.61860      -73.73818
299.50000      127.86967        7.70107        -999.25       13.53929      -73.74439
300.00000      128.87658        7.67698        -999.25       13.46451      -73.51827
300.50000      129.11766        7.55777        -999.25       13.18783      -73.52344
301.00000      131.13837        7.47766        -999.25       12.75312      -73.52862
301.50000      133.15908        7.39727        -999.25       12.43679      -73.23735
302.00000      133.19374        7.39590        -999.25       12.39605      -72.94609
302.50000      134.22143        7.39452        -999.25       12.55215      -72.65482
303.00000      134.25610        7.47189        -999.25       12.82636      -72.65999
303.50000      133.29773        7.50988        -999.25       13.21868      -72.66517
304.00000      130.36026        7.66598        -999.25       13.61099      -73.26426
304.50000      127.41585        7.82208        -999.25       13.72773      -73.26943
305.00000      125.46446        7.89945        -999.25       13.80509      -73.57104
305.50000      125.49913        7.81906        -999.25       13.76407      -73.57622
306.00000      127.51984        7.69958        -999.25       13.68396      -73.87783
306.50000      130.54051        7.50136        -999.25       13.56448      -73.88301
307.00000      133.54731        7.42125        -999.25       13.36626      -73.59174
307.50000      134.58193        7.41960        -999.25       13.16804      -73.30151
308.00000      133.62357        7.49724        -999.25       13.04828      -72.71380
308.50000      129.68614        7.77145        -999.25       13.20438      -72.71897
309.00000      126.74173        7.92727        -999.25       13.47859      -72.42771
309.50000      123.79732        8.08338        -999.25       13.67406      -72.43288
310.00000      121.84594        8.08200        -999.25       13.90890      -72.14161
310.50000      122.87362        7.96252        -999.25       14.02536      -72.44323
311.00000      125.88736        7.76430        -999.25       13.59120      -72.44840
311.50000      132.88013        7.29050        -999.25       12.68434      -72.15817
312.00000      140.85899        6.77705        -999.25       11.42288      -71.86690
312.50000      152.80994        6.18514        -999.25       10.35854      -72.16852
313.00000      165.75392        5.82944        -999.25        9.56978      -72.17369
313.50000      177.70488        5.27690        -999.25        8.58391      -72.47531
314.00000      195.62091        4.68471        -999.25        7.91326      -72.48048
314.50000      207.57187        4.56523        -999.25        7.43945      -71.59633
315.00000      215.55073        4.40611        -999.25        7.00502      -70.71218
315.50000      220.55051        4.40501        -999.25        6.60968      -69.82907
316.00000      221.58513        4.36426        -999.25        6.33272      -69.24136
316.50000      220.63370        4.40226        -999.25        6.29198      -68.65365
317.00000      222.64748        4.36152        -999.25        6.36934      -68.06595
317.50000      224.66820        4.32050        -999.25        6.52544      -67.77468
318.00000      225.69588        4.35849        -999.25        6.56344      -67.48341
318.50000      223.74450        4.43586        -999.25        6.64080      -67.48859
319.00000      218.81404        4.55259        -999.25        6.71789      -66.90088
319.50000      212.89056        4.66932        -999.25        6.79525      -66.61065
320.00000      205.98098        4.82542        -999.25        6.87262      -66.31938
320.50000      199.06448        4.94216        -999.25        6.98935      -66.32455
321.00000      195.12704        5.01952        -999.25        7.14545      -66.03329
321.50000      191.18961        5.13598        -999.25        7.34093      -65.44558
322.00000      188.24520        5.17397        -999.25        7.37892      -65.74719
322.50000      188.27986        5.13323        -999.25        7.33818      -67.23457
323.00000      190.30058        5.09249        -999.25        7.25779      -67.53722
323.50000      193.31431        4.97301        -999.25        7.25641      -67.83884
324.00000      199.31406        4.73542        -999.25        7.17630      -68.73333
324.50000      205.30687        4.69440        -999.25        7.05682      -69.62783
325.00000      209.31363        4.61429        -999.25        7.01608      -70.22588
325.50000      212.32736        4.65228        -999.25        7.09344      -70.52750
326.00000      210.37598        4.76901        -999.25        7.20990      -70.23623
326.50000      205.44552        4.88575        -999.25        7.32663      -70.24141
327.00000      197.53599        5.19933        -999.25        7.60084      -70.24761
327.50000      188.64037        5.27669        -999.25        7.91442      -70.25279
328.00000      181.72386        5.55090        -999.25        8.42484      -70.25796
328.50000      175.80038        5.62826        -999.25        8.73842      -70.55958
329.00000      171.86294        5.78409        -999.25        8.89453      -70.86119
329.50000      168.91853        5.86146        -999.25        9.09000      -70.86637
330.00000      164.98110        6.01756        -999.25        9.36421      -70.57510
330.50000      161.04367        6.05555        -999.25        9.63842      -70.87671
331.00000      159.09228        6.17229        -999.25        9.79452      -71.17936
331.50000      159.12695        6.13154        -999.25        9.98971      -70.88810
332.00000      158.17552        6.16954        -999.25       10.10645      -71.18971
332.50000      159.20321        6.16816        -999.25       10.34129      -70.89844
333.00000      158.24484        6.24525        -999.25       10.49739      -70.90362
333.50000      156.29346        6.24388        -999.25       10.49602      -70.61235
334.00000      156.32812        6.28187        -999.25       10.49464      -70.02464
334.50000      156.36279        6.24113        -999.25       10.53264      -69.73441
335.00000      156.39745        6.23975        -999.25       10.57063      -70.03603
335.50000      157.43207        6.23838        -999.25       10.68709      -70.33764
336.00000      157.46673        6.23701        -999.25       10.76445      -70.63926
