~Version ---------------------------------------------------
VERS. 2.0 : CWLS LOG ASCII STANDARD - VERSION 2.0
WRAP. NO  : One line per depth step
DLM . SPACE : Column Data Section Delimiter
~Well ------------------------------------------------------
STRT.F          194 : START DEPTH
STOP.F       1764.0 : STOP DEPTH
STEP.F          0.5 : STEP
NULL.       -999.25 : NULL VALUE
COMP.                 WALSH & WATTS, INC. : COMPANY
WELL.                         SALMON E 42 : WELL
FLD .                        NORTH NOCONA : FIELD
CNTY.                            MONTAGUE : COUNTY
STAT.                               TEXAS : STATE
CTRY.                                 USA : COUNTRY
SEC .                                     : SECTION
TWP .                                     : TOWNSHIP
RGE .                                     : RANGE
LOC . 150' FSL & 300' W OF WELL NO. 1, 407' E OF WELL NO. 5, F. ROBERTSON SURVEY : LOCATION
EKB .F                      880 : ELEVATION KELLY BUSHING
EDF .F                          : ELEVATION DERRICK FLOOR
EGL .F                      874 : ELEVATION GROUND LEVEL
PDAT.              GROUND LEVEL : PERMANENT DATUM
EPD .                       874 : ELEVATION PERMANENT DATUM
APD .                         6 : ABOVE PERMANENT DATUM
LMF .                        KB : LOG MEASURED FROM
DMF .                        KB : DRILLING MEASURED FROM
API .            42337037780000 : API NUMBER
UWI .            42337037780000 : UWI NUMBER
DIGC.                     NthDS : DIGITIZING COMPANY
~Params ----------------------------------------------------
SRVC.                LANE WELLS : LOGGING COMPANY
LOG .                       IEL : LOG
DATE.                1965-11-21 : RUN DATE
RUN .                         1 : RUN NUMBER
TDD .F                     1766 : TOTAL DEPTH DRILLER
TDL .F                     1768 : TOTAL DEPTH LOGGER
BOTL.F                     1764 : BOTTOM LOGGED INTERVAL
TOPL.F                      200 : TOP LOGGED INTERVAL
CSGS.IN                         : CASING SIZE
CSGD.F                          : CASING DRILLER
CSGL.F                          : CASING LOGGER
BS  .IN                   7.875 : BIT SIZE
MUD .              CHEMICAL GEL : MUD TYPE
MUDD.                       9.8 : MUD DENSITY
MUDV.                       123 : MUD VISCOSITY
PH  .                           : MUD PH
FL  .                           : FLUID LOSS
MUDS.                CIRCULATED : SOURCE OF SAMPLE
RM  .OHMM                   2.1 : MUD RESISTIVITY
RMT .DEGF                    70 : RM TEMPERATURE
RMF .OHMM                  1.81 : MUD FILTRATE RESISTIVITY
RMFT.DEGF                    70 : RMF TEMPERATURE
RMC .OHMM                  2.34 : MUD CAKE RESISTIVITY
RMCT.DEGF                    70 : RMC TEMPERATURE
RMFS.                  MEASURED : RMF SOURCE
RMCS.                           : RMC SOURCE
RMBH.OHMM                   1.5 : MUD RESISTIVITY AT BHT
BHT .DEGF                    98 : BOTTOM HOLE TEMPERATURE
TIMC.                           : TIME CIRCULATION STOPPED
TIML.                           : TIME LOGGER ON BOTTOM
TMAX.DEGF                    98 : MAXIMUM RECORDED TEMPERATURE
UNIT.                    L-4553 : EQUIPMENT NUMBER
BASE.                      W.F. : BASE LOCATION
ENG .                     ADAMS : RECORDED BY
WIT .   MR. HARRELSON & MR. NIX : WITNESSED BY
~Curve Information -----------------------------------------
DEPT.F          :DEPTH
CILD.MMHO       :
ILD.OHMM        :
ROP.MIN/FT      :
SN.OHMM         :
SP.MV           :
~ASCII ------------------------------------------------------
# ...
479.00000      209.77603        4.57432        -999.25        7.84860      -66.87323
479.50000      209.79338        4.57363        -999.25        7.76902      -66.87840
480.00000      210.80823        4.57294        -999.25        7.80764      -66.88459
480.50000      210.82558        4.61170        -999.25        7.84640      -66.29804
481.00000      210.84293        4.61101        -999.25        7.84571      -66.00735
481.50000      208.87222        4.57088        -999.25        7.88447      -66.01252
482.00000      208.88957        4.60964        -999.25        7.92323      -66.60939
482.50000      207.91289        4.64826        -999.25        7.92254      -67.50212
483.00000      208.92427        4.60812        -999.25        7.92185      -68.39486
483.50000      209.93564        4.56799        -999.25        7.88158      -68.69588
484.00000      210.95049        4.56730        -999.25        7.84144      -68.99690
484.50000      211.96187        4.56661        -999.25        7.84075      -69.00206
485.00000      210.98519        4.56592        -999.25        7.84006      -69.30411
485.50000      210.00851        4.60468        -999.25        7.91827      -69.01342
486.00000      207.04377        4.68289        -999.25        7.99648      -69.31444
486.50000      206.06709        4.72151        -999.25        8.03523      -69.31960
487.00000      203.10235        4.76027        -999.25        8.03455      -69.02891
487.50000      202.12567        4.79903        -999.25        8.07317      -68.44236
488.00000      201.15246        4.79834        -999.25        8.03303      -67.85581
488.50000      201.16981        4.79765        -999.25        8.03234      -67.56512
489.00000      202.18119        4.75751        -999.25        7.99221      -67.27443
489.50000      205.18063        4.67793        -999.25        7.91262      -67.87130
490.00000      207.18603        4.63779        -999.25        7.83304      -68.76507
490.50000      208.19741        4.67642        -999.25        7.75346      -69.65780
491.00000      208.21476        4.71517        -999.25        7.67387      -70.25468
491.50000      204.25599        4.79338        -999.25        7.59415      -70.25984
492.00000      197.31861        4.98993        -999.25        7.51457      -69.67329
492.50000      190.37775        5.10758        -999.25        7.63222      -68.19918
493.00000      185.42495        5.26469        -999.25        7.82877      -66.42920
493.50000      182.46021        5.34289        -999.25        7.98587      -64.36337
494.00000      182.47756        5.34220        -999.25        8.10353      -63.18511
494.50000      181.50088        5.34138        -999.25        8.10284      -62.89442
495.00000      180.52420        5.38014        -999.25        8.06270      -62.30787
495.50000      181.53558        5.37945        -999.25        7.98298      -61.42650
496.00000      184.53848        5.26042        -999.25        7.94285      -60.54409
496.50000      186.54389        5.22028        -999.25        7.86326      -59.95755
497.00000      188.54930        5.18014        -999.25        7.90202      -59.96271
497.50000      188.56665        5.21890        -999.25        8.05912      -60.26373
498.00000      184.60788        5.41545        -999.25        8.21622      -60.26889
498.50000      177.66702        5.57242        -999.25        8.41277      -60.56991
499.00000      171.72019        5.80841        -999.25        8.68822      -60.27922
499.50000      166.76739        5.88662        -999.25        8.96352      -60.28438
500.00000      162.69669        5.99602        -999.25        9.30961      -60.17740
500.50000      160.72989        6.07422        -999.25        9.70339      -60.48005
501.00000      159.75515        6.19188        -999.25        9.89994      -60.48522
501.50000      158.78041        6.19119        -999.25       10.09649      -60.19396
502.00000      159.78978        6.22995        -999.25       10.13525      -60.19913
502.50000      159.80709        6.18981        -999.25       10.17401      -60.50074
503.00000      159.82441        6.18899        -999.25       10.09442      -60.50592
503.50000      159.84172        6.22774        -999.25       10.13318      -60.21465
504.00000      158.86698        6.26650        -999.25       10.17194      -59.62694
504.50000      155.90812        6.42361        -999.25       10.32904      -58.14991
505.00000      152.95273        6.50181        -999.25       10.48601      -56.37644
505.50000      151.97798        6.58002        -999.25       10.56421      -55.19585
506.00000      149.01913        6.61878        -999.25       10.60297      -54.31274
506.50000      149.03644        6.61809        -999.25       10.60228      -54.31791
507.00000      150.04581        6.53851        -999.25       10.56215      -54.32309
507.50000      152.04724        6.49837        -999.25       10.44312      -54.92114
508.00000      154.04867        6.37920        -999.25       10.20574      -55.51920
508.50000      156.05010        6.29962        -999.25       10.00782      -56.11725
509.00000      159.04359        6.18059        -999.25        9.84934      -56.12243
509.50000      161.04502        6.14045        -999.25        9.73017      -55.83116
510.00000      163.04991        6.06087        -999.25        9.69004      -55.53989
510.50000      162.07517        6.09963        -999.25        9.72879      -55.84151
511.00000      161.10043        6.17783        -999.25        9.72811      -56.14416
511.50000      159.13363        6.25604        -999.25        9.72742      -56.14933
512.00000      156.17477        6.29480        -999.25        9.68728      -56.15451
512.50000      156.19208        6.33356        -999.25        9.64715      -55.27036
513.00000      157.20146        6.25384        -999.25        9.60701      -54.08977
513.50000      160.19494        6.13480        -999.25        9.40908      -53.79850
514.00000      163.18843        5.81854        -999.25        9.13226      -53.80368
514.50000      171.14220        5.69951        -999.25        8.73696      -53.80885
515.00000      179.09944        5.34379        -999.25        8.38125      -53.51758
515.50000      187.05321        5.18531        -999.25        8.10442      -53.81920
516.00000      195.00698        4.94794        -999.25        7.82760      -53.52896
516.50000      199.98459        4.90780        -999.25        7.59023      -53.23770
517.00000      200.99396        4.90711        -999.25        7.43175      -52.94643
517.50000      200.01922        4.94573        -999.25        7.39162      -52.95160
518.00000      196.06830        5.18173        -999.25        7.50927      -52.95678
518.50000      191.12533        5.25994        -999.25        7.78458      -52.66551
519.00000      185.19030        5.49593        -999.25        7.94168      -52.67069
519.50000      179.25873        5.53469        -999.25        8.09878      -52.67586
520.00000      174.31576        5.73124        -999.25        8.21643      -52.97747
520.50000      169.37279        5.84890        -999.25        8.45243      -54.16841
521.00000      166.41393        5.92710        -999.25        8.64898      -55.65682
521.50000      164.44713        5.96586        -999.25        8.76663      -56.55132
522.00000      164.46445        5.92573        -999.25        8.80539      -57.44582
522.50000      164.48176        6.04338        -999.25        8.92305      -58.04387
523.00000      163.50702        6.04255        -999.25        9.04070      -57.75261
523.50000      162.53228        6.08131        -999.25        9.11891      -57.46134
524.00000      162.54959        6.19897        -999.25        9.27601      -57.17007
524.50000      160.58279        6.23773        -999.25        9.59076      -57.47169
525.00000      157.62740        6.43427        -999.25        9.86620      -57.77330
525.50000      154.66854        6.47303        -999.25       10.10220      -58.07595
526.00000      150.71763        6.66958        -999.25       10.37765      -58.67401
