~Version ---------------------------------------------------
VERS. 2.0 : CWLS LOG ASCII STANDARD - VERSION 2.0
WRAP. NO  : One line per depth step
DLM . SPACE : Column Data Section Delimiter
~Well ------------------------------------------------------
STRT.F         98.5 : START DEPTH
STOP.F       1003.5 : STOP DEPTH
STEP.F          0.5 : STEP
NULL.       -999.25 : NULL VALUE
COMP.                       WALSH & WATTS : COMPANY
WELL.                          SALMON D 8 : WELL
FLD .                          OLD NOCOMA : FIELD
CNTY.                            MONTAGUE : COUNTY
STAT.                               TEXAS : STATE
CTRY.                                 USA : COUNTRY
SEC .                                     : SECTION
TWP .                                     : TOWNSHIP
RGE .                                     : RANGE
LOC .                          OLD NOCOMA : LOCATION
EKB .F                          : ELEVATION KELLY BUSHING
EDF .F                      855 : ELEVATION DERRICK FLOOR
EGL .F                          : ELEVATION GROUND LEVEL
PDAT.                        RT : PERMANENT DATUM
EPD .                           : ELEVATION PERMANENT DATUM
APD .                         4 : ABOVE PERMANENT DATUM
LMF .                           : LOG MEASURED FROM
DMF .                           : DRILLING MEASURED FROM
API .            42337016420000 : API NUMBER
UWI .            42337016420000 : UWI NUMBER
DIGC.                     NthDS : DIGITIZING COMPANY
~Params ----------------------------------------------------
SRVC.              SCHLUMBERGER : LOGGING COMPANY
LOG .                        EL : LOG
DATE.                1948-12-15 : RUN DATE
RUN .                         1 : RUN NUMBER
TDD .F                          : TOTAL DEPTH DRILLER
TDL .F                          : TOTAL DEPTH LOGGER
BOTL.F                     1005 : BOTTOM LOGGED INTERVAL
TOPL.F                     1004 : TOP LOGGED INTERVAL
CSGS.IN                         : CASING SIZE
CSGD.F                          : CASING DRILLER
CSGL.F                          : CASING LOGGER
BS  .IN                       9 : BIT SIZE
MUD .                   AQUAGEL : MUD TYPE
MUDD.                      10.2 : MUD DENSITY
MUDV.                        40 : MUD VISCOSITY
PH  .                           : MUD PH
FL  .                           : FLUID LOSS
MUDS.                           : SOURCE OF SAMPLE
RM  .OHMM                    .8 : MUD RESISTIVITY
RMT .DEGF                    65 : RM TEMPERATURE
RMF .OHMM                       : MUD FILTRATE RESISTIVITY
RMFT.DEGF                       : RMF TEMPERATURE
RMC .OHMM                       : MUD CAKE RESISTIVITY
RMCT.DEGF                       : RMC TEMPERATURE
RMFS.                           : RMF SOURCE
RMCS.                           : RMC SOURCE
RMBH.OHMM                       : MUD RESISTIVITY AT BHT
BHT .DEGF                       : BOTTOM HOLE TEMPERATURE
TIMC.                           : TIME CIRCULATION STOPPED
TIML.                           : TIME LOGGER ON BOTTOM
TMAX.DEGF                       : MAXIMUM RECORDED TEMPERATURE
UNIT.                       201 : EQUIPMENT NUMBER
BASE.                           : BASE LOCATION
ENG .                    LITTLE : RECORDED BY
WIT .                 MR. WATTS : WITNESSED BY
~Curve Information -----------------------------------------
DEPT.F          :DEPTH
ILD.OHMM        :
LAT.OHMM        :
SN.OHMM         :
SP.MV           :
~ASCII ------------------------------------------------------
# ...
156.00000        8.37164       12.29937       10.35823      -44.88954
156.50000        8.21070       12.79300       10.18122      -44.78974
157.00000        8.22922       13.17678       10.17117      -44.68993
157.50000        8.36828       13.17524       10.27184      -44.58657
158.00000        8.50733       12.97261       10.47161      -44.48677
158.50000        9.06692       12.68937       10.69638      -44.38696
159.00000        9.89437       12.40525       10.92115      -44.28716
159.50000       11.12360       12.12201       11.40128      -44.18380
160.00000       11.57516       11.83877       11.88051      -44.08399
160.50000       11.83118       11.62432       12.30171      -43.98419
161.00000       12.08809       11.39246       12.48719      -43.88083
161.50000       12.34500       10.94800       12.67268      -44.00201
162.00000       12.46710       10.57353       12.85817      -44.26934
162.50000       12.50080       10.47631       12.82490      -44.53667
163.00000       12.53450       10.37998       12.73718      -44.80399
163.50000       12.49766       10.35718       12.64945      -44.84320
164.00000       12.38047       10.44421       12.32690      -44.73271
164.50000       12.00971       10.45153       11.94632      -44.62221
165.00000       11.63895       10.33925       11.56485      -44.50815
165.50000       11.26908       10.22698       11.11998      -44.39766
166.00000       11.12154       10.12711       10.67511      -44.28716
166.50000       11.12310       10.07596       10.23024      -44.19805
167.00000       11.12465       10.06644        9.78538      -44.19805
167.50000       11.12621       10.12659        9.40569      -44.19805
168.00000       11.12777       10.17731        9.12332      -44.19805
168.50000       11.05522       10.17842        8.94184      -44.19805
169.00000       10.98178        9.98376        9.16661      -44.19805
169.50000       11.06548        9.78822        9.39138      -44.19805
170.00000       11.25275        9.59268        9.56616      -44.19805
170.50000       11.42574        9.71781        9.66771      -44.19805
171.00000       11.53890        9.62325        9.64874      -44.19805
171.50000       11.94224        9.38342        9.55119      -44.19805
172.00000       11.85452        9.14359        9.45364      -44.19805
172.50000       11.85608        8.90375        9.35609      -44.19805
173.00000       12.04870        8.66392        9.35765      -44.19805
173.50000       12.22705        8.48344        9.35921      -44.19805
174.00000       11.83843        8.37529        9.19380      -44.22657
174.50000       11.56231        8.22226        8.98733      -44.36201
175.00000       11.36030        8.02672        8.78085      -44.50102
175.50000       11.35382        7.83118        8.78509      -44.66498
176.00000       11.63931        7.75257        8.78397      -44.80043
176.50000       11.73462        7.85024        8.54892      -44.88241
177.00000       11.06653        7.94702        8.31477      -44.72914
177.50000       10.39845        8.04380        8.07972      -44.57944
178.00000        9.87680        8.14058        8.13931      -44.42617
178.50000        9.39086        8.23736        8.27212      -44.27647
179.00000        9.16832        8.20215        8.40493      -44.12677
179.50000        9.11987        8.16606        8.45381      -43.97350
180.00000        9.37232        8.09542        8.37590      -43.82380
180.50000        9.78281        7.97340        8.29889      -43.67409
181.00000       10.27575        7.77312        8.22188      -43.52083
181.50000       10.66034        7.51646        8.02254      -43.37112
182.00000       11.04404        7.25979        7.82321      -43.21786
182.50000       11.35184        7.00313        7.62388      -43.20716
183.00000       11.21947        6.74647        7.42454      -43.40677
183.50000       10.88621        6.48981        7.27700      -43.60281
184.00000       10.55295        6.23403        7.30445      -43.80241
184.50000       10.10840        6.21034        7.37386      -43.99845
185.00000        9.88643        6.24600        7.41471      -44.19805
185.50000        9.57549        6.32595        7.33769      -43.95211
186.00000        9.13062        6.47145        7.24492      -43.70617
186.50000        8.73040        6.61783        7.16791      -43.46023
187.00000        8.50874        6.74916        7.52661      -43.21429
187.50000        8.47459        6.85834        7.88531      -42.96835
188.00000        8.56543        6.98936        8.24400      -42.78657
188.50000        8.57145        7.09854        8.16431      -42.85786
189.00000        8.52033        7.20772        8.08462      -42.92914
189.50000        8.46921        7.31690        8.07011      -42.99687
190.00000        8.41006        7.20463        8.07167      -43.06815
190.50000        8.31787        7.05515        7.92323      -43.13944
191.00000        8.22478        6.85075        7.67479      -43.21073
191.50000        8.13259        6.64635        7.42635      -43.28201
192.00000        8.15736        6.44195        7.17791      -43.34974
192.50000        8.35714        6.23756        6.92947      -43.42102
193.00000        8.23727        6.21121        6.75692      -43.49231
193.50000        7.68079        6.30444        6.63437      -43.56360
194.00000        7.13503        6.39857        6.51182      -43.63488
194.50000        6.59642        6.60253        6.38927      -43.70261
195.00000        6.05691        6.87971        6.26673      -43.77389
195.50000        5.51829        7.11113        6.14418      -43.84518
196.00000        5.21092        7.36470        6.02163      -43.91647
196.50000        4.96159        7.70420        5.94105      -43.98776
197.00000        4.71136        8.04281        5.92207      -44.05548
197.50000        4.61323        8.17768        5.90309      -44.12677
198.00000        4.77519        8.17613        5.88501      -44.19805
198.50000        5.19282        7.90884        5.86603      -43.68835
199.00000        5.70955        7.57688        6.14259      -43.17865
199.50000        6.22629        7.25378        6.41825      -42.78300
200.00000        7.02874        7.30675        6.85912      -42.83290
200.50000        7.74203        7.22523        7.10769      -42.53350
201.00000        7.92152        7.14370        7.41885      -42.58340
201.50000        7.92307        7.06129        7.79171      -42.63330
202.00000        7.47978        7.10362        8.04028      -42.68320
202.50000        7.01070        7.27783        8.04450      -42.73310
203.00000        6.88592        7.65164        7.77265      -42.78300
203.50000        6.63480        8.02545        7.62679      -42.83290
204.00000        6.35344        8.52045        7.38368      -42.88993
204.50000        6.22688        9.09653        7.14058      -42.93984
205.00000        6.20441        9.52559        7.02558      -42.97904
205.50000        6.18105        9.85663        6.98327      -43.02894
206.00000        6.15770        9.86510        6.95871      -43.07885
206.50000        6.44870        9.87358        7.25653      -43.12875
207.00000        6.69136        9.88116        7.55523      -43.12875
207.50000        6.93401        9.88963        7.91532      -43.12875
208.00000        7.17667        9.90016        8.31723      -43.12875
208.50000        7.50028        9.90774        8.63875      -43.12875
209.00000        7.94667        9.91621        9.12104      -43.12875
209.50000        8.39306        9.90241        9.78362      -43.12875
210.00000        8.98180        9.85475       10.61880      -43.41746
210.50000        9.60612        9.67788       11.45487      -44.14102
211.00000        9.96977        9.30854       12.49022      -44.86102
211.50000       10.49001        8.93831       13.82628      -45.58459
212.00000       11.58586        8.56808       15.60750      -46.30815
212.50000       13.66956        8.26824       17.12149      -47.03172
213.00000       14.69868        8.05306       17.94955      -47.75172
