~Version ---------------------------------------------------
VERS. 2.0 : CWLS LOG ASCII STANDARD - VERSION 2.0
WRAP. NO  : One line per depth step
DLM . SPACE : Column Data Section Delimiter
~Well ------------------------------------------------------
STRT.F          500 : START DEPTH
STOP.F       2022.5 : STOP DEPTH
STEP.F          0.5 : STEP
NULL.       -999.25 : NULL VALUE
COMP.                 WALSH & WATTS, INC. : COMPANY
WELL.                          HYNDS A 10 : WELL
FLD .                           N. NOCONA : FIELD
CNTY.                            MONTAGUE : COUNTY
STAT.                               TEXAS : STATE
CTRY.                                 USA : COUNTRY
SEC .                                     : SECTION
TWP .                                     : TOWNSHIP
RGE .                                     : RANGE
LOC .  244' SE OF NO. 5A J.J. WALL SURVEY : LOCATION
EKB .F                    903.5 : ELEVATION KELLY BUSHING
EDF .F                          : ELEVATION DERRICK FLOOR
EGL .F                      897 : ELEVATION GROUND LEVEL
PDAT.                        GL : PERMANENT DATUM
EPD .                           : ELEVATION PERMANENT DATUM
APD .                         6 : ABOVE PERMANENT DATUM
LMF .                           : LOG MEASURED FROM
DMF .                           : DRILLING MEASURED FROM
API .            42337037830000 : API NUMBER
UWI .            42337037830000 : UWI NUMBER
DIGC.                     NthDS : DIGITIZING COMPANY
~Params ----------------------------------------------------
SRVC.                LANE WELLS : LOGGING COMPANY
LOG .                       GRN : LOG
DATE.                1957-11-30 : RUN DATE
RUN .                         1 : RUN NUMBER
TDD .F                     2039 : TOTAL DEPTH DRILLER
TDL .F                     2015 : TOTAL DEPTH LOGGER
BOTL.F                     2023 : BOTTOM LOGGED INTERVAL
TOPL.F                      500 : TOP LOGGED INTERVAL
CSGS.IN                     5.5 : CASING SIZE
CSGD.F                     2038 : CASING DRILLER
CSGL.F                          : CASING LOGGER
BS  .IN                    8.75 : BIT SIZE
MUD .                     WATER : MUD TYPE
MUDD.                           : MUD DENSITY
MUDV.                           : MUD VISCOSITY
PH  .                           : MUD PH
FL  .                           : FLUID LOSS
MUDS.                           : SOURCE OF SAMPLE
RM  .OHMM                       : MUD RESISTIVITY
RMT .DEGF                       : RM TEMPERATURE
RMF .OHMM                       : MUD FILTRATE RESISTIVITY
RMFT.DEGF                       : RMF TEMPERATURE
RMC .OHMM                       : MUD CAKE RESISTIVITY
RMCT.DEGF                       : RMC TEMPERATURE
RMFS.                           : RMF SOURCE
RMCS.                           : RMC SOURCE
RMBH.OHMM                       : MUD RESISTIVITY AT BHT
BHT .DEGF                       : BOTTOM HOLE TEMPERATURE
TIMC.                           : TIME CIRCULATION STOPPED
TIML.                           : TIME LOGGER ON BOTTOM
TMAX.DEGF                       : MAXIMUM RECORDED TEMPERATURE
UNIT.                           : EQUIPMENT NUMBER
BASE.                           : BASE LOCATION
ENG .                   ROBERTS : RECORDED BY
WIT .                       NIX : WITNESSED BY
~Curve Information -----------------------------------------
DEPT.F          :DEPTH
GRN.GAPI        :
NEUT.API        :
~ASCII ------------------------------------------------------
# ...
1882.00000       32.64014     2202.87871
1882.50000       33.36346     2202.55423
1883.00000       32.73055     2224.52419
1883.50000       34.47829     2248.58991
1884.00000       34.52079     2252.18593
1884.50000       35.69619     2236.81180
1885.00000       36.16636     2217.22810
1885.50000       35.26220     2202.14303
1886.00000       34.48462     2205.14285
1886.50000       35.24412     2178.02529
1887.00000       36.15551     2193.54540
1887.50000       35.64647     2210.20373
1888.00000       37.34176     2196.03660
1888.50000       39.96382     2217.69943
1889.00000       38.98462     2232.58721
1889.50000       39.00542     2216.30974
1890.00000       36.74502     2185.79562
1890.50000       35.50361     2159.81626
1891.00000       36.01265     2104.78548
1891.50000       37.41410     2049.73663
1892.00000       36.83815     2162.78139
1892.50000       36.30560     2233.82082
1893.00000       37.10487     2231.27413
1893.50000       37.90505     2219.32922
1894.00000       37.57413     2206.66511
1894.50000       35.57232     2189.17716
1895.00000       36.25677     2193.98365
1895.50000       36.81735     2184.02956
1896.00000       37.27395     2183.10888
1896.50000       39.36437     2160.50802
1897.00000       40.74773     2152.36061
1897.50000       41.33815     2154.14995
1898.00000       39.00270     2132.45243
1898.50000       34.99095     2164.95188
1899.00000       34.58950     2192.03476
1899.50000       34.94032     2173.35440
1900.00000       34.70162     2185.08004
1900.50000       33.45388     2217.73892
1901.00000       32.91139     2250.41590
1901.50000       32.32911     2243.40036
1902.00000       30.87160     2271.62888
1902.50000       30.24412     2257.59708
1903.00000       29.45750     2313.83639
1903.50000       27.60397     2370.07570
1904.00000       26.88969     2426.31502
1904.50000       27.55424     2478.14204
1905.00000       26.37160     2505.97273
1905.50000       25.80289     2501.61542
1906.00000       25.85895     2470.60007
1906.50000       24.65370     2474.45251
1907.00000       23.79023     2441.88548
1907.50000       24.29927     2458.14296
1908.00000       24.02802     2494.97905
1908.50000       24.05063     2531.83323
1909.00000       23.68896     2568.66933
1909.50000       24.59312     2605.52351
1910.00000       24.54791     2642.35960
1910.50000       25.42495     2683.26440
1911.00000       24.95479     2725.16378
1911.50000       25.33182     2752.75939
1912.00000       24.21338     2732.03683
1912.50000       21.41048     2689.27091
1913.00000       19.56600     2655.05485
1913.50000       19.93670     2680.35389
1914.00000       20.18535     2711.98204
1914.50000       18.42947     2694.78569
1915.00000       18.80651     2711.04317
1915.50000       19.80108     2700.17592
1916.00000       20.79566     2670.14054
1916.50000       19.89150     2667.59154
1917.00000       20.65370     2627.01368
1917.50000       21.88065     2568.87361
1918.00000       21.10307     2530.10407
1918.50000       21.83544     2530.08671
1919.00000       21.24773     2502.79997
1919.50000       22.03526     2468.71396
1920.00000       23.23688     2444.24819
1920.50000       22.42314     2458.28143
1921.00000       22.39330     2458.75232
1921.50000       21.75135     2451.62828
1922.00000       20.43399     2425.87861
1922.50000       21.11211     2393.41661
1923.00000       20.66003     2406.96161
1923.50000       20.52441     2396.99852
1924.00000       21.20253     2366.23981
1924.50000       21.15732     2302.02728
1925.00000       22.60397     2308.44752
1925.50000       22.24231     2387.77902
1926.00000       22.72423     2389.67847
1926.50000       23.40506     2397.79853
1927.00000       22.88788     2363.11578
1927.50000       23.41772     2346.34995
1928.00000       24.00542     2326.27838
1928.50000       23.77938     2306.20681
1929.00000       25.58770     2286.13524
1929.50000       26.76310     2266.08176
1930.00000       27.03435     2282.30307
1930.50000       25.26401     2266.86078
1931.00000       23.49276     2283.71500
1931.50000       23.21066     2296.35585
1932.00000       23.70705     2242.08905
1932.50000       23.68896     2230.69392
1933.00000       23.83996     2231.20097
1933.50000       22.63381     2221.61762
1934.00000       22.61573     2246.06676
1934.50000       21.31555     2270.49782
1935.00000       21.42857     2294.94696
1935.50000       22.48372     2282.95856
1936.00000       23.53797     2286.12383
1936.50000       23.65009     2289.84969
1937.00000       23.77034     2284.09997
1937.50000       26.43761     2267.66311
1938.00000       29.11392     2228.76352
1938.50000       28.97829     2217.86010
1939.00000       28.67992     2239.21703
1939.50000       29.08408     2251.94829
1940.00000       27.84810     2241.20762
1940.50000       26.80831     2244.95156
1941.00000       26.23869     2255.02459
1941.50000       26.18806     2233.74145
1942.00000       27.02621     2197.97371
1942.50000       28.34538     2203.74296
1943.00000       30.36166     2182.02235
1943.50000       32.80289     2154.88028
1944.00000       34.26762     2138.58808
1944.50000       35.08137     2135.85825
1945.00000       35.44303     2116.49193
1945.50000       35.67359     2083.92490
1946.00000       36.90596     2069.07936
1946.50000       37.34176     2080.81605
1947.00000       36.82187     2078.03197
1947.50000       36.61844     2053.47578
1948.00000       36.95750     2086.78219
1948.50000       35.74231     2114.54055
1949.00000       33.96835     2126.34957
1949.50000       32.69167     2136.94702
1950.00000       33.40234     2138.85641
1950.50000       32.81012     2153.23608
1951.00000       31.73598     2181.25125
1951.50000       32.66997     2190.78959
1952.00000       32.73055     2184.19015
1952.50000       33.25768     2223.84628
1953.00000       32.27847     2269.99379
1953.50000       30.76401     2320.49306
1954.00000       29.24954     2370.99232
1954.50000       27.73508     2355.10913
1955.00000       26.31102     2286.34858
1955.50000       26.76310     2229.05114
1956.00000       30.37974     2171.75370
1956.50000       33.99638     2114.45626
1957.00000       37.61301     2057.77532
1957.50000       40.59674     2014.69363
1958.00000       43.15822     2017.70084
1958.50000       43.67088     2032.78767
1959.00000       42.40505     2022.57989
1959.50000       42.86979     2041.45637
1960.00000       42.17269     2103.99551
1960.50000       42.26943     2143.92363
1961.00000       43.96473     2152.97239
1961.50000       45.66003     2148.27684
1962.00000       45.11753     2168.65831
1962.50000       45.56961     2150.50857
1963.00000       44.66545     2170.67245
1963.50000       40.37974     2271.50707
1964.00000       35.23688     2379.19571
1964.50000       30.95117     2491.47182
1965.00000       26.66546     2603.72981
1965.50000       23.11663     2706.46832
1966.00000       23.76401     2741.50071
1966.50000       23.68896     2888.35519
1967.00000       20.97649     3043.96758
1967.50000       18.26401     3215.60895
1968.00000       15.37070     3354.90224
1968.50000       13.56238     3481.99247
1969.00000       13.74322     3494.92155
1969.50000       14.28571     3396.98956
1970.00000       13.65280     3346.32507
1970.50000       12.92947     3387.50432
1971.00000       11.57323     3409.80782
1971.50000        9.94575     3421.86654
1972.00000        8.86076     3409.46475
1972.50000        7.86618     3364.11652
1973.00000        8.13743     3334.18077
1973.50000        8.22785     3363.95478
1974.00000        7.86618     3377.30091
1974.50000        8.31826     3370.84652
1975.00000        9.31284     3346.34699
1975.50000       10.39783     3271.42492
1976.00000       11.75407     3190.82744
1976.50000       12.92947     3110.22996
1977.00000       13.74322     3056.37766
1977.50000       13.56238     3109.63304
1978.00000       12.56781     3182.59827
1978.50000       11.66365     3240.29607
1979.00000       11.39240     3208.85534
1979.50000       11.84448     3121.79926
