~Version ---------------------------------------------------
VERS. 2.0 : CWLS LOG ASCII STANDARD - VERSION 2.0
WRAP. NO  : One line per depth step
DLM . SPACE : Column Data Section Delimiter
~Well ------------------------------------------------------
STRT.F          100 : START DEPTH
STOP.F       1218.0 : STOP DEPTH
STEP.F          0.5 : STEP
NULL.       -999.25 : NULL VALUE
COMP.                       WALSH & WATTS : COMPANY
WELL.                          SALMON A 6 : WELL
FLD .                          OLD NOCONA : FIELD
CNTY.                            MONTAGUE : COUNTY
STAT.                               TEXAS : STATE
CTRY.                                 USA : COUNTRY
SEC .                                     : SECTION
TWP .                                     : TOWNSHIP
RGE .                                     : RANGE
LOC .                                     : LOCATION
EKB .F                          : ELEVATION KELLY BUSHING
EDF .F                      884 : ELEVATION DERRICK FLOOR
EGL .F                      878 : ELEVATION GROUND LEVEL
PDAT.                           : PERMANENT DATUM
EPD .                           : ELEVATION PERMANENT DATUM
APD .                       5.5 : ABOVE PERMANENT DATUM
LMF .                       KDB : LOG MEASURED FROM
DMF .                       KDB : DRILLING MEASURED FROM
API .            42337039770000 : API NUMBER
UWI .                           : UWI NUMBER
DIGC.                     NthDS : DIGITIZING COMPANY
~Params ----------------------------------------------------
SRVC.     THE ELGEN CORPORATION : LOGGING COMPANY
LOG .                        EL : LOG
DATE.                1954-12-19 : RUN DATE
RUN .                         1 : RUN NUMBER
TDD .F                     1217 : TOTAL DEPTH DRILLER
TDL .F                     1219 : TOTAL DEPTH LOGGER
BOTL.F                     1218 : BOTTOM LOGGED INTERVAL
TOPL.F                      100 : TOP LOGGED INTERVAL
CSGS.IN                         : CASING SIZE
CSGD.F                          : CASING DRILLER
CSGL.F                          : CASING LOGGER
BS  .IN                    8.75 : BIT SIZE
MUD .                       GEL : MUD TYPE
MUDD.                        10 : MUD DENSITY
MUDV.                        60 : MUD VISCOSITY
PH  .                           : MUD PH
FL  .                           : FLUID LOSS
MUDS.                           : SOURCE OF SAMPLE
RM  .OHMM                   2.4 : MUD RESISTIVITY
RMT .DEGF                    58 : RM TEMPERATURE
RMF .OHMM                       : MUD FILTRATE RESISTIVITY
RMFT.DEGF                       : RMF TEMPERATURE
RMC .OHMM                       : MUD CAKE RESISTIVITY
RMCT.DEGF                       : RMC TEMPERATURE
RMFS.                           : RMF SOURCE
RMCS.                           : RMC SOURCE
RMBH.OHMM                       : MUD RESISTIVITY AT BHT
BHT .DEGF                       : BOTTOM HOLE TEMPERATURE
TIMC.                           : TIME CIRCULATION STOPPED
TIML.                           : TIME LOGGER ON BOTTOM
TMAX.DEGF                       : MAXIMUM RECORDED TEMPERATURE
UNIT.                           : EQUIPMENT NUMBER
BASE.                           : BASE LOCATION
ENG .                 STONE-302 : RECORDED BY
WIT .                      TODD : WITNESSED BY
~Curve Information -----------------------------------------
DEPT.F          :DEPTH
LAT.OHMM        :
LN.OHMM         :
SN.OHMM         :
SP.MV           :
~ASCII ------------------------------------------------------
# ...
675.00000        3.13945        5.32821        6.51150      -65.14820
675.50000        3.22924        5.07674        6.55567      -65.16064
676.00000        3.31902        4.99027        6.59894      -65.52958
676.50000        3.40881        4.82130        6.64311      -66.25502
677.00000        3.49860        4.81734        6.71590      -67.33696
677.50000        3.58838        4.89589        6.83342      -68.06240
678.00000        3.73631        4.97443        6.95004      -68.07484
678.50000        3.96069        5.05298        6.98347      -68.44379
679.00000        4.14707        5.29653        6.89169      -69.17171
679.50000        4.33435        5.45758        6.78154      -70.25365
680.00000        4.52074        5.53612        6.88654      -70.62259
680.50000        4.39049        5.69717        7.12301      -70.99153
681.00000        4.04826        5.77572        7.35859      -71.00398
681.50000        3.70603        5.52424        7.49041      -70.65993
682.00000        3.36380        4.86025        7.55158      -69.95937
682.50000        3.02157        4.19546        7.61364      -67.83283
683.00000        3.18423        3.69647        7.67480      -66.41929
683.50000        3.55845        3.44500        7.73686      -64.64925
684.00000        3.93267        3.35854        7.81008      -63.23321
684.50000        4.30689        3.35458        7.87213      -62.17616
685.00000        6.17214        3.43312        7.72579      -62.54510
685.50000        8.03739        3.51166        7.52756      -64.34253
686.00000        9.90354        3.67271        7.33023      -65.06796
686.50000       10.73750        3.99877        7.09623      -63.65442
687.00000       10.88453        4.40733        6.83808      -60.81488
687.50000        9.91262        4.81590        6.57993      -59.04235
688.00000        8.66253        5.05945        6.32177      -57.62881
688.50000        7.16153        5.13799        6.01306      -57.64125
689.00000        5.91055        4.80401        5.81752      -57.65369
689.50000        4.89927        4.63505        5.87064      -59.45112
690.00000        4.84684        4.38357        6.03108      -60.53305
690.50000        4.79531        4.13210        6.26309      -62.32798
691.00000        4.74288        3.79812        6.49509      -64.47941
691.50000        4.69134        3.71166        6.72709      -66.98734
692.00000        4.63891        3.62519        6.95909      -68.42577
692.50000        5.11105        3.62123        7.19109      -69.50771
693.00000        5.59260        3.61727        7.46914      -70.23315
693.50000        6.07505        3.61252        7.70114      -70.60209
694.00000        6.55749        3.60856        7.67107      -71.32753
694.50000        6.85300        3.76961        7.24745      -70.98348
695.00000        6.40344        4.09567        6.82472      -69.56993
695.50000        5.95387        4.33922        6.40110      -66.73040
696.00000        5.50431        4.41776        6.13042      -64.24736
696.50000        5.05475        4.57881        5.85975      -61.05133
697.00000        4.51527        4.57485        5.61365      -59.99428
697.50000        4.06571        4.48839        5.73474      -61.07621
698.00000        3.78788        4.56693        5.85494      -62.15815
698.50000        3.76765        4.72798        5.97603      -62.88359
699.00000        3.74742        4.80653        6.09712      -65.03502
699.50000        3.72719        4.96758        6.21821      -65.40396
700.00000        3.86375        5.44529        6.46496      -65.36247
700.50000        3.84348        5.44133        6.49488      -66.08533
701.00000        3.82321        5.51988        6.52568      -66.45296
701.50000        3.80295        5.51592        6.55560      -66.82060
702.00000        3.78268        5.51196        6.58640      -68.25392
702.50000        3.76241        5.50800        6.61721      -68.97678
703.00000        3.90386        5.50404        6.64712      -69.69964
703.50000        4.15957        5.50008        6.67793      -70.06728
704.00000        4.41439        5.24860        6.70515      -70.07968
704.50000        4.67011        4.99713        6.72073      -69.73684
705.00000        4.92582        4.91067        6.73852      -68.68603
705.50000        5.18154        4.82420        6.75410      -67.27751
706.00000        5.43725        4.73774        6.76878      -65.86898
706.50000        5.56304        4.73378        6.78435      -64.46046
707.00000        5.68883        4.72982        6.79903      -63.40717
707.50000        5.81462        4.56085        6.81461      -62.35387
708.00000        5.93951        4.55689        6.83018      -62.36627
708.50000        6.06530        4.55293        6.84486      -62.02344
709.00000        6.00561        4.63147        6.79950      -61.68061
709.50000        5.70130        4.62751        6.50863      -60.62732
710.00000        5.41849        4.62355        6.21866      -58.50833
710.50000        5.13658        4.53709        5.92778      -57.09981
711.00000        5.09301        4.36812        5.63781      -56.04652
711.50000        5.40876        4.11664        5.34783      -55.34845
712.00000        5.72451        4.02939        5.18957      -55.00562
712.50000        6.03937        3.94292        5.12002      -55.37325
713.00000        6.35512        3.85646        5.05047      -55.74088
713.50000        6.67087        3.85250        4.98093      -56.10852
714.00000        6.91493        3.76603        4.94274      -56.12092
714.50000        6.87226        3.67957        4.92426      -56.84378
715.00000        6.82960        3.59311        4.90668      -56.85618
715.50000        6.78693        3.58915        4.88911      -57.22629
716.00000        6.74516        3.50268        4.87153      -57.23869
716.50000        6.70249        3.49872        4.84989      -57.25109
717.00000        6.65982        3.41226        4.83232      -56.90826
717.50000        6.60862        3.40830        4.81474      -56.92066
718.00000        6.56595        3.40434        4.79626      -56.93306
718.50000        6.52328        3.40038        4.77868      -56.59023
719.00000        6.48062        3.31391        4.76111      -56.24740
719.50000        6.43795        3.30995        4.74353      -56.61503
720.00000        6.39618        3.30599        4.72505      -56.62743
720.50000        6.35351        3.30203        4.70747      -57.35029
721.00000        6.31084        3.21557        4.68990      -57.71792
721.50000        6.26817        3.29411        4.67232      -57.01986
722.00000        6.14665        3.29015        4.65384      -56.67703
722.50000        6.00542        3.28619        4.63626      -55.62374
723.00000        5.86419        3.28223        4.61868      -55.63614
723.50000        5.72206        3.27827        4.60111      -56.35900
724.00000        5.58083        3.27431        4.58263      -57.08434
724.50000        5.43959        3.35286        4.56505      -57.45197
725.00000        5.31090        3.34890        4.54747      -58.53006
725.50000        5.18311        3.42744        4.56484      -58.54246
726.00000        5.05442        3.42348        4.60640      -58.91010
726.50000        4.92574        3.41952        4.64796      -59.63296
727.00000        4.79794        3.49806        4.68952      -60.35582
727.50000        4.66926        3.57661        4.73108      -60.36822
728.00000        4.59881        3.65515        4.77354      -60.38062
728.50000        4.56015        3.65119        4.81510      -60.03779
729.00000        4.52824        3.72974        4.86425      -59.69496
729.50000        4.49543        3.80828        4.90582      -59.70736
730.00000        4.46351        3.80432        4.94738      -60.43022
730.50000        4.43160        3.80036        5.08571      -61.15308
731.00000        4.39878        3.96141        5.28945      -63.29935
731.50000        4.36687        3.95745        5.49230      -65.08790
732.00000        4.33495        3.95349        5.69515      -65.45554
