~Version ---------------------------------------------------
VERS. 2.0 : CWLS LOG ASCII STANDARD - VERSION 2.0
WRAP. NO  : One line per depth step
DLM . SPACE : Column Data Section Delimiter
~Well ------------------------------------------------------
STRT.F          227 : START DEPTH
STOP.F       2033.0 : STOP DEPTH
STEP.F          0.5 : STEP
NULL.       -999.25 : NULL VALUE
COMP.                  WALSH & WATTS, INC : COMPANY
WELL.                          HYNDS A 10 : WELL
FLD .                           N. NOCONA : FIELD
CNTY.                            MONTAGUE : COUNTY
STAT.                               TEXAS : STATE
CTRY.                                 USA : COUNTRY
SEC .                                     : SECTION
TWP .                                     : TOWNSHIP
RGE .                                     : RANGE
LOC .  244' SE OF NO. 5A J.J. WALL SURVEY : LOCATION
EKB .F                    903.5 : ELEVATION KELLY BUSHING
EDF .F                          : ELEVATION DERRICK FLOOR
EGL .F                      897 : ELEVATION GROUND LEVEL
PDAT.                        GL : PERMANENT DATUM
EPD .                           : ELEVATION PERMANENT DATUM
APD .                         6 : ABOVE PERMANENT DATUM
LMF .                           : LOG MEASURED FROM
DMF .                           : DRILLING MEASURED FROM
API .            42337037830000 : API NUMBER
UWI .            42337037830000 : UWI NUMBER
DIGC.                     NthDS : DIGITIZING COMPANY
~Params ----------------------------------------------------
SRVC.              SCHLUMBERGER : LOGGING COMPANY
LOG .                       IEL : LOG
DATE.                1957-10-20 : RUN DATE
RUN .                         1 : RUN NUMBER
TDD .F                          : TOTAL DEPTH DRILLER
TDL .F                          : TOTAL DEPTH LOGGER
BOTL.F                     2039 : BOTTOM LOGGED INTERVAL
TOPL.F                          : TOP LOGGED INTERVAL
CSGS.IN                         : CASING SIZE
CSGD.F                      227 : CASING DRILLER
CSGL.F                      227 : CASING LOGGER
BS  .IN                    8.75 : BIT SIZE
MUD .                       GEL : MUD TYPE
MUDD.                       9.9 : MUD DENSITY
MUDV.                        50 : MUD VISCOSITY
PH  .                           : MUD PH
FL  .                           : FLUID LOSS
MUDS.                           : SOURCE OF SAMPLE
RM  .OHMM                   2.3 : MUD RESISTIVITY
RMT .DEGF                    60 : RM TEMPERATURE
RMF .OHMM                   .76 : MUD FILTRATE RESISTIVITY
RMFT.DEGF                    96 : RMF TEMPERATURE
RMC .OHMM                   1.7 : MUD CAKE RESISTIVITY
RMCT.DEGF                    96 : RMC TEMPERATURE
RMFS.                           : RMF SOURCE
RMCS.                           : RMC SOURCE
RMBH.OHMM                   1.4 : MUD RESISTIVITY AT BHT
BHT .DEGF                    96 : BOTTOM HOLE TEMPERATURE
TIMC.                           : TIME CIRCULATION STOPPED
TIML.                           : TIME LOGGER ON BOTTOM
TMAX.DEGF                       : MAXIMUM RECORDED TEMPERATURE
UNIT.                       785 : EQUIPMENT NUMBER
BASE.                        WF : BASE LOCATION
ENG .                     JONES : RECORDED BY
WIT .               BALCH & NIX : WITNESSED BY
~Curve Information -----------------------------------------
DEPT.F          :DEPTH
CILD.MMHO       :
ILD.OHMM        :
ROP.FT/HR       :
SN.OHMM         :
SP.MV           :
~ASCII ------------------------------------------------------
# ...
559.50000      274.39405        3.70558        -999.25        4.39640      -25.00002
560.00000      275.31273        3.69117        -999.25        4.10811      -24.27538
560.50000      278.02658        3.58811        -999.25        3.96396      -24.63770
561.00000      287.89769        3.44396        -999.25        4.00000      -25.90581
561.50000      299.55928        3.30342        -999.25        4.00000      -26.99277
562.00000      310.32563        3.15928        -999.25        3.78378      -27.53625
562.50000      319.30150        3.11928        -999.25        3.74775      -26.44929
563.00000      325.59164        3.09910        -999.25        3.81982      -24.09422
563.50000      330.09598        3.09910        -999.25        3.85586      -21.92031
564.00000      329.22417        3.13838        -999.25        3.89189      -19.20292
564.50000      322.98091        3.20396        -999.25        4.03604      -16.30437
565.00000      314.05192        3.29477        -999.25        4.21622      -15.94205
565.50000      305.12293        3.44901        -999.25        4.61261      -17.39132
566.00000      295.29870        3.57802        -999.25        5.11712      -21.01451
566.50000      283.68398        3.77658        -999.25        5.47748      -27.17393
567.00000      268.48829        3.99279        -999.25        5.62162      -31.70291
567.50000      247.92114        4.28324        -999.25        5.65766      -31.52175
568.00000      237.20167        4.48649        -999.25        5.83784      -31.52175
568.50000      233.64413        4.53153        -999.25        6.23423      -32.06523
569.00000      230.98184        4.82883        -999.25        7.20721      -32.86233
569.50000      222.94809        5.34631        -999.25        9.36937      -34.23915
570.00000      206.85716        6.13261        -999.25       11.02702      -38.04349
570.50000      185.39477        6.91892        -999.25       12.86486      -42.39132
571.00000      161.24665        8.42054        -999.25       14.12612      -47.46378
571.50000      140.67951        9.12901        -999.25       14.41441      -50.00001
572.00000      130.85528        9.08108        -999.25       13.87387      -51.08697
572.50000      131.77396        8.48288        -999.25       12.39639      -50.72465
573.00000      144.33548        7.58198        -999.25       10.59459      -48.00726
573.50000      159.57804        6.43603        -999.25        8.46847      -43.47827
574.00000      176.87072        5.51351        -999.25        6.45045      -39.34784
574.50000      200.58228        4.61261        -999.25        5.47748      -32.78987
575.00000      224.29384        4.15207        -999.25        4.75676      -28.62320
575.50000      252.74592        3.73225        -999.25        4.32432      -26.44929
576.00000      276.45748        3.47495        -999.25        4.14414      -27.98915
576.50000      299.38123        3.31135        -999.25        4.07207      -31.15944
577.00000      311.93807        3.16685        -999.25        4.00000      -32.42755
577.50000      321.81386        3.14414        -999.25        3.92793      -33.69567
578.00000      325.41827        3.18234        -999.25        3.92793      -35.32610
578.50000      321.86074        3.26126        -999.25        3.92793      -36.41306
579.00000      313.82699        3.34018        -999.25        4.00000      -36.59422
579.50000      304.89800        3.42018        -999.25        4.14414      -36.05074
580.00000      297.75950        3.50198        -999.25        4.21622      -34.96378
580.50000      291.51623        3.58378        -999.25        4.14414      -33.15219
581.00000      285.27297        3.68216        -999.25        4.18018      -30.61596
581.50000      277.23923        3.77333        -999.25        4.32432      -28.98552
582.00000      270.99596        3.90234        -999.25        4.36036      -29.16668
582.50000      264.75270        3.92793        -999.25        4.46847      -29.34784
583.00000      262.09041        3.92793        -999.25        4.57658      -29.16668
583.50000      260.32805        3.97585        -999.25        4.68468      -28.98552
584.00000      258.56100        4.03604        -999.25        4.79279      -28.98552
584.50000      253.21298        4.14703        -999.25        5.00901      -28.80436
585.00000      247.86496        4.28000        -999.25        5.29730      -28.26089
585.50000      242.51695        4.38450        -999.25        5.47748      -27.89857
586.00000      238.06417        4.48432        -999.25        5.51351      -28.98552
586.50000      234.50664        4.53333        -999.25        5.36937      -29.89132
587.00000      231.84435        4.56937        -999.25        5.22522      -30.43480
587.50000      229.18205        4.55495        -999.25        5.04504      -29.16668
588.00000      231.89122        4.42162        -999.25        4.76468      -26.63045
588.50000      240.87177        4.14054        -999.25        4.52757      -25.36234
589.00000      253.42861        3.94847        -999.25        4.49477      -25.00002
589.50000      263.29972        3.81982        -999.25        4.46847      -23.18842
590.00000      268.69461        3.88432        -999.25        4.46847      -21.01451
590.50000      267.82281        3.94847        -999.25        4.46847      -19.92755
591.00000      262.47479        4.00613        -999.25        4.46847      -20.47103
591.50000      258.91725        4.03604        -999.25        4.48865      -21.73915
592.00000      255.35972        4.06595        -999.25        4.53153      -23.91306
592.50000      253.59267        4.09009        -999.25        4.69369      -25.54349
593.00000      253.62080        4.10811        -999.25        4.73874      -27.17393
593.50000      252.74899        4.16829        -999.25        4.74486      -27.89857
594.00000      250.08670        4.22811        -999.25        4.68468      -28.80436
594.50000      247.42441        4.18450        -999.25        4.68468      -30.79712
595.00000      247.44785        4.07207        -999.25        4.62703      -32.06523
595.50000      253.73799        3.96396        -999.25        4.49261      -31.52175
596.00000      262.71385        3.85586        -999.25        4.36757      -28.33335
596.50000      268.10875        3.88685        -999.25        4.39171      -24.81886
597.00000      267.24163        3.97585        -999.25        4.47567      -23.36958
597.50000      261.89361        4.08108        -999.25        4.55964      -23.55074
598.00000      254.75510        4.14919        -999.25        4.72072      -25.54349
598.50000      251.19757        4.16216        -999.25        4.90090      -27.17393
599.00000      250.32577        4.17513        -999.25        5.08108      -28.26089
599.50000      250.34920        4.25225        -999.25        5.02955      -28.44204
600.00000      248.57747        4.37225        -999.25        4.94414      -29.52900
600.50000      242.62822        4.48036        -999.25        4.86486      -30.79712
601.00000      235.48185        4.56576        -999.25        4.93694      -30.61596
601.50000      229.23072        4.51171        -999.25        4.93694      -28.62320
602.00000      228.35110        4.43748        -999.25        4.84685      -28.07973
602.50000      232.84297        4.28324        -999.25        4.85441      -28.07973
603.00000      240.02372        4.30018        -999.25        5.00901      -28.44204
603.50000      241.82984        4.36036        -999.25        5.18919      -27.89857
604.00000      239.15972        4.48036        -999.25        5.35748      -28.44204
604.50000      233.80385        4.56613        -999.25        5.38126      -29.71016
605.00000      229.34322        4.54054        -999.25        5.23423      -30.07248
605.50000      227.56835        4.46342        -999.25        4.94522      -29.89132
606.00000      230.27285        4.34234        -999.25        4.64036      -29.52900
606.50000      236.55522        4.15315        -999.25        4.36036      -28.80436
