~Version ---------------------------------------------------
VERS. 2.0 : CWLS LOG ASCII STANDARD - VERSION 2.0
WRAP. NO  : One line per depth step
DLM . SPACE : Column Data Section Delimiter
~Well ------------------------------------------------------
STRT.F          100 : START DEPTH
STOP.F       1218.0 : STOP DEPTH
STEP.F          0.5 : STEP
NULL.       -999.25 : NULL VALUE
COMP.                       WALSH & WATTS : COMPANY
WELL.                          SALMON A 6 : WELL
FLD .                          OLD NOCONA : FIELD
CNTY.                            MONTAGUE : COUNTY
STAT.                               TEXAS : STATE
CTRY.                                 USA : COUNTRY
SEC .                                     : SECTION
TWP .                                     : TOWNSHIP
RGE .                                     : RANGE
LOC .                                     : LOCATION
EKB .F                          : ELEVATION KELLY BUSHING
EDF .F                      884 : ELEVATION DERRICK FLOOR
EGL .F                      878 : ELEVATION GROUND LEVEL
PDAT.                           : PERMANENT DATUM
EPD .                           : ELEVATION PERMANENT DATUM
APD .                       5.5 : ABOVE PERMANENT DATUM
LMF .                       KDB : LOG MEASURED FROM
DMF .                       KDB : DRILLING MEASURED FROM
API .            42337039770000 : API NUMBER
UWI .                           : UWI NUMBER
DIGC.                     NthDS : DIGITIZING COMPANY
~Params ----------------------------------------------------
SRVC.     THE ELGEN CORPORATION : LOGGING COMPANY
LOG .                        EL : LOG
DATE.                1954-12-19 : RUN DATE
RUN .                         1 : RUN NUMBER
TDD .F                     1217 : TOTAL DEPTH DRILLER
TDL .F                     1219 : TOTAL DEPTH LOGGER
BOTL.F                     1218 : BOTTOM LOGGED INTERVAL
TOPL.F                      100 : TOP LOGGED INTERVAL
CSGS.IN                         : CASING SIZE
CSGD.F                          : CASING DRILLER
CSGL.F                          : CASING LOGGER
BS  .IN                    8.75 : BIT SIZE
MUD .                       GEL : MUD TYPE
MUDD.                        10 : MUD DENSITY
MUDV.                        60 : MUD VISCOSITY
PH  .                           : MUD PH
FL  .                           : FLUID LOSS
MUDS.                           : SOURCE OF SAMPLE
RM  .OHMM                   2.4 : MUD RESISTIVITY
RMT .DEGF                    58 : RM TEMPERATURE
RMF .OHMM                       : MUD FILTRATE RESISTIVITY
RMFT.DEGF                       : RMF TEMPERATURE
RMC .OHMM                       : MUD CAKE RESISTIVITY
RMCT.DEGF                       : RMC TEMPERATURE
RMFS.                           : RMF SOURCE
RMCS.                           : RMC SOURCE
RMBH.OHMM                       : MUD RESISTIVITY AT BHT
BHT .DEGF                       : BOTTOM HOLE TEMPERATURE
TIMC.                           : TIME CIRCULATION STOPPED
TIML.                           : TIME LOGGER ON BOTTOM
TMAX.DEGF                       : MAXIMUM RECORDED TEMPERATURE
UNIT.                           : EQUIPMENT NUMBER
BASE.                           : BASE LOCATION
ENG .                 STONE-302 : RECORDED BY
WIT .                      TODD : WITNESSED BY
~Curve Information -----------------------------------------
DEPT.F          :DEPTH
LAT.OHMM        :
LN.OHMM         :
SN.OHMM         :
SP.MV           :
~ASCII ------------------------------------------------------
# ...
330.00000        6.32018        6.58315        6.68267      -62.38862
330.50000        6.20645        6.58423        6.57341      -61.67561
331.00000        6.09271        6.58531        6.46414      -61.67561
331.50000        5.97987        6.50388        6.35487      -61.31910
332.00000        5.86614        6.42245        6.24560      -61.31910
332.50000        5.90866        6.42353        6.13633      -61.67561
333.00000        5.95207        6.34210        6.32260      -62.03212
333.50000        6.00308        6.26067        6.54593      -62.38862
334.00000        6.04649        6.17925        6.73220      -62.74513
334.50000        6.41400        6.18033        6.91846      -63.10163
335.00000        6.86276        6.18141        7.10473      -63.45814
335.50000        7.31152        6.18249        7.29010      -63.81465
336.00000        7.76028        6.26607        7.47636      -64.17115
336.50000        8.20904        6.34966        7.66262      -64.52766
337.00000        8.65780        6.51576        7.84889      -64.52766
337.50000        8.92799        6.68185        8.03515      -65.24067
338.00000        8.93033        6.84795        8.14284      -65.95368
338.50000        8.93267        7.09655        8.24964      -66.31019
339.00000        8.93501        7.26287        8.35734      -66.66670
339.50000        8.77174        7.42896        8.48603      -66.66670
340.00000        8.35980        7.43004        8.59373      -66.66670
340.50000        7.94786        7.34861        8.70053      -66.66670
341.00000        7.78413        7.26719        8.83679      -65.95368
341.50000        7.78646        7.18576        9.01502      -65.59718
342.00000        7.78880        7.02182        9.19325      -65.59718
342.50000        7.79114        6.94039        9.37147      -65.24067
343.00000        8.26758        6.77646        9.54970      -65.24067
343.50000        8.74401        6.77754        9.72793      -65.95368
344.00000        9.22135        6.69611        9.90616      -66.66670
344.50000        9.58618        6.69719       10.25313      -67.73621
345.00000        9.92333        6.78078       10.64207      -69.16224
345.50000       10.26049        6.86437       11.10916      -70.58826
346.00000       10.14990        7.03046       11.49810      -72.37079
346.50000        9.84331        7.11405       11.88793      -74.86634
347.00000        9.53673        7.28015       12.27687      -77.36188
347.50000        9.23014        7.36373       12.31313      -79.14441
348.00000        8.92266        7.44732       12.35029      -79.85742
348.50000        8.56965        7.53091       12.38656      -80.57044
349.00000        8.18538        7.53199       12.42371      -81.28345
349.50000        7.80022        7.45056       12.45998      -81.63995
350.00000        7.37030        7.67992       12.46064      -81.99646
350.50000        7.05993        7.59929       12.48837      -81.28345
351.00000        6.67263        7.51867       12.52236      -80.92694
351.50000        6.45259        7.43804       12.45885      -81.28345
352.00000        6.48300        7.35741       12.39445      -81.28345
352.50000        6.51431        7.35848       12.33095      -80.92694
353.00000        6.54472        7.35955       12.26654      -80.57044
353.50000        6.57603        7.36061       12.20304      -80.21393
354.00000        6.60644        7.36168       12.13864      -80.57044
354.50000        6.63774        7.44445       12.07513      -80.21393
355.00000        6.66816        7.44552       12.01163      -80.57044
355.50000        6.69946        7.44659       11.96959      -81.28345
356.00000        6.72987        7.36596       11.94365      -81.99646
356.50000        6.76118        7.36703       11.91771      -82.35297
357.00000        6.79159        7.36810       11.89087      -82.70947
357.50000        6.82290        7.36917       11.86493      -82.70947
358.00000        6.85331        7.37024       11.83810      -82.70947
358.50000        6.88461        7.37131       11.81216      -82.35297
359.00000        6.91503        7.29068       11.78533      -82.35297
359.50000        6.94633        7.37345       11.75939      -81.63995
360.00000        6.97674        7.37452       11.73345      -81.28345
360.50000        7.03220        7.37559       11.74597      -80.57044
361.00000        7.08676        7.45836       11.81663      -80.57044
361.50000        7.14222        7.54112       11.88819      -80.92694
362.00000        7.19767        7.54219       11.95885      -80.92694
362.50000        7.25313        7.54326       12.03041      -80.92694
363.00000        7.30769        7.54433       12.10197      -81.28345
363.50000        7.36315        7.62710       12.17263      -80.92694
364.00000        7.41860        7.62817       12.24418      -80.57044
364.50000        7.47406        7.71094       12.31485      -80.21393
365.00000        7.52862        7.71201       12.14579      -79.85742
365.50000        7.58408        7.79478       11.81753      -79.85742
366.00000        7.63953        7.79585       11.48837      -79.14441
366.50000        7.69409        7.87861       11.15921      -78.43140
367.00000        7.74955        7.87968       10.83095      -77.71839
367.50000        7.80501        7.96245       10.50179      -76.64887
368.00000        7.86046        7.88182       10.17352      -75.57935
368.50000        8.14132        7.96459       10.24150      -73.79682
369.00000        8.47943        8.04736       10.40876      -70.94477
369.50000        8.81753        8.04843       10.57692      -69.16224
370.00000        9.15563        8.13120       10.74418      -67.37971
370.50000        9.49284        8.21397       10.91234      -66.66670
371.00000        9.83095        8.29673       11.18962      -67.02320
371.50000       10.16905        8.46120       11.46780      -67.73621
372.00000       10.23703        8.54397       11.74508      -68.80573
372.50000       10.11538        8.79014       12.02236      -69.87525
373.00000        9.97674        8.87291       12.30053      -70.94477
373.50000        9.76833        8.95567       12.53846      -72.01429
374.00000        9.56082        9.03844       12.61985      -73.08381
374.50000        9.35331        9.03951       12.70125      -73.79682
375.00000        9.14579        9.04058       12.78264      -74.15333
375.50000        8.93828        9.04165       12.86404      -74.15333
376.00000        8.88998        9.12442       12.94544      -74.15333
376.50000        8.94812        9.04379       13.02683      -73.44031
377.00000        9.00626        8.96316       12.99016      -73.08381
377.50000        9.06350        8.88253       12.87477      -72.72730
378.00000        9.12164        8.80190       12.75939      -72.37079
378.50000        9.17978        8.72127       12.64311      -72.01429
379.00000        9.23792        8.55894       12.52773      -72.01429
379.50000        9.29606        8.39661       12.41234      -72.72730
380.00000        9.35331        8.23429       12.17442      -73.08381
380.50000        9.41145        7.99026       11.75044      -73.08381
381.00000        9.46959        7.74623       11.32647      -72.37079
381.50000        9.65474        7.42050       10.90250      -71.30128
382.00000        9.87120        7.17648       10.47943      -70.58826
382.50000       10.08855        6.93245       10.05545      -69.51875
383.00000       10.30501        6.85182        9.63148      -68.44923
383.50000       10.52236        6.77119        9.20841      -67.37971
384.00000       10.73882        6.69056        8.94454      -66.31019
384.50000       10.93470        6.69163        8.72093      -65.24067
385.00000       11.04651        6.77440        8.49731      -64.17115
385.50000       10.90161        6.85717        8.31842      -64.88417
386.00000       10.58408        6.93993        8.31842      -65.24067
386.50000       10.26744        7.18610        8.31842      -64.88417
387.00000        9.95080        7.43227        8.32558      -64.17115
