~Version ---------------------------------------------------
VERS. 2.0 : CWLS LOG ASCII STANDARD - VERSION 2.0
WRAP. NO  : One line per depth step
DLM . SPACE : Column Data Section Delimiter
~Well ------------------------------------------------------
STRT.F          100 : START DEPTH
STOP.F       1218.0 : STOP DEPTH
STEP.F          0.5 : STEP
NULL.       -999.25 : NULL VALUE
COMP.                       WALSH & WATTS : COMPANY
WELL.                          SALMON A 6 : WELL
FLD .                          OLD NOCONA : FIELD
CNTY.                            MONTAGUE : COUNTY
STAT.                               TEXAS : STATE
CTRY.                                 USA : COUNTRY
SEC .                                     : SECTION
TWP .                                     : TOWNSHIP
RGE .                                     : RANGE
LOC .                                     : LOCATION
EKB .F                          : ELEVATION KELLY BUSHING
EDF .F                      884 : ELEVATION DERRICK FLOOR
EGL .F                      878 : ELEVATION GROUND LEVEL
PDAT.                           : PERMANENT DATUM
EPD .                           : ELEVATION PERMANENT DATUM
APD .                       5.5 : ABOVE PERMANENT DATUM
LMF .                       KDB : LOG MEASURED FROM
DMF .                       KDB : DRILLING MEASURED FROM
API .            42337039770000 : API NUMBER
UWI .                           : UWI NUMBER
DIGC.                     NthDS : DIGITIZING COMPANY
~Params ----------------------------------------------------
SRVC.     THE ELGEN CORPORATION : LOGGING COMPANY
LOG .                        EL : LOG
DATE.                1954-12-19 : RUN DATE
RUN .                         1 : RUN NUMBER
TDD .F                     1217 : TOTAL DEPTH DRILLER
TDL .F                     1219 : TOTAL DEPTH LOGGER
BOTL.F                     1218 : BOTTOM LOGGED INTERVAL
TOPL.F                      100 : TOP LOGGED INTERVAL
CSGS.IN                         : CASING SIZE
CSGD.F                          : CASING DRILLER
CSGL.F                          : CASING LOGGER
BS  .IN                    8.75 : BIT SIZE
MUD .                       GEL : MUD TYPE
MUDD.                        10 : MUD DENSITY
MUDV.                        60 : MUD VISCOSITY
PH  .                           : MUD PH
FL  .                           : FLUID LOSS
MUDS.                           : SOURCE OF SAMPLE
RM  .OHMM                   2.4 : MUD RESISTIVITY
RMT .DEGF                    58 : RM TEMPERATURE
RMF .OHMM                       : MUD FILTRATE RESISTIVITY
RMFT.DEGF                       : RMF TEMPERATURE
RMC .OHMM                       : MUD CAKE RESISTIVITY
RMCT.DEGF                       : RMC TEMPERATURE
RMFS.                           : RMF SOURCE
RMCS.                           : RMC SOURCE
RMBH.OHMM                       : MUD RESISTIVITY AT BHT
BHT .DEGF                       : BOTTOM HOLE TEMPERATURE
TIMC.                           : TIME CIRCULATION STOPPED
TIML.                           : TIME LOGGER ON BOTTOM
TMAX.DEGF                       : MAXIMUM RECORDED TEMPERATURE
UNIT.                           : EQUIPMENT NUMBER
BASE.                           : BASE LOCATION
ENG .                 STONE-302 : RECORDED BY
WIT .                      TODD : WITNESSED BY
~Curve Information -----------------------------------------
DEPT.F          :DEPTH
LAT.OHMM        :
LN.OHMM         :
SN.OHMM         :
SP.MV           :
~ASCII ------------------------------------------------------
# ...
905.00000        3.87387        2.53200        6.53512      -98.18953
905.50000        4.20754        2.52948        5.90554      -92.22655
906.00000        4.54121        2.52696        5.29658      -87.06847
906.50000        4.87488        2.44194        4.71807      -80.30059
907.00000        5.20855        2.52192        4.13957      -75.82088
907.50000        5.34061        2.51940        3.86214      -71.77350
908.00000        5.33827        2.43438        3.78542      -69.44136
908.50000        5.33592        2.43186        3.70781      -70.11091
909.00000        5.33357        2.34683        3.63109      -70.52035
909.50000        5.33123        2.34431        3.55437      -70.53262
910.00000        5.32888        2.50630        3.59504      -70.54489
910.50000        5.32654        2.42127        3.67914      -70.55716
911.00000        5.32372        2.50126        3.74937      -70.56943
911.50000        5.20847        2.49874        3.81960      -69.87873
912.00000        5.01706        2.57872        3.88984      -68.83654
912.50000        4.82655        2.65871        3.96007      -67.44287
913.00000        4.63514        2.73870        4.03120      -66.40069
913.50000        4.44462        2.81868        4.07276      -66.06147
914.00000        4.25321        2.81616        4.09640      -67.48213
914.50000        4.06269        2.81364        4.12004      -68.19737
915.00000        3.87128        2.81112        4.14368      -68.20964
915.50000        3.67987        2.80860        4.16732      -68.22191
916.00000        3.48936        2.88859        4.19096      -67.53121
916.50000        3.29795        2.88607        4.21460      -67.89497
917.00000        3.14238        2.88355        4.23824      -68.25872
917.50000        3.12749        2.88103        4.26188      -67.91950
918.00000        3.11259        2.79600        4.28552      -67.93177
918.50000        3.09365        2.71047        4.30916      -68.99850
919.00000        3.07876        2.62545        4.33770      -69.36225
919.50000        3.06387        2.62293        4.36134      -70.42898
920.00000        3.04898        2.53790        4.38498      -71.14422
920.50000        3.05918        2.53538        4.29034      -70.45352
921.00000        3.10791        2.45035        4.19660      -69.05985
921.50000        3.15664        2.44783        4.10196      -68.01766
922.00000        3.20536        2.36281        4.00822      -67.32696
922.50000        3.25409        2.36029        3.91358      -68.04465
923.00000        3.30372        2.27526        3.81984      -69.81435
923.50000        3.35245        2.27274        3.72520      -70.17810
924.00000        3.42447        2.18771        3.64669      -69.13592
924.50000        3.53144        2.10269        3.62822      -67.74224
925.00000        3.63842        1.93515        3.61064      -65.29412
925.50000        3.74539        1.93263        3.59306      -62.49450
926.00000        3.85236        1.84761        3.57548      -61.45232
926.50000        3.95933        1.76208        3.55701      -61.46459
927.00000        4.06541        1.75955        3.53627      -61.82834
927.50000        4.19431        1.83954        3.51780      -62.89507
928.00000        4.32099        1.83702        3.50022      -63.96179
928.50000        4.47635        1.91701        3.48264      -63.62258
929.00000        4.63261        1.91449        3.46506      -63.63485
929.50000        4.78796        1.91197        3.44659      -63.99860
930.00000        4.70945        1.99195        3.53474      -65.06532
930.50000        4.63094        1.90693        3.64798      -66.13205
931.00000        4.55244        1.82190        3.76212      -66.14677
931.50000        4.47393        1.73687        3.87626      -65.45607
932.00000        4.39542        1.65185        3.98951      -65.81983
932.50000        4.31780        1.56682        4.00329      -65.83210
933.00000        4.23929        1.56430        3.86743      -65.84437
933.50000        4.16078        1.56178        3.73247      -65.50515
934.00000        4.08227        1.64177        3.59662      -66.57187
934.50000        4.00376        1.63874        3.46076      -69.39603
935.00000        3.84103        1.63622        3.29755      -73.21488
935.50000        3.49323        1.63370        3.16170      -79.96512
936.00000        3.20415        1.71369        3.02584      -92.63331
936.50000        2.91418        1.62866        2.88998     -102.08999
937.00000        2.62510        1.62614        2.78101     -107.15661
937.50000        2.33512        1.62362        2.77866     -109.54141
938.00000        2.04604        1.62110        2.77632     -108.49922
938.50000        1.75606        1.61858        2.77397     -106.05110
939.00000        1.70444        1.61606        2.77163     -103.60297
939.50000        1.71284        1.53104        2.81767     -103.96672
940.00000        1.72125        1.44601        2.89507     -107.49384
940.50000        1.72876        1.44349        2.97247     -111.37490
941.00000        1.73717        1.27596        3.04987     -112.79311
941.50000        1.74468        1.27344        3.12817     -114.91430
942.00000        1.75308        1.18841        3.20557     -115.98102
942.50000        1.76149        1.18539        3.37258     -116.69626
943.00000        1.87247        1.18287        3.53959     -116.00556
943.50000        2.13356        1.18034        3.70749     -114.61189
944.00000        2.39466        1.17782        3.90808     -112.86673
944.50000        2.65575        1.17530        4.07508     -111.12157
945.00000        2.91684        1.25529        4.24209     -109.37642
945.50000        3.17793        1.41778        4.40910     -109.03720
946.00000        3.43902        1.58028        4.33865     -109.40096
946.50000        3.35872        1.74277        4.20817     -107.65580
947.00000        3.04993        1.90526        4.07769     -103.80173
947.50000        2.74113        1.90274        3.94721     -100.29915
948.00000        2.43144        1.90022        3.81673      -96.44508
948.50000        2.43985        1.89770        3.68625      -91.53656
949.00000        2.52711        1.97769        3.55666      -85.92506
949.50000        2.61437        1.89266        3.42618      -79.61060
950.00000        2.76477        1.98016        3.41826      -73.68242
950.50000        2.85219        1.97764        3.43207      -71.94032
951.00000        2.93960        2.05763        3.44678      -70.19823
951.50000        3.04450        1.97210        3.46460      -68.45613
952.00000        3.13192        2.13459        3.47931      -67.76664
952.50000        3.21933        2.13207        3.49401      -68.12976
953.00000        3.12273        2.12955        3.50872      -69.19461
953.50000        3.02523        2.20954        3.52253      -70.96120
954.00000        2.92862        2.28952        3.53723      -71.32432
954.50000        2.83202        2.28700        3.55194      -69.93309
955.00000        2.73542        2.36699        3.56664      -68.19100
955.50000        2.63791        2.36447        3.58045      -66.44890
956.00000        2.54131        2.36195        3.59516      -65.40855
956.50000        2.45279        2.35943        3.60896      -64.71906
957.00000        2.37503        2.43942        3.62277      -64.02957
957.50000        2.29818        2.43690        3.63658      -62.98921
958.00000        2.22132        2.43438        3.65128      -61.59798
958.50000        2.12874        2.43186        3.66509      -60.90849
959.00000        2.05098        2.42934        3.68202      -60.21900
959.50000        1.97413        2.42682        3.69583      -60.23125
960.00000        1.96280        2.42430        3.71053      -59.89263
960.50000        2.05022        2.42178        3.72434      -58.85227
961.00000        2.13763        2.41926        3.73815      -57.81191
961.50000        2.22505        2.33423        3.75196      -57.12243
962.00000        2.31246        2.33120        3.76666      -57.13467
