~Version ---------------------------------------------------
VERS. 2.0 : CWLS LOG ASCII STANDARD - VERSION 2.0
WRAP. NO  : One line per depth step
DLM . SPACE : Column Data Section Delimiter
~Well ------------------------------------------------------
STRT.F          500 : START DEPTH
STOP.F       2022.5 : STOP DEPTH
STEP.F          0.5 : STEP
NULL.       -999.25 : NULL VALUE
COMP.                 WALSH & WATTS, INC. : COMPANY
WELL.                          HYNDS A 10 : WELL
FLD .                           N. NOCONA : FIELD
CNTY.                            MONTAGUE : COUNTY
STAT.                               TEXAS : STATE
CTRY.                                 USA : COUNTRY
SEC .                                     : SECTION
TWP .                                     : TOWNSHIP
RGE .                                     : RANGE
LOC .  244' SE OF NO. 5A J.J. WALL SURVEY : LOCATION
EKB .F                    903.5 : ELEVATION KELLY BUSHING
EDF .F                          : ELEVATION DERRICK FLOOR
EGL .F                      897 : ELEVATION GROUND LEVEL
PDAT.                        GL : PERMANENT DATUM
EPD .                           : ELEVATION PERMANENT DATUM
APD .                         6 : ABOVE PERMANENT DATUM
LMF .                           : LOG MEASURED FROM
DMF .                           : DRILLING MEASURED FROM
API .            42337037830000 : API NUMBER
UWI .            42337037830000 : UWI NUMBER
DIGC.                     NthDS : DIGITIZING COMPANY
~Params ----------------------------------------------------
SRVC.                LANE WELLS : LOGGING COMPANY
LOG .                       GRN : LOG
DATE.                1957-11-30 : RUN DATE
RUN .                         1 : RUN NUMBER
TDD .F                     2039 : TOTAL DEPTH DRILLER
TDL .F                     2015 : TOTAL DEPTH LOGGER
BOTL.F                     2023 : BOTTOM LOGGED INTERVAL
TOPL.F                      500 : TOP LOGGED INTERVAL
CSGS.IN                     5.5 : CASING SIZE
CSGD.F                     2038 : CASING DRILLER
CSGL.F                          : CASING LOGGER
BS  .IN                    8.75 : BIT SIZE
MUD .                     WATER : MUD TYPE
MUDD.                           : MUD DENSITY
MUDV.                           : MUD VISCOSITY
PH  .                           : MUD PH
FL  .                           : FLUID LOSS
MUDS.                           : SOURCE OF SAMPLE
RM  .OHMM                       : MUD RESISTIVITY
RMT .DEGF                       : RM TEMPERATURE
RMF .OHMM                       : MUD FILTRATE RESISTIVITY
RMFT.DEGF                       : RMF TEMPERATURE
RMC .OHMM                       : MUD CAKE RESISTIVITY
RMCT.DEGF                       : RMC TEMPERATURE
RMFS.                           : RMF SOURCE
RMCS.                           : RMC SOURCE
RMBH.OHMM                       : MUD RESISTIVITY AT BHT
BHT .DEGF                       : BOTTOM HOLE TEMPERATURE
TIMC.                           : TIME CIRCULATION STOPPED
TIML.                           : TIME LOGGER ON BOTTOM
TMAX.DEGF                       : MAXIMUM RECORDED TEMPERATURE
UNIT.                           : EQUIPMENT NUMBER
BASE.                           : BASE LOCATION
ENG .                   ROBERTS : RECORDED BY
WIT .                       NIX : WITNESSED BY
~Curve Information -----------------------------------------
DEPT.F          :DEPTH
GRN.GAPI        :
NEUT.API        :
~ASCII ------------------------------------------------------
# ...
1294.00000       30.59725     1986.74497
1294.50000       31.93446     1943.03793
1295.00000       31.45341     2009.94569
1295.50000       31.93258     2071.42851
1296.00000       32.90180     2113.01982
1296.50000       33.87102     2162.44116
1297.00000       33.78509     2178.64369
1297.50000       33.12140     2171.48275
1298.00000       32.21178     2192.58582
1298.50000       32.90614     2201.62741
1299.00000       32.09327     2185.04513
1299.50000       31.52904     2194.03247
1300.00000       28.75237     2209.40318
1300.50000       29.34999     2203.16162
1301.00000       30.52626     2194.12820
1301.50000       31.46745     2208.94301
1302.00000       30.32275     2207.49766
1302.50000       30.11312     2224.48050
1303.00000       29.43045     2246.16071
1303.50000       28.27671     2265.13090
1304.00000       28.39783     2269.64761
1304.50000       29.30285     2267.84093
1305.00000       29.66538     2217.25376
1305.50000       29.34076     2213.04418
1306.00000       30.31811     2188.65394
1306.50000       31.52151     2199.18691
1307.00000       31.47717     2177.25376
1307.50000       32.12361     2180.79487
1308.00000       31.97619     2201.31880
1308.50000       32.29369     2210.02702
1309.00000       31.62277     2208.22034
1309.50000       29.62183     2217.25376
1310.00000       30.61727     2209.43082
1310.50000       31.43821     2221.58980
1311.00000       32.16241     2212.86352
1311.50000       33.32964     2227.06406
1312.00000       32.50682     2227.19052
1312.50000       31.52577     2213.64039
1313.00000       33.07636     2209.30435
1313.50000       33.38736     2204.60697
1314.00000       34.52475     2181.26460
1314.50000       34.92633     2157.94031
1315.00000       34.72377     2164.85991
1315.50000       35.79787     2197.38023
1316.00000       34.56728     2222.67381
1316.50000       32.35296     2258.80750
1317.00000       29.86739     2280.48772
1317.50000       29.38002     2257.90416
1318.00000       28.64852     2265.87164
1318.50000       28.01648     2281.48139
1319.00000       27.72078     2279.58438
1319.50000       28.72617     2251.58077
1320.00000       29.83643     2199.96379
1320.50000       30.91325     2196.78402
1321.00000       31.86366     2182.92675
1321.50000       31.86452     2199.18691
1322.00000       29.86359     2215.44707
1322.50000       28.41238     2204.01076
1323.00000       28.69444     2192.21311
1323.50000       29.88699     2211.58077
1324.00000       30.37068     2210.74970
1324.50000       29.79017     2236.67562
1325.00000       30.01708     2243.45069
1325.50000       29.21957     2236.04328
1326.00000       29.72044     2188.09387
1326.50000       30.77013     2158.15711
1327.00000       30.59559     2168.47328
1327.50000       30.21779     2139.76506
1328.00000       31.52246     2090.58711
1328.50000       33.00253     2098.01258
1329.00000       33.10737     2143.17969
1329.50000       32.60191     2178.10291
1330.00000       33.88035     2145.34772
1330.50000       33.48520     2144.20950
1331.00000       34.25008     2168.09387
1331.50000       34.86578     2191.96018
1332.00000       33.85399     2154.01980
1332.50000       33.57909     2192.61058
1333.00000       32.28249     2231.21943
1333.50000       31.41554     2242.54734
1334.00000       30.54842     2229.90055
1334.50000       30.24368     2190.15349
1335.00000       30.81959     2173.29712
1335.50000       31.63058     2138.35585
1336.00000       32.79420     2132.33959
1336.50000       32.16216     2151.30977
1337.00000       31.33120     2160.84907
1337.50000       31.56715     2205.00444
1338.00000       32.56259     2209.12368
1338.50000       33.34103     2181.31880
1339.00000       32.65745     2152.21312
1339.50000       31.83554     2145.88972
1340.00000       33.43423     2123.30616
1340.50000       35.57523     2127.28087
1341.00000       36.14843     2113.18873
1341.50000       34.59958     2119.16886
1342.00000       35.15560     2121.86082
1342.50000       34.61397     2108.85269
1343.00000       35.97107     2083.10743
1343.50000       35.15820     2111.67112
1344.00000       34.02887     2155.82649
1344.50000       34.60750     2135.17608
1345.00000       35.61288     2128.72622
1345.50000       34.80018     2156.60336
1346.00000       32.99274     2146.79306
1346.50000       34.15635     2107.04600
1347.00000       33.94384     2117.88611
1347.50000       33.38684     2099.81926
1348.00000       35.51519     2040.19868
1348.50000       36.88495     2043.21584
1349.00000       37.69956     2052.84547
1349.50000       37.76462     2070.91231
1350.00000       37.77134     2070.00897
1350.50000       38.13839     2073.24294
1351.00000       37.39424     2070.00897
1351.50000       35.64664     2069.30436
1352.00000       35.86270     2083.36037
1352.50000       36.49647     2081.53562
1353.00000       36.03622     2069.10563
1353.50000       35.85626     2086.05233
1354.00000       36.71608     2105.83552
1354.50000       35.92129     2129.93670
1355.00000       33.28201     2135.50128
1355.50000       32.64997     2095.12189
1356.00000       33.73583     2107.04600
1356.50000       32.72404     2105.96199
1357.00000       31.47717     2099.81926
1357.50000       32.42740     2130.67744
1358.00000       33.37764     2156.38656
1358.50000       32.77561     2173.44166
1359.00000       33.83163     2154.01980
1359.50000       33.38041     2138.21131
1360.00000       33.21853     2059.16886
1360.50000       32.83966     2014.90509
1361.00000       34.16240     2080.59614
1361.50000       35.48424     2154.01980
1362.00000       36.03665     2190.15349
1362.50000       35.29701     2199.18691
1363.00000       35.10439     2160.03606
1363.50000       34.74359     2121.49948
1364.00000       36.16868     2079.94574
1364.50000       36.10174     2100.72261
1365.00000       34.65596     2125.11285
1365.50000       32.44164     2144.98638
1366.00000       33.70833     2122.40282
1366.50000       35.49852     2118.78945
1367.00000       37.43609     2143.63136
1367.50000       37.40260     2139.92766
1368.00000       38.63946     2128.72622
1368.50000       38.91157     2099.81926
1369.00000       38.05349     2081.75242
1369.50000       36.58510     2090.26190
1370.00000       35.64112     2104.33598
1370.50000       35.76151     2101.62595
1371.00000       35.64846     2121.49948
1371.50000       34.93866     2137.75964
1372.00000       35.39161     2155.23028
1372.50000       35.19356     2130.08123
1373.00000       34.83276     2096.20590
1373.50000       35.39421     2117.65124
1374.00000       36.46922     2118.48232
1374.50000       36.27027     2132.33959
1375.00000       34.92484     2130.53290
1375.50000       36.63366     2133.24293
1376.00000       36.79999     2113.36940
1376.50000       34.49526     2111.25558
1377.00000       35.21963     2096.20590
1377.50000       36.16986     2064.76958
1378.00000       35.37597     2068.32875
1378.50000       33.80542     2083.55910
1379.00000       32.14896     2105.96199
1379.50000       31.67515     2107.04600
1380.00000       32.97620     2119.33146
1380.50000       33.05573     2136.94663
1381.00000       32.69493     2154.56181
1381.50000       32.56922     2172.17698
1382.00000       32.57641     2152.21312
1382.50000       33.66227     2154.01980
1383.00000       33.60256     2108.25648
1383.50000       32.97069     2123.30616
1384.00000       34.17680     2144.39017
1384.50000       34.05742     2161.69821
1385.00000       33.80964     2160.88520
1385.50000       34.69206     2145.34772
1386.00000       35.14501     2108.49135
1386.50000       34.79687     2078.13905
1387.00000       34.66844     2063.68557
1387.50000       36.34924     2074.52568
1388.00000       36.73075     2085.36579
1388.50000       36.32475     2087.17247
1389.00000       35.61043     2092.59253
1389.50000       34.18110     2096.20590
1390.00000       34.65484     2081.75242
1390.50000       35.78590     2067.29894
1391.00000       35.01824     2069.10563
1391.50000       34.93502     2069.10563
