~Version ---------------------------------------------------
VERS. 2.0 : CWLS LOG ASCII STANDARD - VERSION 2.0
WRAP. NO  : One line per depth step
DLM . SPACE : Column Data Section Delimiter
~Well ------------------------------------------------------
STRT.F          100 : START DEPTH
STOP.F       1786.5 : STOP DEPTH
STEP.F          0.5 : STEP
NULL.       -999.25 : NULL VALUE
COMP.                 WALSH & WATTS, INC. : COMPANY
WELL.                         SALMON E 41 : WELL
FLD .                        NORTH NOCONA : FIELD
CNTY.                            MONTAGUE : COUNTY
STAT.                               TEXAS : STATE
CTRY.                                 USA : COUNTRY
SEC .                                     : SECTION
TWP .                                     : TOWNSHIP
RGE .                                     : RANGE
LOC . 300' N OF NO. 40
150' W OF EL & 385' E OF NO. 87
F. ROBERTSON SURVEY : LOCATION
EKB .F                          : ELEVATION KELLY BUSHING
EDF .F                          : ELEVATION DERRICK FLOOR
EGL .F                      878 : ELEVATION GROUND LEVEL
PDAT.              GROUND LEVEL : PERMANENT DATUM
EPD .                       878 : ELEVATION PERMANENT DATUM
APD .                           : ABOVE PERMANENT DATUM
LMF .                        KB : LOG MEASURED FROM
DMF .                        KB : DRILLING MEASURED FROM
API .            42337037790000 : API NUMBER
UWI .            42337037790000 : UWI NUMBER
DIGC.                     NthDS : DIGITIZING COMPANY
~Params ----------------------------------------------------
SRVC.                LANE WELLS : LOGGING COMPANY
LOG .                       IEL : LOG
DATE.                1965-12-01 : RUN DATE
RUN .                         1 : RUN NUMBER
TDD .F                     1790 : TOTAL DEPTH DRILLER
TDL .F                     1791 : TOTAL DEPTH LOGGER
BOTL.F                     1787 : BOTTOM LOGGED INTERVAL
TOPL.F                      100 : TOP LOGGED INTERVAL
CSGS.IN                         : CASING SIZE
CSGD.F                          : CASING DRILLER
CSGL.F                          : CASING LOGGER
BS  .IN                       9 : BIT SIZE
MUD .                       GEL : MUD TYPE
MUDD.                        10 : MUD DENSITY
MUDV.                        80 : MUD VISCOSITY
PH  .                       9.0 : MUD PH
FL  .                       6.8 : FLUID LOSS
MUDS.                       PIT : SOURCE OF SAMPLE
RM  .OHMM                  1.95 : MUD RESISTIVITY
RMT .DEGF                    74 : RM TEMPERATURE
RMF .OHMM                   1.5 : MUD FILTRATE RESISTIVITY
RMFT.DEGF                    74 : RMF TEMPERATURE
RMC .OHMM                   2.3 : MUD CAKE RESISTIVITY
RMCT.DEGF                    74 : RMC TEMPERATURE
RMFS.                  MEASURED : RMF SOURCE
RMCS.                           : RMC SOURCE
RMBH.OHMM                   1.5 : MUD RESISTIVITY AT BHT
BHT .DEGF                    97 : BOTTOM HOLE TEMPERATURE
TIMC.                           : TIME CIRCULATION STOPPED
TIML.                           : TIME LOGGER ON BOTTOM
TMAX.DEGF                    97 : MAXIMUM RECORDED TEMPERATURE
UNIT.                    L-5172 : EQUIPMENT NUMBER
BASE.                      W.F. : BASE LOCATION
ENG .             ADAMS & BAKER : RECORDED BY
WIT .                   MR. NIX : WITNESSED BY
~Curve Information -----------------------------------------
DEPT.F          :DEPTH
CILD.MMHO       :
ILD.OHMM        :
ROP.FT/HR       :
SN.OHMM         :
SP.MV           :
~ASCII ------------------------------------------------------
# ...
670.00000      139.79654        7.72195        -999.25        9.25149      -32.91592
670.50000      139.76707        7.68361        -999.25        9.33235      -33.20649
671.00000      139.73761        7.68479        -999.25        9.37337      -34.09705
671.50000      140.69528        7.60645        -999.25        9.25503      -34.68761
672.00000      142.65188        7.52810        -999.25        9.01718      -34.97818
672.50000      144.60848        7.48952        -999.25        8.85900      -34.96875
673.00000      146.56508        7.37142        -999.25        8.70082      -34.65933
673.50000      150.50774        7.25332        -999.25        8.54264      -34.34992
674.00000      154.45040        7.01593        -999.25        8.38447      -33.74050
674.50000      157.40002        6.85807        -999.25        8.18645      -33.73108
675.00000      161.34268        6.70021        -999.25        7.98843      -34.02165
675.50000      165.28534        6.54234        -999.25        7.75057      -34.01222
676.00000      169.22801        6.30496        -999.25        7.47288      -33.70092
676.50000      173.17067        6.22662        -999.25        7.19518      -33.69149
677.00000      178.10636        6.02899        -999.25        6.99716      -33.68207
677.50000      184.03508        5.83137        -999.25        6.75930      -33.67265
678.00000      188.97077        5.63375        -999.25        6.56129      -33.36323
678.50000      191.92040        5.51564        -999.25        6.32343      -33.05381
679.00000      195.85717        5.39754        -999.25        6.20509      -32.74439
679.50000      197.81376        5.31920        -999.25        6.00731      -32.43497
680.00000      197.78430        5.20110        -999.25        5.88897      -31.82556
680.50000      195.76877        5.24227        -999.25        5.89016      -31.81613
681.00000      192.76022        5.32297        -999.25        5.97102      -31.80671
681.50000      186.77257        5.40368        -999.25        6.17140      -31.79728
682.00000      180.78491        5.76270        -999.25        6.37178      -31.78786
682.50000      175.79030        5.80364        -999.25        6.65184      -31.47844
683.00000      171.78871        6.04339        -999.25        6.85222      -31.76901
683.50000      165.79516        6.20361        -999.25        7.09245      -31.75958
684.00000      162.78661        6.44335        -999.25        7.25299      -31.45017
684.50000      161.76411        6.48429        -999.25        7.41353      -31.14075
685.00000      162.72768        6.56499        -999.25        7.53447      -30.83133
685.50000      162.69821        6.52641        -999.25        7.57549      -30.82002
686.00000      163.66178        6.44807        -999.25        7.57667      -31.11059
686.50000      163.63232        6.44949        -999.25        7.57785      -31.40116
687.00000      164.59588        6.45067        -999.25        7.53920      -31.39173
687.50000      164.56642        6.41209        -999.25        7.62006      -31.68230
688.00000      164.53696        6.33375        -999.25        7.66108      -31.37288
688.50000      163.51446        6.37469        -999.25        7.66226      -31.66345
689.00000      162.48607        6.45539        -999.25        7.58376      -31.35403
689.50000      162.45661        6.45657        -999.25        7.54511      -31.04462
690.00000      160.44108        6.53727        -999.25        7.62597      -30.73520
690.50000      159.41859        6.53845        -999.25        7.78651      -30.72577
691.00000      158.39609        6.61915        -999.25        7.90721      -31.01634
691.50000      157.37360        6.66009        -999.25        7.94823      -31.60690
692.00000      157.34413        6.74079        -999.25        8.02933      -32.19747
692.50000      158.30770        6.74197        -999.25        8.07035      -32.78803
693.00000      159.27127        6.74339        -999.25        8.11138      -33.07860
693.50000      161.22786        6.66504        -999.25        8.11256      -32.46919
694.00000      164.17749        6.54694        -999.25        8.07390      -32.15977
694.50000      168.12015        6.42884        -999.25        8.03524      -32.15034
695.00000      174.04298        6.27098        -999.25        7.95674      -32.44091
695.50000      178.97867        6.07335        -999.25        7.71889      -32.12961
696.00000      185.90043        5.95525        -999.25        7.40135      -31.82019
696.50000      195.80127        5.63834        -999.25        7.04397      -32.11076
697.00000      207.68818        5.40096        -999.25        6.48740      -32.40133
697.50000      218.58206        5.00453        -999.25        5.81130      -32.99189
698.00000      226.49684        4.80691        -999.25        5.61328      -33.88245
698.50000      233.41860        4.52976        -999.25        5.81366      -34.47301
699.00000      240.34035        4.45142        -999.25        6.05388      -35.36357
699.50000      245.27604        4.33332        -999.25        6.21443      -36.25413
700.00000      246.01568        4.18343        -999.25        6.37462      -37.72115
700.50000      246.97829        4.14477        -999.25        6.93380      -39.50812
701.00000      244.96476        4.10611        -999.25        7.45290      -43.39085
701.50000      239.97510        4.18697        -999.25        7.73296      -46.67479
702.00000      233.99339        4.26784        -999.25        7.57479      -48.46176
702.50000      228.01168        4.42862        -999.25        7.17757      -48.45235
703.00000      224.01406        4.50948        -999.25        6.62099      -46.34718
703.50000      222.00053        4.59034        -999.25        6.22378      -43.64321
704.00000      221.97110        4.63136        -999.25        6.06560      -39.44039
704.50000      222.92782        4.63254        -999.25        5.94726      -37.33522
705.00000      225.87452        4.59389        -999.25        5.82892      -35.23005
705.50000      227.82918        4.55523        -999.25        5.63091      -34.62185
706.00000      230.77588        4.47673        -999.25        5.35321      -34.91184
706.50000      232.73054        4.43807        -999.25        5.27471      -35.50123
707.00000      234.68520        4.39941        -999.25        5.23605      -36.39001
707.50000      234.65576        4.36076        -999.25        5.23723      -36.38060
708.00000      231.65019        4.36194        -999.25        5.19881      -36.67059
708.50000      227.65257        4.44304        -999.25        5.23984      -37.25809
709.00000      220.67881        4.52390        -999.25        5.36054      -36.64990
709.50000      215.68915        4.68444        -999.25        5.44140      -36.34110
710.00000      210.69949        4.80514        -999.25        5.52226      -36.03229
710.50000      206.70187        4.96568        -999.25        5.64296      -35.42410
711.00000      200.72016        5.04655        -999.25        5.80350      -35.41469
711.50000      196.72254        5.12741        -999.25        6.00389      -36.00408
712.00000      192.72492        5.28795        -999.25        6.20427      -36.29407
712.50000      189.71935        5.36881        -999.25        6.28513      -36.58406
713.00000      187.70582        5.48951        -999.25        6.48575      -36.57465
713.50000      189.66048        5.57038        -999.25        6.60645      -36.86276
714.00000      194.59127        5.49211        -999.25        6.68731      -37.45214
714.50000      202.49820        5.37378        -999.25        6.64865      -37.44274
715.00000      215.36537        5.09608        -999.25        6.45064      -37.43333
715.50000      232.20071        4.81838        -999.25        6.13310      -37.72332
716.00000      249.03606        4.42116        -999.25        5.85540      -38.01331
716.50000      266.86345        4.14347        -999.25        5.53786      -38.30330
717.00000      288.65902        3.78609        -999.25        5.18049      -39.19208
