~Version ---------------------------------------------------
VERS. 2.0 : CWLS LOG ASCII STANDARD - VERSION 2.0
WRAP. NO  : One line per depth step
DLM . SPACE : Column Data Section Delimiter
~Well ------------------------------------------------------
STRT.F         98.5 : START DEPTH
STOP.F       1003.5 : STOP DEPTH
STEP.F          0.5 : STEP
NULL.       -999.25 : NULL VALUE
COMP.                       WALSH & WATTS : COMPANY
WELL.                          SALMON D 8 : WELL
FLD .                          OLD NOCOMA : FIELD
CNTY.                            MONTAGUE : COUNTY
STAT.                               TEXAS : STATE
CTRY.                                 USA : COUNTRY
SEC .                                     : SECTION
TWP .                                     : TOWNSHIP
RGE .                                     : RANGE
LOC .                          OLD NOCOMA : LOCATION
EKB .F                          : ELEVATION KELLY BUSHING
EDF .F                      855 : ELEVATION DERRICK FLOOR
EGL .F                          : ELEVATION GROUND LEVEL
PDAT.                        RT : PERMANENT DATUM
EPD .                           : ELEVATION PERMANENT DATUM
APD .                         4 : ABOVE PERMANENT DATUM
LMF .                           : LOG MEASURED FROM
DMF .                           : DRILLING MEASURED FROM
API .            42337016420000 : API NUMBER
UWI .            42337016420000 : UWI NUMBER
DIGC.                     NthDS : DIGITIZING COMPANY
~Params ----------------------------------------------------
SRVC.              SCHLUMBERGER : LOGGING COMPANY
LOG .                        EL : LOG
DATE.                1948-12-15 : RUN DATE
RUN .                         1 : RUN NUMBER
TDD .F                          : TOTAL DEPTH DRILLER
TDL .F                          : TOTAL DEPTH LOGGER
BOTL.F                     1005 : BOTTOM LOGGED INTERVAL
TOPL.F                     1004 : TOP LOGGED INTERVAL
CSGS.IN                         : CASING SIZE
CSGD.F                          : CASING DRILLER
CSGL.F                          : CASING LOGGER
BS  .IN                       9 : BIT SIZE
MUD .                   AQUAGEL : MUD TYPE
MUDD.                      10.2 : MUD DENSITY
MUDV.                        40 : MUD VISCOSITY
PH  .                           : MUD PH
FL  .                           : FLUID LOSS
MUDS.                           : SOURCE OF SAMPLE
RM  .OHMM                    .8 : MUD RESISTIVITY
RMT .DEGF                    65 : RM TEMPERATURE
RMF .OHMM                       : MUD FILTRATE RESISTIVITY
RMFT.DEGF                       : RMF TEMPERATURE
RMC .OHMM                       : MUD CAKE RESISTIVITY
RMCT.DEGF                       : RMC TEMPERATURE
RMFS.                           : RMF SOURCE
RMCS.                           : RMC SOURCE
RMBH.OHMM                       : MUD RESISTIVITY AT BHT
BHT .DEGF                       : BOTTOM HOLE TEMPERATURE
TIMC.                           : TIME CIRCULATION STOPPED
TIML.                           : TIME LOGGER ON BOTTOM
TMAX.DEGF                       : MAXIMUM RECORDED TEMPERATURE
UNIT.                       201 : EQUIPMENT NUMBER
BASE.                           : BASE LOCATION
ENG .                    LITTLE : RECORDED BY
WIT .                 MR. WATTS : WITNESSED BY
~Curve Information -----------------------------------------
DEPT.F          :DEPTH
ILD.OHMM        :
LAT.OHMM        :
SN.OHMM         :
SP.MV           :
~ASCII ------------------------------------------------------
# ...
903.50000        3.48483        1.91455        1.95803      -50.91829
904.00000        3.59439        1.85462        1.97368      -51.02336
904.50000        3.72604        1.79380        1.98932      -51.71891
905.00000        3.83560        1.73387        2.00022      -52.29971
905.50000        3.89507        1.66592        2.00334      -52.26277
906.00000        3.92145        1.57868        2.00647      -52.07318
906.50000        3.94782        1.50628        2.00959      -51.88359
907.00000        3.97331        1.43298        1.98051      -51.69399
907.50000        3.99968        1.36058        1.94249      -52.11859
908.00000        4.02606        1.28817        1.90536      -52.69939
908.50000        4.05154        1.21488        1.86734      -53.91568
909.00000        4.07792        1.22267        1.83021      -56.09053
909.50000        3.92872        1.28393        1.79219      -58.26183
910.00000        3.77353        1.34429        1.78279      -58.82843
910.50000        3.61923        1.40555        1.90281      -58.46132
911.00000        3.40143        1.46681        2.00343      -58.09422
911.50000        3.14069        1.52718        2.10405      -58.82768
912.00000        2.88085        1.53229        2.20377      -60.29604
912.50000        2.65410        1.49317        2.20063      -61.22831
913.00000        2.55884        1.45997        2.17066      -60.03401
913.50000        2.46357        1.42767        2.14158      -60.12488
914.00000        2.36831        1.39447        2.11161      -62.13997
914.50000        2.27304        1.36217        2.08164      -68.87329
915.00000        2.17778        1.32897        2.05256      -75.60661
915.50000        2.08251        1.29666        2.02259      -78.47730
916.00000        1.96819        1.30980        1.98698      -82.94914
916.50000        1.87293        1.32205        2.09743      -89.81737
917.00000        1.77766        1.33519        2.24277      -93.73537
917.50000        1.61442        1.34744        2.38811      -95.35638
918.00000        1.34921        1.36058        2.53434      -96.58688
918.50000        1.19134        1.37581        2.62243      -95.71919
919.00000        1.19446        1.38806        2.62555      -94.32608
919.50000        1.19758        1.37714        2.62867      -95.64532
920.00000        1.20070        1.27265        2.63180      -96.96457
920.50000        1.21098        1.16817        2.76908      -99.03049
921.00000        1.24809        1.06369        2.97408     -100.95683
921.50000        1.28610        0.95920        3.14535     -100.95895
922.00000        1.33099        0.96076        3.31573      -99.26051
922.50000        1.36810        0.96231        3.43066      -95.89703
923.00000        1.44367        0.96387        3.32198      -93.16193
923.50000        1.67040        0.96542        3.08897      -92.08478
924.00000        1.82737        0.96698        2.77278      -94.20283
924.50000        1.70616        0.96853        2.45570      -97.74096
925.00000        1.58496        1.08624        2.39531     -100.99507
925.50000        1.46465        1.18492        2.46105     -103.11312
926.00000        1.33897        1.28361        2.77454     -105.08915
926.50000        1.21061        1.38229        3.15216     -106.12438
927.00000        1.08225        1.42216        3.46654     -104.66381
927.50000        1.04038        1.42372        3.78003     -101.30743
928.00000        1.19198        1.42527        3.58996      -96.41380
928.50000        1.34447        1.42683        3.17359      -88.37937
929.00000        1.51396        1.25551        2.60785      -80.78404
929.50000        1.70849        1.08331        2.13693      -70.06806
930.00000        1.68389        0.91199        2.04345      -61.08104
930.50000        1.65928        0.83959        1.95087      -53.97322
931.00000        1.63378        0.91599        1.94147      -50.66654
931.50000        1.67089        1.00875        2.05639      -47.35631
932.00000        1.72410        1.08605        2.17132      -45.46971
932.50000        1.77731        1.16246        2.30923      -45.70969
933.00000        1.84009        1.23975        2.42416      -47.11769
933.50000        1.89330        1.31616        2.53908      -48.52570
934.00000        1.94562        1.39346        2.61197      -49.93370
934.50000        1.99883        1.47075        2.51849      -50.74882
935.00000        1.94471        1.54716        2.42412      -51.56748
935.50000        1.86375        1.62446        2.32975      -52.38260
936.00000        1.78280        1.70175        2.23538      -51.12794
936.50000        1.77966        1.77816        2.22688      -49.87328
937.00000        1.82750        1.82516        2.27383      -51.63631
937.50000        1.87535        1.85643        2.32078      -54.04547
938.00000        1.92319        1.88294        2.37729      -56.45463
938.50000        1.86254        1.92281        2.42514      -55.62245
939.00000        1.76191        2.01615        2.47209      -53.65533
939.50000        1.67827        2.10859        2.51904      -52.46103
940.00000        1.65993        2.20193        2.56688      -53.51401
940.50000        1.64069        2.29527        2.61383      -54.45693
941.00000        1.62234        2.38860        2.66078      -53.00347
941.50000        1.60400        2.48194        2.70773      -51.54645
942.00000        1.58476        2.51825        2.75557      -50.09298
942.50000        1.56642        2.46812        2.80252      -52.05481
943.00000        1.54718        2.41888        2.84947      -53.81784
943.50000        1.52883        2.35837        2.81118      -54.78916
944.00000        1.66674        2.30914        2.74006      -54.74868
944.50000        1.78167        2.33208        2.66895      -53.18160
945.00000        1.89660        2.46462        2.59694      -51.61807
945.50000        1.98380        2.59717        2.52582      -50.52318
946.00000        1.95919        2.72971        2.63717      -51.32054
946.50000        1.93369        2.57533        2.74762      -52.32495
947.00000        1.90909        2.42094        2.85897      -53.03356
947.50000        1.99092        2.26656        2.97032      -52.35404
948.00000        2.07275        2.11218        3.08078      -52.60822
948.50000        2.15548        2.26254        3.14382      -55.17005
949.00000        2.23731        2.41202        2.98657      -58.15434
949.50000        2.33587        2.56269        2.94497      -61.13509
950.00000        2.18150        2.40624        2.79913      -62.25618
950.50000        2.20956        2.40779        2.79243      -60.06193
951.00000        2.15742        2.49846        2.63601      -57.71055
951.50000        2.08923        2.64882        2.47959      -55.31630
952.00000        1.66187        2.81344        2.45953      -53.16134
952.50000        1.41632        3.03777        2.52948      -54.26345
953.00000        1.80178        3.26210        2.59944      -55.36912
953.50000        1.86460        3.23425        2.66939      -56.47123
954.00000        1.91433        3.14402        2.66092      -55.01625
954.50000        1.97715        3.05290        2.60075      -52.48987
955.00000        2.05691        2.96268        2.55244      -49.67063
955.50000        2.14112        2.87156        2.55555      -46.85140
956.00000        2.22534        2.79973        2.60144      -46.75354
956.50000        2.30866        2.78258        2.64822      -49.43060
957.00000        2.30108        2.78413        2.69411      -53.43264
957.50000        2.15624        2.81777        2.74090      -57.17040
958.00000        2.01051        2.97793        2.78679      -60.33674
958.50000        1.96015        3.13899        2.80505      -59.96745
959.00000        2.01674        3.17619        2.77964      -59.59816
959.50000        2.01985        3.02983        2.75512      -59.32887
960.00000        2.02296        2.64287        2.79210      -57.33105
960.50000        2.42713        2.09552        3.07328      -57.41889
