~Version ---------------------------------------------------
VERS. 2.0 : CWLS LOG ASCII STANDARD - VERSION 2.0
WRAP. NO  : One line per depth step
DLM . SPACE : Column Data Section Delimiter
~Well ------------------------------------------------------
STRT.F         98.5 : START DEPTH
STOP.F       1003.5 : STOP DEPTH
STEP.F          0.5 : STEP
NULL.       -999.25 : NULL VALUE
COMP.                       WALSH & WATTS : COMPANY
WELL.                          SALMON D 8 : WELL
FLD .                          OLD NOCOMA : FIELD
CNTY.                            MONTAGUE : COUNTY
STAT.                               TEXAS : STATE
CTRY.                                 USA : COUNTRY
SEC .                                     : SECTION
TWP .                                     : TOWNSHIP
RGE .                                     : RANGE
LOC .                          OLD NOCOMA : LOCATION
EKB .F                          : ELEVATION KELLY BUSHING
EDF .F                      855 : ELEVATION DERRICK FLOOR
EGL .F                          : ELEVATION GROUND LEVEL
PDAT.                        RT : PERMANENT DATUM
EPD .                           : ELEVATION PERMANENT DATUM
APD .                         4 : ABOVE PERMANENT DATUM
LMF .                           : LOG MEASURED FROM
DMF .                           : DRILLING MEASURED FROM
API .            42337016420000 : API NUMBER
UWI .            42337016420000 : UWI NUMBER
DIGC.                     NthDS : DIGITIZING COMPANY
~Params ----------------------------------------------------
SRVC.              SCHLUMBERGER : LOGGING COMPANY
LOG .                        EL : LOG
DATE.                1948-12-15 : RUN DATE
RUN .                         1 : RUN NUMBER
TDD .F                          : TOTAL DEPTH DRILLER
TDL .F                          : TOTAL DEPTH LOGGER
BOTL.F                     1005 : BOTTOM LOGGED INTERVAL
TOPL.F                     1004 : TOP LOGGED INTERVAL
CSGS.IN                         : CASING SIZE
CSGD.F                          : CASING DRILLER
CSGL.F                          : CASING LOGGER
BS  .IN                       9 : BIT SIZE
MUD .                   AQUAGEL : MUD TYPE
MUDD.                      10.2 : MUD DENSITY
MUDV.                        40 : MUD VISCOSITY
PH  .                           : MUD PH
FL  .                           : FLUID LOSS
MUDS.                           : SOURCE OF SAMPLE
RM  .OHMM                    .8 : MUD RESISTIVITY
RMT .DEGF                    65 : RM TEMPERATURE
RMF .OHMM                       : MUD FILTRATE RESISTIVITY
RMFT.DEGF                       : RMF TEMPERATURE
RMC .OHMM                       : MUD CAKE RESISTIVITY
RMCT.DEGF                       : RMC TEMPERATURE
RMFS.                           : RMF SOURCE
RMCS.                           : RMC SOURCE
RMBH.OHMM                       : MUD RESISTIVITY AT BHT
BHT .DEGF                       : BOTTOM HOLE TEMPERATURE
TIMC.                           : TIME CIRCULATION STOPPED
TIML.                           : TIME LOGGER ON BOTTOM
TMAX.DEGF                       : MAXIMUM RECORDED TEMPERATURE
UNIT.                       201 : EQUIPMENT NUMBER
BASE.                           : BASE LOCATION
ENG .                    LITTLE : RECORDED BY
WIT .                 MR. WATTS : WITNESSED BY
~Curve Information -----------------------------------------
DEPT.F          :DEPTH
ILD.OHMM        :
LAT.OHMM        :
SN.OHMM         :
SP.MV           :
~ASCII ------------------------------------------------------
# ...
616.00000        2.52949        5.18834        5.96512      -44.17209
616.50000        2.80046        4.95889        5.77271      -44.77750
617.00000        2.51787        4.68320        5.57940      -45.38649
617.50000        2.68080        4.45286        5.38698      -46.02776
618.00000        2.84284        4.26877        5.19368      -46.18857
618.50000        2.99774        4.26877        5.00126      -46.86569
619.00000        3.11960        4.26877        4.80796      -48.31368
619.50000        3.24147        4.40929        4.61554      -50.00549
620.00000        3.36423        4.54980        4.57223      -53.64779
620.50000        3.48609        4.69032        4.79025      -57.32246
621.00000        3.60795        4.81482        5.06568      -63.19492
621.50000        3.78401        4.87885        5.40361      -67.86267
622.00000        3.97819        4.94199        5.74154      -69.33935
622.50000        3.98131        5.00603        5.91965      -66.85767
623.00000        3.98443        5.06917        5.85938      -62.51155
623.50000        4.28486        4.99269        5.65982      -55.44754
624.00000        4.61564        4.91620        5.45937      -50.37716
624.50000        5.06518        4.83883        5.55624      -48.56596
625.00000        5.26472        4.76235        5.72631      -48.14951
625.50000        5.29730        4.67075        5.89728      -47.71514
626.00000        5.33077        4.69032        5.97718      -47.21981
626.50000        5.41692        4.85395        5.99637      -46.72448
627.00000        5.53879        5.01759        6.01467      -46.39409
627.50000        5.66154        5.18122        6.03385      -46.73417
628.00000        5.69144        5.17055        6.05304      -47.07426
628.50000        5.65974        5.04338        6.07223      -47.34263
629.00000        5.62893        4.91709        5.86017      -47.32417
629.50000        5.75615        4.67253        5.64722      -47.30571
630.00000        5.88337        4.39862        5.43517      -47.76412
630.50000        6.01059        4.12470        5.22222      -48.94320
631.00000        5.98067        3.85168        5.01016      -50.11870
631.50000        5.84451        3.57777        4.76775      -50.93565
632.00000        5.91075        3.29051        4.40570      -50.87058
632.50000        5.96654        2.99437        4.04364      -49.41793
633.00000        6.10090        2.69733        3.86819      -47.96528
633.50000        6.55044        2.34160        3.69274      -46.93572
634.00000        6.99997        2.04545        3.74737      -47.60926
634.50000        7.44951        1.74931        3.79335      -48.27920
635.00000        7.96243        1.45227        3.83843      -49.75588
635.50000        8.32268        1.15613        3.88440      -51.77038
636.00000        8.48562        1.27974        3.76966      -53.78129
636.50000        8.09946        1.40336        3.65582      -56.51288
637.00000        7.46509        1.52698        3.54108      -62.17739
637.50000        6.93250        1.66927        3.44688      -68.01769
638.00000        5.29280        1.84002        3.43392      -75.32075
638.50000        4.13524        2.01166        3.42007      -78.52920
639.00000        2.97767        2.18241        3.40712      -81.73766
639.50000        2.48080        2.35316        3.39327      -82.20683
640.00000        2.16874        2.47767        3.38032      -82.67957
640.50000        1.93704        2.41364        3.51111      -83.39613
641.00000        1.70534        2.35049        3.67940      -84.17365
641.50000        1.47364        2.28646        3.84680      -84.95116
642.00000        1.39551        2.21176        4.01420      -85.64979
642.50000        1.54684        2.15484        4.18160      -86.02931
643.00000        1.55799        2.09704        4.34899      -86.40884
643.50000        1.47540        2.04012        4.51729      -86.79195
644.00000        1.39280        1.98231        4.65701      -86.82369
644.50000        1.31021        1.92539        4.68602      -86.62595
645.00000        1.22761        1.86759        4.71592      -86.78318
645.50000        1.19412        1.87648        4.74493      -87.18063
646.00000        1.23652        1.88538        4.45671      -87.57450
646.50000        1.27803        1.89516        4.16162      -86.77082
647.00000        1.32043        1.90405        3.86742      -85.97073
647.50000        1.36194        1.91294        3.57322      -85.16705
648.00000        1.38648        1.92184        3.24929      -84.13032
648.50000        1.40567        1.93073        3.26518      -83.03621
649.00000        1.42995        1.94051        3.28615      -83.45518
649.50000        1.44914        1.94941        3.30623      -84.25062
650.00000        1.50414        1.96364        3.35134      -86.01261
650.50000        1.56230        2.09259        3.37131      -85.00698
651.00000        1.64532        2.12549        3.37263      -84.78904
651.50000        1.71592        2.15929        3.36153      -85.28749
652.00000        1.76609        2.19219        3.35042      -86.04602
652.50000        1.81537        2.22599        3.33931      -85.72828
653.00000        1.86553        2.25889        3.32820      -85.17530
653.50000        1.86064        2.29269        3.31709      -83.18597
654.00000        1.81934        2.27045        3.38235      -80.83665
654.50000        1.89970        2.16729        3.59921      -78.30200
655.00000        2.09347        2.06324        3.67336      -75.01531
655.50000        2.25553        1.95919        3.67646      -69.29062
656.00000        2.70267        1.85603        3.67956      -62.97438
656.50000        3.14981        1.75198        3.84962      -56.66171
657.00000        3.90156        1.68972        4.26834      -50.34548
657.50000        4.41886        1.68972        4.68795      -47.40797
658.00000        4.47169        1.92095        5.05338      -44.95886
658.50000        4.41085        2.30603        5.20479      -46.42676
659.00000        4.27541        2.69200        5.38613      -48.35088
659.50000        4.11217        3.15356        5.47803      -50.38549
660.00000        3.97140        3.66670        5.48113      -52.14209
660.50000        3.82619        4.17984        5.48423      -52.77242
661.00000        3.68187        4.48755        5.52286      -53.40275
661.50000        3.53666        4.79526        5.61477      -54.03307
662.00000        3.42787        5.01225        5.70667      -54.66340
662.50000        3.37324        5.09318        5.79858      -54.44546
663.00000        3.31773        5.11630        5.89049      -54.01366
663.50000        3.26310        4.90909        5.94687      -53.42861
664.00000        3.20848        4.70188        5.94997      -52.22339
664.50000        3.29683        4.43775        5.80450      -50.77570
665.00000        3.42071        4.19229        5.62021      -49.57048
665.50000        3.75213        3.94684        5.43682      -49.64836
666.00000        4.10425        3.70138        5.25253      -50.05058
666.50000        4.45636        3.45593        5.20323      -50.44924
667.00000        4.16373        3.21047        5.15394      -50.44514
667.50000        4.10733        3.17668        5.10553      -49.65337
668.00000        4.11043        3.28251        4.94522      -48.13450
668.50000        4.11353        3.38923        4.71121      -46.61563
669.00000        4.11663        3.49506        4.47808      -45.09677
669.50000        4.11973        3.60178        4.39770      -43.10376
670.00000        4.06955        3.70850        4.41856      -42.90720
670.50000        3.87105        3.81433        4.44448      -42.71064
671.00000        3.60213        3.92105        4.46623      -44.56704
671.50000        3.63099        4.04822        4.48798      -46.42701
672.00000        3.66073        4.09091        4.62163      -48.28341
672.50000        3.68958        4.09091        4.75528      -49.89744
673.00000        3.79659        4.09091        4.88892      -50.54916
