~Version ---------------------------------------------------
VERS. 2.0 : CWLS LOG ASCII STANDARD - VERSION 2.0
WRAP. NO  : One line per depth step
DLM . SPACE : Column Data Section Delimiter
~Well ------------------------------------------------------
STRT.F          194 : START DEPTH
STOP.F       1764.0 : STOP DEPTH
STEP.F          0.5 : STEP
NULL.       -999.25 : NULL VALUE
COMP.                 WALSH & WATTS, INC. : COMPANY
WELL.                         SALMON E 42 : WELL
FLD .                        NORTH NOCONA : FIELD
CNTY.                            MONTAGUE : COUNTY
STAT.                               TEXAS : STATE
CTRY.                                 USA : COUNTRY
SEC .                                     : SECTION
TWP .                                     : TOWNSHIP
RGE .                                     : RANGE
LOC . 150' FSL & 300' W OF WELL NO. 1, 407' E OF WELL NO. 5, F. ROBERTSON SURVEY : LOCATION
EKB .F                      880 : ELEVATION KELLY BUSHING
EDF .F                          : ELEVATION DERRICK FLOOR
EGL .F                      874 : ELEVATION GROUND LEVEL
PDAT.              GROUND LEVEL : PERMANENT DATUM
EPD .                       874 : ELEVATION PERMANENT DATUM
APD .                         6 : ABOVE PERMANENT DATUM
LMF .                        KB : LOG MEASURED FROM
DMF .                        KB : DRILLING MEASURED FROM
API .            42337037780000 : API NUMBER
UWI .            42337037780000 : UWI NUMBER
DIGC.                     NthDS : DIGITIZING COMPANY
~Params ----------------------------------------------------
SRVC.                LANE WELLS : LOGGING COMPANY
LOG .                       IEL : LOG
DATE.                1965-11-21 : RUN DATE
RUN .                         1 : RUN NUMBER
TDD .F                     1766 : TOTAL DEPTH DRILLER
TDL .F                     1768 : TOTAL DEPTH LOGGER
BOTL.F                     1764 : BOTTOM LOGGED INTERVAL
TOPL.F                      200 : TOP LOGGED INTERVAL
CSGS.IN                         : CASING SIZE
CSGD.F                          : CASING DRILLER
CSGL.F                          : CASING LOGGER
BS  .IN                   7.875 : BIT SIZE
MUD .              CHEMICAL GEL : MUD TYPE
MUDD.                       9.8 : MUD DENSITY
MUDV.                       123 : MUD VISCOSITY
PH  .                           : MUD PH
FL  .                           : FLUID LOSS
MUDS.                CIRCULATED : SOURCE OF SAMPLE
RM  .OHMM                   2.1 : MUD RESISTIVITY
RMT .DEGF                    70 : RM TEMPERATURE
RMF .OHMM                  1.81 : MUD FILTRATE RESISTIVITY
RMFT.DEGF                    70 : RMF TEMPERATURE
RMC .OHMM                  2.34 : MUD CAKE RESISTIVITY
RMCT.DEGF                    70 : RMC TEMPERATURE
RMFS.                  MEASURED : RMF SOURCE
RMCS.                           : RMC SOURCE
RMBH.OHMM                   1.5 : MUD RESISTIVITY AT BHT
BHT .DEGF                    98 : BOTTOM HOLE TEMPERATURE
TIMC.                           : TIME CIRCULATION STOPPED
TIML.                           : TIME LOGGER ON BOTTOM
TMAX.DEGF                    98 : MAXIMUM RECORDED TEMPERATURE
UNIT.                    L-4553 : EQUIPMENT NUMBER
BASE.                      W.F. : BASE LOCATION
ENG .                     ADAMS : RECORDED BY
WIT .   MR. HARRELSON & MR. NIX : WITNESSED BY
~Curve Information -----------------------------------------
DEPT.F          :DEPTH
CILD.MMHO       :
ILD.OHMM        :
ROP.MIN/FT      :
SN.OHMM         :
SP.MV           :
~ASCII ------------------------------------------------------
194.00000      135.90768        7.24059        -999.25       12.11038      -71.92935
194.50000      138.25979        6.92959        -999.25       11.27512      -72.25171
195.00000      140.21162        7.06830        -999.25       11.14283      -72.57704
195.50000      142.17337        7.13008        -999.25       11.11428      -72.80158
196.00000      144.13511        6.69285        -999.25       10.16423      -73.00537
196.50000      144.58893        5.70336        -999.25        8.93805      -73.20916
197.00000      144.04077        5.54227        -999.25        8.22456      -73.45252
197.50000      143.37703        5.30228        -999.25        7.78733      -73.65335
198.00000      142.82887        5.25952        -999.25        7.98126      -73.85714
198.50000      142.28072        5.53235        -999.25        8.25409      -74.19136
199.00000      141.73256        5.45015        -999.25        8.48747      -74.52558
199.50000      141.17448        4.73666        -999.25        7.22185      -74.85981
200.00000      141.08267        4.49667        -999.25        6.74517      -75.36211
200.50000      140.10793        4.37502        -999.25        6.34725      -75.95913
201.00000      140.12870        4.17448        -999.25        6.06782      -76.55718
201.50000      140.14602        4.28951        -999.25        6.14341      -77.15524
202.00000      141.15539        5.11461        -999.25        7.16574      -77.45685
202.50000      143.15682        5.07185        -999.25        7.35967      -77.75847
203.00000      146.15031        4.43739        -999.25        6.60686      -77.46824
203.50000      151.12791        4.47353        -999.25        6.72190      -77.17697
204.00000      158.09309        5.53531        -999.25        8.37539      -75.99638
204.50000      163.07069        7.14935        -999.25       11.13341      -75.40867
205.00000      169.04035        7.14605        -999.25       12.27408      -75.41385
205.50000      173.02589        5.44650        -999.25        8.68092      -75.41902
206.00000      176.01938        5.16762        -999.25        7.88950      -75.12775
206.50000      178.02081        5.28555        -999.25        8.04687      -75.02724
207.00000      180.02570        5.32472        -999.25        8.12549      -74.94052
207.50000      180.04301        5.48210        -999.25        8.28287      -74.85676
208.00000      178.07621        5.75782        -999.25        8.47969      -74.77300
208.50000      178.09353        5.79685        -999.25        8.55831      -74.68628
209.00000      179.10290        5.83602        -999.25        8.75514      -74.60252
209.50000      181.10433        6.03285        -999.25        8.99141      -74.50201
210.00000      184.09782        6.22967        -999.25        9.07003      -74.41529
210.50000      186.10271        6.30829        -999.25        9.30630      -74.33153
211.00000      189.09620        6.42622        -999.25        9.46368      -74.24777
211.50000      190.10557        6.46526        -999.25        9.58161      -74.16401
212.00000      190.12288        6.54374        -999.25        9.62078      -74.07729
212.50000      190.14020        6.58291        -999.25        9.69926      -74.15465
213.00000      188.17340        6.58250        -999.25        9.73830      -74.51258
213.50000      186.21006        6.58208        -999.25        9.77747      -74.87052
214.00000      184.24326        6.58181        -999.25        9.85595      -75.22846
214.50000      181.28440        6.58140        -999.25        9.81609      -75.46189
215.00000      179.31760        6.58098        -999.25        9.85512      -75.20620
215.50000      178.34286        6.62002        -999.25        9.89430      -74.89818
216.00000      177.36812        6.65919        -999.25        9.97278      -74.64249
216.50000      177.38543        6.73767        -999.25       10.05126      -75.04786
217.00000      179.39033        6.85560        -999.25       10.28753      -75.45026
217.50000      182.38381        7.01298        -999.25       10.44505      -75.85563
218.00000      188.35347        7.05215        -999.25       10.68132      -76.25804
218.50000      193.33107        7.17008        -999.25       10.95704      -76.74448
219.00000      200.29279        7.40635        -999.25       11.15400      -76.67554
219.50000      205.27039        7.48497        -999.25       11.35082      -76.60364
220.00000      209.25940        7.60290        -999.25       11.54765      -76.53470
220.50000      213.24494        7.68138        -999.25       11.70516      -76.46577
221.00000      215.24637        8.03600        -999.25       11.94143      -76.39387
221.50000      216.25574        8.03572        -999.25       12.05936      -76.32493
222.00000      219.24923        8.07475        -999.25       12.09840      -76.24221
222.50000      220.25860        8.07434        -999.25       12.05867      -76.17031
223.00000      222.26349        7.95572        -999.25       11.97937      -76.10137
223.50000      222.28081        7.87642        -999.25       11.97895      -76.03243
224.00000      223.29018        7.79711        -999.25       11.93923      -75.96053
224.50000      225.29161        7.59946        -999.25       11.89937      -75.89160
225.00000      228.28510        7.32305        -999.25       11.70172      -75.80887
225.50000      232.27064        7.20429        -999.25       11.50407      -75.73697
226.00000      236.25965        7.04609        -999.25       11.42490      -75.66804
226.50000      238.26108        6.80899        -999.25       11.26670      -75.64357
227.00000      239.27045        6.76927        -999.25       11.18739      -75.64874
227.50000      240.27982        6.76886        -999.25       11.18697      -75.65391
228.00000      239.30508        6.65010        -999.25       11.14725      -75.66012
228.50000      237.33828        6.68927        -999.25       11.14684      -75.60601
229.00000      233.38736        6.64941        -999.25       11.14643      -75.53707
229.50000      224.47963        6.64900        -999.25       11.14601      -75.46814
230.00000      216.56048        6.64859        -999.25       11.14574      -75.39920
230.50000      204.67657        6.76665        -999.25       11.14532      -75.68599
231.00000      197.74949        6.84513        -999.25       11.26325      -75.69220
231.50000      193.79511        6.92362        -999.25       11.38132      -75.99382
232.00000      187.86008        7.00224        -999.25       11.61759      -75.99899
232.50000      184.90122        7.31740        -999.25       11.93276      -76.00416
233.00000      185.91059        7.35644        -999.25       12.09027      -76.00934
233.50000      190.89166        7.47437        -999.25       12.28710      -76.01451
234.00000      196.86132        7.51354        -999.25       12.44447      -76.01969
234.50000      205.80715        7.59202        -999.25       12.52296      -76.02589
235.00000      211.77681        7.63106        -999.25       12.56213      -76.03107
235.50000      217.74646        7.59119        -999.25       12.60116      -75.44336
236.00000      221.73547        7.59092        -999.25       12.56130      -75.74497
236.50000      224.72896        7.51161        -999.25       12.44255      -76.34303
237.00000      226.73039        7.43230        -999.25       12.32393      -76.64464
237.50000      227.73976        7.39258        -999.25       12.12628      -77.24374
238.00000      226.76502        7.31327        -999.25       11.81029      -77.84179
238.50000      222.81410        7.07617        -999.25       11.65222      -78.43985
239.00000      216.87907        6.95742        -999.25       11.33623      -78.74146
239.50000      207.97133        6.83880        -999.25       11.02023      -78.74663
240.00000      197.07602        6.40447        -999.25       10.62535      -78.45537
240.50000      188.16482        6.32516        -999.25       10.42783      -78.46158
241.00000      178.26156        6.16695        -999.25        9.99350      -78.17031
