~Version ---------------------------------------------------
VERS. 2.0 : CWLS LOG ASCII STANDARD - VERSION 2.0
WRAP. NO  : One line per depth step
DLM . SPACE : Column Data Section Delimiter
~Well ------------------------------------------------------
STRT.F          572 : START DEPTH
STOP.F       1770.0 : STOP DEPTH
STEP.F          0.5 : STEP
NULL.       -999.25 : NULL VALUE
COMP.         WALSH & WATTS, INCORPORATED : COMPANY
WELL.                         SALMON E 44 : WELL
FLD .                             REGULAR : FIELD
CNTY.                            MONTAGUE : COUNTY
STAT.                               TEXAS : STATE
CTRY.                                 USA : COUNTRY
SEC .                                     : SECTION
TWP .                                     : TOWNSHIP
RGE .                                     : RANGE
LOC . 300' WEST OF NO 23, 300' SOUTH OF D-9, F.ROBERTSON SURV. : LOCATION
EKB .F                      862 : ELEVATION KELLY BUSHING
EDF .F                          : ELEVATION DERRICK FLOOR
EGL .F                      856 : ELEVATION GROUND LEVEL
PDAT.                        GL : PERMANENT DATUM
EPD .                       856 : ELEVATION PERMANENT DATUM
APD .                         6 : ABOVE PERMANENT DATUM
LMF .                        KB : LOG MEASURED FROM
DMF .                        KB : DRILLING MEASURED FROM
API .            42337038720000 : API NUMBER
UWI .                           : UWI NUMBER
DIGC.                     NthDS : DIGITIZING COMPANY
~Params ----------------------------------------------------
SRVC.              SCHLUMBERGER : LOGGING COMPANY
LOG .                     SONIC : LOG
DATE.                1965-11-28 : RUN DATE
RUN .                         1 : RUN NUMBER
TDD .F                     1179 : TOTAL DEPTH DRILLER
TDL .F                     1179 : TOTAL DEPTH LOGGER
BOTL.F                     1170 : BOTTOM LOGGED INTERVAL
TOPL.F                      600 : TOP LOGGED INTERVAL
CSGS.IN                         : CASING SIZE
CSGD.F                          : CASING DRILLER
CSGL.F                          : CASING LOGGER
BS  .IN                   7.875 : BIT SIZE
MUD .                       GEL : MUD TYPE
MUDD.                        10 : MUD DENSITY
MUDV.                        98 : MUD VISCOSITY
PH  .                           : MUD PH
FL  .                           : FLUID LOSS
MUDS.                CIRCULATED : SOURCE OF SAMPLE
RM  .OHMM                   2.0 : MUD RESISTIVITY
RMT .DEGF                    81 : RM TEMPERATURE
RMF .OHMM                   1.5 : MUD FILTRATE RESISTIVITY
RMFT.DEGF                    81 : RMF TEMPERATURE
RMC .OHMM                       : MUD CAKE RESISTIVITY
RMCT.DEGF                       : RMC TEMPERATURE
RMFS.                         M : RMF SOURCE
RMCS.                           : RMC SOURCE
RMBH.OHMM                   1.6 : MUD RESISTIVITY AT BHT
BHT .DEGF                   100 : BOTTOM HOLE TEMPERATURE
TIMC.                           : TIME CIRCULATION STOPPED
TIML.                           : TIME LOGGER ON BOTTOM
TMAX.DEGF                   100 : MAXIMUM RECORDED TEMPERATURE
UNIT.                      4559 : EQUIPMENT NUMBER
BASE.                       WFS : BASE LOCATION
ENG .                      FINK : RECORDED BY
WIT .                       NIX : WITNESSED BY
~Curve Information -----------------------------------------
DEPT.F          :DEPTH
CALS.IN         :
DT.US/F         :
SP.MV           :
~ASCII ------------------------------------------------------
# ...
937.00000        8.01756      116.49019      -70.94879
937.50000        8.08994      123.52510      -74.59179
938.00000        8.22984      123.46795      -75.89718
938.50000        8.22955      112.59369      -76.28476
939.00000        8.01876      108.03461      -74.90204
939.50000        8.09530      111.22494      -72.05497
940.00000        8.22035      111.00843      -70.20978
940.50000        8.25313      112.39249      -69.80131
941.00000        8.25283      112.40805      -69.39285
941.50000        8.25254      109.14377      -68.98439
942.00000        8.14967      107.04083      -65.09178
942.50000        7.97829      104.48172      -63.79520
943.00000        7.95463      107.69743      -66.39861
943.50000        8.20523      112.28164      -66.03173
944.00000        8.17979      117.26426      -65.48366
944.50000        7.97349      118.70163      -67.18707
945.00000        8.05241      117.29689      -69.58256
945.50000        7.92003      108.51723      -72.15329
946.00000        7.45776       97.97217      -74.72105
946.50000        7.36737       95.32541      -77.29178
947.00000        7.27718       88.55468      -80.31993
947.50000        7.36441       83.01952      -83.09650
948.00000        7.53579       96.32924      -82.16526
948.50000        7.87213      116.73049      -79.46968
949.00000        8.16887      125.71756      -76.77410
949.50000        7.80957      114.01662      -77.27455
950.00000        7.66334      103.01096      -73.50633
950.50000        7.78854      108.99554      -71.51177
951.00000        7.62888      115.21940      -71.97636
951.50000        7.37361      117.31570      -72.43796
952.00000        7.37331      116.18173      -73.01311
952.50000        7.28929      105.88239      -73.11017
953.00000        7.23900      100.85317      -71.50704
953.50000        7.26699      108.61240      -71.84315
954.00000        7.08124      113.65036      -73.67028
954.50000        6.91361      104.38039      -77.72947
955.00000        6.76391       93.16628      -78.97095
955.50000        6.98872       92.83689      -78.33595
956.00000        7.28125       99.29657      -80.13320
956.50000        7.28095      104.57328      -76.65060
957.00000        7.23086      108.67354      -72.83931
957.50000        7.18076      112.52209      -74.07183
958.00000        7.25019      120.25141      -76.56529
958.50000        7.08714      118.54916      -77.39143
959.00000        6.67191      111.03442      -75.71360
959.50000        6.31305      110.89745      -75.94601
960.00000        5.73407      114.28985      -76.94845
960.50000        5.72880      114.26554      -78.61423
961.00000        5.72352      110.37189      -79.43141
961.50000        5.71824      108.95378      -80.38305
962.00000        5.80361      102.67480      -83.12452
962.50000        6.10411       93.44524      -88.85701
963.00000        6.27512       94.23448      -95.83253
963.50000        6.28672       99.79135     -102.11183
964.00000        6.38603      100.34283     -105.60330
964.50000        6.58394      100.99348     -108.23123
965.00000        6.63982      104.04291     -109.56235
965.50000        6.64749      106.80122     -110.32275
966.00000        6.64540      108.39902     -111.59710
966.50000        6.64351      109.58506     -113.09555
967.00000        6.64162      109.12507     -114.09588
967.50000        6.63954      108.66507     -114.26765
968.00000        6.63765      107.79132     -113.10974
968.50000        6.63576      106.29844     -111.62015
969.00000        6.63367      103.70886     -110.13057
969.50000        6.63178      102.38248     -108.30035
970.00000        6.62989      102.81679     -105.10161
970.50000        6.62780      101.22420     -101.22160
971.00000        6.62591       99.26572      -98.09756
971.50000        6.59474       96.94235      -96.97251
972.00000        6.51974       99.61690      -98.30363
972.50000        6.50451      101.93254     -100.02917
973.00000        6.44625      102.43365     -102.34336
973.50000        6.37344      102.93476     -104.36471
974.00000        6.34426      105.72948     -105.22372
974.50000        6.34397      107.62638     -105.99608
975.00000        6.34367      110.20423     -108.68974
975.50000        6.32923      117.04323     -111.38341
976.00000        6.28605      120.39627     -114.07707
976.50000        6.25029      120.53148     -115.24983
977.00000        6.24283      118.55705     -113.62279
977.50000        6.24253      115.61800     -111.99875
978.00000        6.24224      112.52992     -113.24919
978.50000        6.24194      112.23344     -115.53349
979.00000        6.21874      114.34369     -118.58661
979.50000        6.19533      116.22716     -118.59104
980.00000        6.18129      117.28260     -118.59547
980.50000        6.18100      117.94721     -118.59990
981.00000        6.18070      117.18911     -118.15613
981.50000        6.18041      116.97837     -117.71236
982.00000        6.18011      116.76762     -116.78154
982.50000        6.17982      117.15407     -116.87860
983.00000        6.17952      118.43882     -118.51450
983.50000        6.17922      119.77042     -119.76195
984.00000        6.17893      120.03923     -119.22854
984.50000        6.17863      114.53843     -117.73896
985.00000        6.17993      108.43943     -116.95455
985.50000        6.18223      106.81195     -117.23089
986.00000        6.18472      108.12362     -117.41162
986.50000        6.18701      108.65364     -117.20091
987.00000        6.18931      108.25745     -116.99320
987.50000        6.19180      107.37373     -116.42094
988.00000        6.19463      107.99647     -115.30486
988.50000        6.19693      110.23235     -111.26051
989.00000        6.19922      113.25586     -104.53290
989.50000        6.20171      115.60140     -101.34910
990.00000        6.20401      117.11945     -108.57561
990.50000        6.20630      115.05529     -114.35591
991.00000        6.20880      113.29621     -118.90514
991.50000        6.21109      114.06351     -120.19233
992.00000        6.21338      118.63587     -121.19178
992.50000        6.18978      122.57661     -121.39641
993.00000        6.15961      118.75774     -121.15582
993.50000        6.31270      115.92191     -119.93815
994.00000        6.51160      112.11600     -118.72048
994.50000        6.51250      109.80007     -120.35339
995.00000        6.51360      112.02152     -121.98929
995.50000        6.51450      112.32322     -123.73276
996.00000        6.51540      109.73365     -125.50312
996.50000        6.51650      109.81602     -126.46970
997.00000        6.51740      113.52745     -126.91337
997.50000        6.51830      116.22195     -128.73154
998.00000        6.51940      116.39105     -129.99095
998.50000        6.52030      115.78849     -129.90574
999.00000        6.52120      111.51100     -129.56057
999.50000        6.52230      106.36213     -129.21839
1000.00000        6.53307      100.69671     -128.72520
1000.50000        6.53430       98.51807     -128.38003
1001.00000        6.53520       98.15216     -128.03785
1001.50000        6.53610       99.23097     -128.22843
1002.00000        6.53740       99.22362     -128.63924
1002.50000        6.53890      101.61663     -128.12375
1003.00000        6.54060      103.72778     -126.98377
1003.50000        6.54229      104.16165     -125.84677
1004.00000        6.54379      102.03282     -125.06236
1004.50000        6.54549       99.44283     -125.70026
1005.00000        6.54718       97.59586     -126.33517
1005.50000        6.54902       96.82856     -126.97306
1006.00000        6.55072       96.06225     -127.60797
1006.50000        6.55221       96.66246     -128.20492
1007.00000        6.56287       97.43398     -128.00617
1007.50000        6.60899       98.46200     -127.80741
1008.00000        6.65511       99.73650     -127.60866
1008.50000        6.70143       99.10864     -127.40991
1009.00000        6.74755       87.13380     -127.64741
1009.50000        6.79367       70.42795     -127.99845
