~Version ---------------------------------------------------
VERS. 2.0 : CWLS LOG ASCII STANDARD - VERSION 2.0
WRAP. NO  : One line per depth step
DLM . SPACE : Column Data Section Delimiter
~Well ------------------------------------------------------
STRT.F          800 : START DEPTH
STOP.F       1756.5 : STOP DEPTH
STEP.F          0.5 : STEP
NULL.       -999.25 : NULL VALUE
COMP.                 WALSH & WATTS, INC. : COMPANY
WELL.                       SALMON D E 6D : WELL
FLD .                             REGULAR : FIELD
CNTY.                            MONTAGUE : COUNTY
STAT.                               TEXAS : STATE
CTRY.                                 USA : COUNTRY
SEC .                                     : SECTION
TWP .                                     : TOWNSHIP
RGE .                                     : RANGE
LOC .  460 FSL 755 FEL
F. ROBERTSON A-620 : LOCATION
EKB .F                      880 : ELEVATION KELLY BUSHING
EDF .F                      878 : ELEVATION DERRICK FLOOR
EGL .F                      874 : ELEVATION GROUND LEVEL
PDAT.                        GL : PERMANENT DATUM
EPD .                       874 : ELEVATION PERMANENT DATUM
APD .                           : ABOVE PERMANENT DATUM
LMF .                        KB : LOG MEASURED FROM
DMF .                        KB : DRILLING MEASURED FROM
API .            42337016430000 : API NUMBER
UWI .            42337016430000 : UWI NUMBER
DIGC.                     NthDS : DIGITIZING COMPANY
~Params ----------------------------------------------------
SRVC.              SCHLUMBERGER : LOGGING COMPANY
LOG .                   CNFD/ML : LOG
DATE.                2005-08-03 : RUN DATE
RUN .                         1 : RUN NUMBER
TDD .F                     1750 : TOTAL DEPTH DRILLER
TDL .F                     1750 : TOTAL DEPTH LOGGER
BOTL.F                     1750 : BOTTOM LOGGED INTERVAL
TOPL.F                      980 : TOP LOGGED INTERVAL
CSGS.IN                       7 : CASING SIZE
CSGD.F                      880 : CASING DRILLER
CSGL.F                      880 : CASING LOGGER
BS  .IN                     6.5 : BIT SIZE
MUD .                       FGM : MUD TYPE
MUDD.                       0.2 : MUD DENSITY
MUDV.                        80 : MUD VISCOSITY
PH  .                        11 : MUD PH
FL  .                         7 : FLUID LOSS
MUDS.                       PIT : SOURCE OF SAMPLE
RM  .OHMM                  1.70 : MUD RESISTIVITY
RMT .DEGF                    70 : RM TEMPERATURE
RMF .OHMM                  1.33 : MUD FILTRATE RESISTIVITY
RMFT.DEGF                    70 : RMF TEMPERATURE
RMC .OHMM                  2.67 : MUD CAKE RESISTIVITY
RMCT.DEGF                    70 : RMC TEMPERATURE
RMFS.                      MEAS : RMF SOURCE
RMCS.                       CAL : RMC SOURCE
RMBH.OHMM                  1.47 : MUD RESISTIVITY AT BHT
BHT .DEGF                    98 : BOTTOM HOLE TEMPERATURE
TIMC.                     2100  : TIME CIRCULATION STOPPED
TIML.                     0300  : TIME LOGGER ON BOTTOM
TMAX.DEGF                    98 : MAXIMUM RECORDED TEMPERATURE
UNIT.                       303 : EQUIPMENT NUMBER
BASE.                   WICHITA : BASE LOCATION
ENG .              DAVID PARKER : RECORDED BY
WIT .              MR. BURLESON : WITNESSED BY
~Curve Information -----------------------------------------
DEPT.F          :DEPTH
CALD.IN         :
DPHI.%          :
GRD.GAPI        :
MINV.OHMM       :
MNOR.OHMM       :
NPHI.%          :
~ASCII ------------------------------------------------------
# ...
1320.00000        5.80827       14.73994       77.72175        6.40780        5.49971       20.30269
1320.50000        5.76956       14.02332       78.52921        6.29077        5.23212       20.24878
1321.00000        5.77681       13.45104       78.62901        6.20418        5.41312       20.15011
1321.50000        5.81452       13.07414       80.14111        6.15113        5.51063       20.26143
1322.00000        5.81452       12.93610       79.90522        6.23538        5.47163       20.70281
1322.50000        5.81452       13.03812       78.56248        6.31886        5.37411       20.69012
1323.00000        5.83972       13.44703       78.80139        6.33290        5.40687       20.67742
1323.50000        5.88165       14.26486       80.54333        6.24241        5.19858       20.79588
1324.00000        5.91331       14.35739       81.35079        6.15269        5.21808       21.26182
1324.50000        5.90323       13.47466       80.74595        6.22836        5.35460       21.42949
1325.00000        5.89153       13.40900       79.95966        6.34538        5.24304       21.45205
1325.50000        5.86915       14.42457       76.69353        6.18155        5.33900       21.45125
1326.00000        5.85060       15.15659       74.69756        6.25177        5.47163       21.43499
1326.50000        5.83206       14.99205       74.77317        6.34616        5.53638       21.42229
1327.00000        5.81351       14.46249       75.90724        6.23538        5.70567       21.42267
1327.50000        5.79496       13.84592       74.81853        6.31652        6.11524       21.23484
1328.00000        5.77641       13.00789       73.10986        6.44680        6.26191       20.76490
1328.50000        5.75766       12.38341       74.24393        6.39453        6.20574       20.64840
1329.00000        5.73730       12.59742       75.37801        6.15113        6.09964       20.69514
1329.50000        5.71633       12.74017       76.51208        6.23538        6.03723       20.83023
1330.00000        5.69516       13.44688       77.47982        6.31886        6.00446       20.77118
1330.50000        5.67419       13.88782       77.21671        6.33992        5.95297       20.60633
1331.00000        5.65323       14.15199       74.71571        6.29077        5.83283       20.44189
1331.50000        5.65323       14.40271       72.22377        6.41248        5.49113       20.27704
1332.00000        5.65323       15.47088       69.73486        6.53496        5.44822       20.04246
1332.50000        5.65323       16.10403       67.43950        6.65666        5.61439       19.75201
1333.00000        5.65323       16.34960       65.47377        6.63950        5.78836       19.46196
1333.50000        5.65323       15.58671       60.93748        6.46397        6.17141       19.03877
1334.00000        5.65323       14.65771       57.15724        6.11758        6.60751       18.41668
1334.50000        5.65323       14.20724       55.64515        6.38439        7.04361       18.17933
1335.00000        5.65323       13.18610       54.13305        7.06077        7.30496       18.00814
1335.50000        5.67339       11.24191       53.34676        7.73638        7.09666       17.01122
1336.00000        5.70706       10.74794       54.95261        7.64510        6.75028       15.97309
1336.50000        5.71996       10.95001       56.97579        7.04283        6.54744       15.01104
1337.00000        5.72762       11.61203       58.79031        6.68085        6.40546       14.62708
1337.50000        5.74012       12.53704       61.41833        6.68085        6.30092       14.48878
1338.00000        5.77117       14.13088       65.26813        6.63794        6.19716       14.32956
1338.50000        5.80202       14.63985       69.20260        6.53184        6.15737       14.20791
1339.00000        5.82097       14.38870       73.48789        6.48581        6.21276       14.08664
1339.50000        5.83145       13.55858       77.77317        6.68085        6.26815       14.22095
1340.00000        5.84214       12.61969       79.43647        6.79787        6.21276       15.50906
1340.50000        5.85262       12.77747       81.10885        6.56382        6.05673       17.27265
1341.00000        5.85766       13.20932       81.27518        6.36879        6.02397       17.93354
1341.50000        5.86109       13.38213       79.11288        6.54588        5.99198       18.41256
1342.00000        5.86532       12.64098       74.64313        6.72375        6.17375       18.76518
1342.50000        5.86875       12.75012       70.65724        7.17467        6.49907       18.92762
1343.00000        5.87218       13.36863       68.64918        7.69503        6.72219       19.01121
1343.50000        5.87762       13.89777       67.13708        9.02127        6.54042       18.78059
1344.00000        5.89113       13.91397       66.22982        7.34943        6.35865       18.02140
1344.50000        5.90464       13.36068       67.96873        6.68085        6.21978       17.39456
1345.00000        5.91310       12.96953       68.88506        6.99290        6.25567       17.12313
1345.50000        5.90262       12.98178       69.55643        6.90553        6.29077       17.04545
1346.00000        5.89194       13.32622       72.71067        6.85638        6.02085       16.88061
1346.50000        5.88145       13.86050       78.32659        6.73624        5.75092       17.11880
1347.00000        5.87702       14.35523       81.01510        6.65510        5.65574       17.58157
1347.50000        5.88185       14.18555       83.52821        6.91489        5.82269       18.29833
1348.00000        5.88689       13.38706       85.03123        6.52482        5.98964       19.19180
1348.50000        5.89173       12.47784       85.28224        6.67148        6.01538       20.05239
1349.00000        5.89657       12.27660       82.66026        6.55056        5.94673       20.62730
1349.50000        5.90161       12.53404       84.80744        6.29077        5.87808       21.00409
1350.00000        5.90645       12.48026       86.99695        6.14801        5.82269       21.39694
1350.50000        5.91230       12.44109       84.97982        6.10042        5.74468       21.52914
1351.00000        5.91532       12.25362       86.56752        5.92645        5.74468       21.57900
1351.50000        5.91532       12.16502       87.39917        5.88276        5.74468       21.62887
1352.00000        5.91532       12.52133       88.20663        6.03255        5.82971       21.67873
1352.50000        5.91532       12.58380       90.76812        6.18311        5.93581       22.08486
1353.00000        5.91532       12.89502       92.99393        6.14333        5.87262       22.37817
1353.50000        5.90867       13.16314       93.74998        6.05673        5.69475       22.94343
1354.00000        5.90020       13.42058       90.72578        6.21276        5.64092       23.07563
1354.50000        5.89173       13.15599       91.02820        6.04581        5.74077       23.15525
1355.00000        5.88347       12.40496       89.85482        6.01772        5.72205       22.98423
1355.50000        5.87500       11.85167       88.53324        6.13475        5.70411       22.65288
1356.00000        5.87500       11.73340       87.66530        6.32978        5.68538       22.52818
1356.50000        5.87500       12.03039       87.09675        6.52482        5.66666       22.35517
1357.00000        5.87500       12.51207       84.85885        6.19950        5.72829       22.15050
1357.50000        5.87339       12.22494       82.28829        6.13475        5.78992       21.92485
1358.00000        5.86492       12.37758       80.54333        6.21276        5.85155       21.69880
1358.50000        5.85645       12.32852       79.89010        6.40780        5.87808       21.37696
1359.00000        5.88508       12.39811       78.62901        6.60283        5.76340       21.07055
1359.50000        5.92964       11.86262       79.83869        6.57007        5.64794       20.92249
