~Version ---------------------------------------------------
VERS. 2.0 : CWLS LOG ASCII STANDARD - VERSION 2.0
WRAP. NO  : One line per depth step
DLM . SPACE : Column Data Section Delimiter
~Well ------------------------------------------------------
STRT.F          500 : START DEPTH
STOP.F       2022.5 : STOP DEPTH
STEP.F          0.5 : STEP
NULL.       -999.25 : NULL VALUE
COMP.                 WALSH & WATTS, INC. : COMPANY
WELL.                          HYNDS A 10 : WELL
FLD .                           N. NOCONA : FIELD
CNTY.                            MONTAGUE : COUNTY
STAT.                               TEXAS : STATE
CTRY.                                 USA : COUNTRY
SEC .                                     : SECTION
TWP .                                     : TOWNSHIP
RGE .                                     : RANGE
LOC .  244' SE OF NO. 5A J.J. WALL SURVEY : LOCATION
EKB .F                    903.5 : ELEVATION KELLY BUSHING
EDF .F                          : ELEVATION DERRICK FLOOR
EGL .F                      897 : ELEVATION GROUND LEVEL
PDAT.                        GL : PERMANENT DATUM
EPD .                           : ELEVATION PERMANENT DATUM
APD .                         6 : ABOVE PERMANENT DATUM
LMF .                           : LOG MEASURED FROM
DMF .                           : DRILLING MEASURED FROM
API .            42337037830000 : API NUMBER
UWI .            42337037830000 : UWI NUMBER
DIGC.                     NthDS : DIGITIZING COMPANY
~Params ----------------------------------------------------
SRVC.                LANE WELLS : LOGGING COMPANY
LOG .                       GRN : LOG
DATE.                1957-11-30 : RUN DATE
RUN .                         1 : RUN NUMBER
TDD .F                     2039 : TOTAL DEPTH DRILLER
TDL .F                     2015 : TOTAL DEPTH LOGGER
BOTL.F                     2023 : BOTTOM LOGGED INTERVAL
TOPL.F                      500 : TOP LOGGED INTERVAL
CSGS.IN                     5.5 : CASING SIZE
CSGD.F                     2038 : CASING DRILLER
CSGL.F                          : CASING LOGGER
BS  .IN                    8.75 : BIT SIZE
MUD .                     WATER : MUD TYPE
MUDD.                           : MUD DENSITY
MUDV.                           : MUD VISCOSITY
PH  .                           : MUD PH
FL  .                           : FLUID LOSS
MUDS.                           : SOURCE OF SAMPLE
RM  .OHMM                       : MUD RESISTIVITY
RMT .DEGF                       : RM TEMPERATURE
RMF .OHMM                       : MUD FILTRATE RESISTIVITY
RMFT.DEGF                       : RMF TEMPERATURE
RMC .OHMM                       : MUD CAKE RESISTIVITY
RMCT.DEGF                       : RMC TEMPERATURE
RMFS.                           : RMF SOURCE
RMCS.                           : RMC SOURCE
RMBH.OHMM                       : MUD RESISTIVITY AT BHT
BHT .DEGF                       : BOTTOM HOLE TEMPERATURE
TIMC.                           : TIME CIRCULATION STOPPED
TIML.                           : TIME LOGGER ON BOTTOM
TMAX.DEGF                       : MAXIMUM RECORDED TEMPERATURE
UNIT.                           : EQUIPMENT NUMBER
BASE.                           : BASE LOCATION
ENG .                   ROBERTS : RECORDED BY
WIT .                       NIX : WITNESSED BY
~Curve Information -----------------------------------------
DEPT.F          :DEPTH
GRN.GAPI        :
NEUT.API        :
~ASCII ------------------------------------------------------
# ...
1392.00000       34.94493     2042.00536
1392.50000       33.43857     1989.61151
1393.00000       31.93220     1933.60429
1393.50000       32.31011     1895.66391
1394.00000       33.11839     1892.64675
1394.50000       33.76482     1976.96472
1395.00000       34.85972     2036.33237
1395.50000       35.97559     2044.89606
1396.00000       34.31461     2069.10563
1396.50000       32.33809     2068.20229
1397.00000       32.56500     2079.42180
1397.50000       32.42301     2058.78946
1398.00000       32.27288     2066.21493
1398.50000       33.97357     2062.90870
1399.00000       34.08293     2067.66028
1399.50000       32.90840     2091.14718
1400.00000       29.93953     2096.56723
1400.50000       28.70803     2131.43624
1401.00000       28.93494     2229.90055
1401.50000       25.40960     2350.94841
1402.00000       19.53344     2499.09655
1402.50000       15.64643     2647.24468
1403.00000       12.12109     2764.67917
1403.50000        9.77115     2800.81286
1404.00000       10.67635     2692.41179
1404.50000       13.29927     2567.75056
1405.00000       17.54968     2470.18959
1405.50000       21.89050     2329.26820
1406.00000       27.25573     2217.25376
1406.50000       31.29565     2101.62595
1407.00000       31.61297     2200.99360
1407.50000       28.88599     2329.26820
1408.00000       22.66355     2461.15617
1408.50000       17.46551     2618.33773
1409.00000       12.22227     2771.30971
1409.50000        9.57847     2808.03960
1410.00000        9.49345     2766.48586
1410.50000       10.14531     2780.21666
1411.00000       10.32701     2781.91494
1411.50000        9.19768     2804.84177
1412.00000        8.73743     2827.76860
1412.50000        9.24462     2836.63942
1413.00000        9.78816     2799.00618
1413.50000        9.78903     2783.95650
1414.00000        9.97073     2805.87158
1414.50000       10.19763     2843.81196
1415.00000       10.33413     2844.17329
1415.50000        9.43101     2886.63038
1416.00000        9.50404     2922.00526
1416.50000       10.15590     2906.19677
1417.00000       11.00034     2905.05856
1417.50000       11.92091     2922.22206
1418.00000       11.94891     2892.28530
1418.50000       14.32680     2789.52109
1419.00000       18.64321     2629.17783
1419.50000       22.83123     2485.29348
1420.00000       26.50931     2299.71084
1420.50000       30.92264     2182.92675
1421.00000       34.30505     2200.99360
1421.50000       34.45692     2217.01889
1422.00000       33.22180     2197.83190
1422.50000       32.96951     2202.07761
1423.00000       33.13312     2208.67201
1423.50000       32.15479     2234.41726
1424.00000       32.32112     2263.50488
1424.50000       31.80950     2272.66477
1425.00000       31.22176     2251.58077
1425.50000       32.49659     2219.06044
1426.00000       33.77141     2216.53109
1426.50000       32.73883     2193.40552
1427.00000       32.68816     2159.43985
1427.50000       32.93044     2221.89694
1428.00000       33.89514     2296.74788
1428.50000       33.59492     2275.06766
1429.00000       31.86993     2266.81112
1429.50000       30.43228     2291.32783
1430.00000       31.59680     2260.01798
1430.50000       33.68898     2242.02340
1431.00000       33.23777     2218.69911
1431.50000       34.86612     2222.99902
1432.00000       34.64638     2256.67562
1432.50000       33.18974     2286.50398
1433.00000       33.85607     2268.29260
1433.50000       34.32727     2232.06857
1434.00000       32.83628     2233.51392
1434.50000       31.34529     2184.73344
1435.00000       32.65719     2145.16705
1435.50000       33.13274     2178.77138
1436.00000       34.88586     2188.34681
1436.50000       34.36865     2200.99360
1437.00000       33.00695     2193.31519
1437.50000       33.65610     2172.98999
1438.00000       36.17341     2179.31338
1438.50000       37.81713     2172.08665
1439.00000       37.04947     2167.11826
1439.50000       38.16154     2141.15621
1440.00000       38.90472     2189.62955
1440.50000       37.39113     2245.07670
1441.00000       37.14335     2262.42087
1441.50000       36.90914     2242.54734
1442.00000       35.49952     2214.54373
1442.50000       35.80255     2214.41726
1443.00000       37.22476     2191.18330
1443.50000       36.71387     2193.76686
1444.00000       37.37477     2222.67381
1444.50000       36.81778     2224.66117
1445.00000       35.76440     2207.49766
1445.50000       35.13959     2200.27092
1446.00000       36.15763     2207.31699
1446.50000       35.88725     2206.41365
1447.00000       35.22555     2217.56090
1447.50000       35.09351     2240.88519
1448.00000       35.63687     2264.22756
1448.50000       36.18927     2238.41004
1449.00000       36.77784     2235.68194
1449.50000       37.11325     2248.32873
1450.00000       36.26954     2246.34138
1450.50000       35.98650     2236.19748
1451.00000       37.66023     2235.81983
1451.50000       38.46580     2236.52325
1452.00000       38.91242     2242.27171
1452.50000       39.30569     2230.99317
1453.00000       38.00276     2231.42633
1453.50000       38.11665     2234.11173
1454.00000       38.27936     2244.00086
1454.50000       37.05239     2240.37997
1455.00000       37.31456     2230.45278
1455.50000       36.73676     2224.12919
1456.00000       35.45390     2210.90472
1456.50000       35.18352     2189.86043
1457.00000       33.78295     2219.44668
1457.50000       32.38237     2231.26720
1458.00000       33.35159     2198.81754
1458.50000       33.51973     2187.98945
1459.00000       32.86689     2212.59928
1459.50000       33.16342     2193.35680
1460.00000       34.08653     2130.27656
1460.50000       35.00981     2107.73678
1461.00000       38.89855     2153.46715
1461.50000       39.09833     2209.50380
1462.00000       37.59830     2221.19819
1462.50000       35.74565     2200.09985
1463.00000       35.67689     2202.24471
1463.50000       35.19585     2202.22742
1464.00000       33.88026     2146.35092
1464.50000       34.98691     2173.36059
1465.00000       34.45721     2175.59555
1465.50000       34.63439     2163.59629
1466.00000       36.25551     2143.57903
1466.50000       37.12979     2134.78698
1467.00000       36.79070     2160.66153
1467.50000       37.35034     2138.53617
1468.00000       37.01215     2116.39279
1468.50000       36.65135     2135.70533
1469.00000       34.98857     2159.43573
1469.50000       32.81946     2145.25630
1470.00000       32.25992     2129.47327
1470.50000       34.06278     2150.03251
1471.00000       35.95514     2177.78093
1471.50000       34.54100     2205.54736
1472.00000       34.48762     2174.89949
1472.50000       34.51833     2171.27860
1473.00000       35.32299     2124.41455
1473.50000       35.54538     2162.23156
1474.00000       35.50844     2165.81786
1474.50000       36.46953     2181.42215
1475.00000       36.05991     2153.62113
1475.50000       36.62768     2173.87406
1476.00000       38.07520     2174.75767
1476.50000       37.66016     2210.77633
1477.00000       38.26410     2192.74106
1477.50000       36.98378     2168.97606
1478.00000       35.71249     2145.21106
1478.50000       36.48840     2159.66221
1479.00000       35.49469     2181.13690
1479.50000       34.37441     2177.93042
1480.00000       33.05520     2212.45360
1480.50000       32.42316     2209.55343
1481.00000       31.36888     2205.21182
1481.50000       32.87698     2178.16755
1482.00000       32.10931     2198.74480
1482.50000       31.47727     2196.81760
1483.00000       31.70418     2179.91746
1483.50000       29.53524     2235.44960
1484.00000       26.97463     2290.99976
1484.50000       24.74494     2322.79877
1485.00000       24.56498     2327.59227
1485.50000       26.37416     2270.81833
1486.00000       29.53958     2198.72910
1486.50000       32.70500     2122.13538
1487.00000       34.26102     2143.73966
1487.50000       35.21577     2123.90259
1488.00000       35.28462     2130.19158
1488.50000       33.88405     2147.73836
1489.00000       32.42832     2149.07241
1489.50000       33.28271     2152.65872
