~Version ---------------------------------------------------
VERS. 2.0 : CWLS LOG ASCII STANDARD - VERSION 2.0
WRAP. NO  : One line per depth step
DLM . SPACE : Column Data Section Delimiter
~Well ------------------------------------------------------
STRT.F          100 : START DEPTH
STOP.F       1786.5 : STOP DEPTH
STEP.F          0.5 : STEP
NULL.       -999.25 : NULL VALUE
COMP.                 WALSH & WATTS, INC. : COMPANY
WELL.                         SALMON E 41 : WELL
FLD .                        NORTH NOCONA : FIELD
CNTY.                            MONTAGUE : COUNTY
STAT.                               TEXAS : STATE
CTRY.                                 USA : COUNTRY
SEC .                                     : SECTION
TWP .                                     : TOWNSHIP
RGE .                                     : RANGE
LOC . 300' N OF NO. 40
150' W OF EL & 385' E OF NO. 87
F. ROBERTSON SURVEY : LOCATION
EKB .F                          : ELEVATION KELLY BUSHING
EDF .F                          : ELEVATION DERRICK FLOOR
EGL .F                      878 : ELEVATION GROUND LEVEL
PDAT.              GROUND LEVEL : PERMANENT DATUM
EPD .                       878 : ELEVATION PERMANENT DATUM
APD .                           : ABOVE PERMANENT DATUM
LMF .                        KB : LOG MEASURED FROM
DMF .                        KB : DRILLING MEASURED FROM
API .            42337037790000 : API NUMBER
UWI .            42337037790000 : UWI NUMBER
DIGC.                     NthDS : DIGITIZING COMPANY
~Params ----------------------------------------------------
SRVC.                LANE WELLS : LOGGING COMPANY
LOG .                       IEL : LOG
DATE.                1965-12-01 : RUN DATE
RUN .                         1 : RUN NUMBER
TDD .F                     1790 : TOTAL DEPTH DRILLER
TDL .F                     1791 : TOTAL DEPTH LOGGER
BOTL.F                     1787 : BOTTOM LOGGED INTERVAL
TOPL.F                      100 : TOP LOGGED INTERVAL
CSGS.IN                         : CASING SIZE
CSGD.F                          : CASING DRILLER
CSGL.F                          : CASING LOGGER
BS  .IN                       9 : BIT SIZE
MUD .                       GEL : MUD TYPE
MUDD.                        10 : MUD DENSITY
MUDV.                        80 : MUD VISCOSITY
PH  .                       9.0 : MUD PH
FL  .                       6.8 : FLUID LOSS
MUDS.                       PIT : SOURCE OF SAMPLE
RM  .OHMM                  1.95 : MUD RESISTIVITY
RMT .DEGF                    74 : RM TEMPERATURE
RMF .OHMM                   1.5 : MUD FILTRATE RESISTIVITY
RMFT.DEGF                    74 : RMF TEMPERATURE
RMC .OHMM                   2.3 : MUD CAKE RESISTIVITY
RMCT.DEGF                    74 : RMC TEMPERATURE
RMFS.                  MEASURED : RMF SOURCE
RMCS.                           : RMC SOURCE
RMBH.OHMM                   1.5 : MUD RESISTIVITY AT BHT
BHT .DEGF                    97 : BOTTOM HOLE TEMPERATURE
TIMC.                           : TIME CIRCULATION STOPPED
TIML.                           : TIME LOGGER ON BOTTOM
TMAX.DEGF                    97 : MAXIMUM RECORDED TEMPERATURE
UNIT.                    L-5172 : EQUIPMENT NUMBER
BASE.                      W.F. : BASE LOCATION
ENG .             ADAMS & BAKER : RECORDED BY
WIT .                   MR. NIX : WITNESSED BY
~Curve Information -----------------------------------------
DEPT.F          :DEPTH
CILD.MMHO       :
ILD.OHMM        :
ROP.FT/HR       :
SN.OHMM         :
SP.MV           :
~ASCII ------------------------------------------------------
# ...
1660.50000      542.29628        1.79991        1.02483        2.51278      -48.50910
1661.00000      573.32013        1.70173        1.02216        2.51377      -52.40490
1661.50000      587.47520        1.65718        1.01958        2.51460      -55.70070
1662.00000      589.21476        1.68138        1.01700        2.55504      -58.69650
1662.50000      576.54081        1.70558        0.86347        2.59547      -59.59230
1663.00000      553.18097        1.74165        0.78497        2.71511      -60.18811
1663.50000      524.18495        1.82605        0.78189        2.75554      -59.58393
1664.00000      499.27442        1.91004        0.77882        2.79597      -58.07974
1664.50000      490.69589        1.99444        1.01542        2.67799      -53.87473
1665.00000      482.10742        2.05031        1.01819        2.63922      -47.57057
1665.50000      483.49907        2.06461        1.02097        2.60045      -42.46640
1666.00000      489.46328        2.07851        1.02365        2.60127      -41.86222
1666.50000      497.76348        2.06983        1.51151        2.64171      -43.95802
1667.00000      509.57262        2.02631        1.51399        2.64254      -47.25382
1667.50000      536.18296        1.90413        1.51646        2.68314      -50.54962
1668.00000      566.50105        1.77308        1.51894        2.64436      -52.94542
1668.50000      577.33604        1.64203        1.39207        2.64519      -52.34123
1669.00000      566.60045        1.70742        1.00898        2.76483      -52.33620
1669.50000      534.87083        1.82230        1.01482        3.04289      -58.03199
1670.00000      498.92650        1.93719        1.02067        3.40015      -65.82777
1670.50000      462.72372        2.05208        1.18065        3.95543      -73.02355
1671.00000      444.08556        2.16697        1.49119        4.70873      -75.71935
1671.50000      437.37581        2.28185        1.49119        5.58100      -75.71516
1672.00000      434.39371        2.36823        1.49119        5.50262      -75.26098
1672.50000      444.04579        2.34054        1.98678        4.94900      -75.03179
1673.00000      472.11736        2.21702        2.48050        3.99934      -76.51559
1673.50000      524.18495        2.04953        2.47683        3.24771      -78.54840
1674.00000      576.25254        1.75350        2.47375        2.81290      -80.58120
1674.50000      628.33007        1.50681        1.46740        2.69491      -82.28917
1675.00000      673.95630        1.46803        0.79736        2.65614      -81.38498
1675.50000      666.00402        1.42926        0.79736        2.65697      -78.98080
1676.00000      619.36386        1.62811        0.79736        2.81621      -75.37663
1676.50000      550.19886        1.87012        0.79736        2.97546      -71.17246
1677.00000      481.03386        2.17709        0.79736        3.33272      -63.36830
1677.50000      399.60246        2.58108        0.79736        3.96721      -54.66415
1678.00000      315.10943        3.37398        0.79736        4.91852      -52.60113
1678.50000      238.27047        4.16688        0.96090        6.10763      -55.85493
1679.00000      192.04781        5.35005        1.01304        7.12231      -60.35072
1679.50000      152.02794        6.43205        1.01017        8.23204      -62.74652
1680.00000      136.79931        7.51723        1.00729        9.29820      -63.04233
1680.50000      118.53888        8.61310        2.00661       10.19011      -62.43814
1681.00000      104.84106        9.70857        2.00106       11.72258      -61.23396
1681.50000       97.23669       11.02362        1.99561       13.94715      -60.02978
1682.00000       89.64226       12.05057        1.99005       16.88221      -59.42559
1682.50000       82.03789       13.07753        2.46255       19.81727      -59.42140
1683.00000       75.29832       14.75320        2.46880       24.71891      -59.11638
1683.50000       68.77745       16.95893        2.47494       26.87041      -59.41219
1684.00000       62.25658       18.79697        2.48119       30.45887      -59.40800
1684.50000       58.01204       19.89997        2.96747       34.04733      -59.40381
1685.00000       55.30827       19.86238        2.96479       37.63579      -59.09962
1685.50000       53.43948       19.86875        2.96201       41.93877      -59.09543
1686.00000       53.04187       19.87513        2.95924       44.12130      -58.79124
1686.50000       52.64425       19.88190        3.46296       45.36919      -58.18706
1687.00000       52.24664       19.88963        3.45900       44.75967      -57.58287
1687.50000       51.84902       19.89600        3.45573       44.15015      -57.27785
1688.00000       52.68401       19.90237        3.86211       43.53667      -56.97366
1688.50000       54.34405       19.90643        4.47467       41.34300      -56.66947
1689.00000       57.73371       19.72542        4.47467       38.75330      -56.36528
1689.50000       61.55081       18.78091        4.47467       36.15964      -56.36110
1690.00000       65.37785       17.69779        4.47467       32.83331      -56.95690
1690.50000       69.96035       16.61467        3.96916       29.01193      -56.65272
1691.00000       73.78739       15.53155        3.96916       25.19452      -56.64853
1691.50000       78.69793       14.46268        3.96916       21.90203      -56.34350
1692.00000       83.88679       13.41521        3.46366       19.22624      -56.03931
1692.50000       89.07566       12.36773        3.46366       17.73520      -55.43513
1693.00000       94.26452       11.32025        3.46366       16.38951      -54.83094
1693.50000       98.40965       10.99910        3.46366       15.63787      -54.22676
1694.00000       98.40965       10.81577        3.21586       15.28227      -53.92257
1694.50000       98.83709       10.83878        2.96806       15.00587      -53.31838
1695.00000      100.96432       10.76357        2.96806       14.76908      -52.41420
1695.50000      103.51900       10.62302        2.96806       14.69070      -51.81001
1696.00000      103.73768       10.48207        3.33232       14.88955      -51.80498
1696.50000      102.67407       10.45478        3.45424       15.20738      -51.80080
1697.00000      101.60051       10.45561        3.45483       15.36662      -52.09661
1697.50000      103.87685       10.40495        3.45553       15.20903      -52.09242
1698.00000      107.60448       10.14836        3.45612       14.89303      -52.38823
1698.50000      113.81721        9.84305        3.45672       14.56397      -52.38404
1699.00000      120.02993        9.34210        3.45731       13.82540      -52.37985
1699.50000      126.24265        8.84115        3.45801       13.12920      -52.37566
1700.00000      127.90269        8.36709        3.45860       12.58074      -51.50559
1700.50000      136.95145        8.05540        3.46619       12.20782      -50.59693
1701.00000      145.53139        7.58125        3.46734       11.45319      -49.38791
1701.50000      156.70318        7.09263        3.46823       10.42023      -48.48010
1702.00000      169.61281        6.60400        3.46912        9.50656      -47.87348
1702.50000      182.52244        6.15991        3.47001        8.71217      -47.26687
1703.00000      195.43207        5.71581        3.47100        7.67922      -47.86507
1703.50000      207.37845        5.27172        3.47189        6.96435      -47.55966
1704.00000      221.86703        4.82763        3.14159        6.56757      -47.55546
1704.50000      236.34567        4.50083        2.47962        6.09127      -47.55125
1705.00000      253.72402        4.20345        2.47991        5.73426      -47.84825
1705.50000      268.20267        3.94584        2.48020        5.33748      -48.14441
1706.00000      279.04676        3.74787        2.48050        5.02022      -48.44141
1706.50000      288.97725        3.54989        2.00398        4.70313      -48.13600
1707.00000      297.35858        3.41173        2.00686        4.46540      -47.52938
