~Version ---------------------------------------------------
VERS. 2.0 : CWLS LOG ASCII STANDARD - VERSION 2.0
WRAP. NO  : One line per depth step
DLM . SPACE : Column Data Section Delimiter
~Well ------------------------------------------------------
STRT.F          780 : START DEPTH
STOP.F       1761.5 : STOP DEPTH
STEP.F          0.5 : STEP
NULL.       -999.25 : NULL VALUE
COMP.                 WALSH & WATTS, INC. : COMPANY
WELL.                         SALMON E 42 : WELL
FLD .                        NORTH NOCONA : FIELD
CNTY.                            MONTAGUE : COUNTY
STAT.                               TEXAS : STATE
CTRY.                                 USA : COUNTRY
SEC .                                     : SECTION
TWP .                                     : TOWNSHIP
RGE .                                     : RANGE
LOC . 150' FSL & 300' W OF WELL NO. 1, 407' E OF WELL NO. 5, F. ROBERTSON SURVEY : LOCATION
EKB .F                      880 : ELEVATION KELLY BUSHING
EDF .F                          : ELEVATION DERRICK FLOOR
EGL .F                      874 : ELEVATION GROUND LEVEL
PDAT.              GROUND LEVEL : PERMANENT DATUM
EPD .                       874 : ELEVATION PERMANENT DATUM
APD .                         6 : ABOVE PERMANENT DATUM
LMF .                        KB : LOG MEASURED FROM
DMF .                        KB : DRILLING MEASURED FROM
API .            42337037780000 : API NUMBER
UWI .            42337037780000 : UWI NUMBER
DIGC.                     NthDS : DIGITIZING COMPANY
~Params ----------------------------------------------------
SRVC.                LANE WELLS : LOGGING COMPANY
LOG .                        AC : LOG
DATE.                1965-11-21 : RUN DATE
RUN .                         1 : RUN NUMBER
TDD .F                     1766 : TOTAL DEPTH DRILLER
TDL .F                     1768 : TOTAL DEPTH LOGGER
BOTL.F                     1762 : BOTTOM LOGGED INTERVAL
TOPL.F                      790 : TOP LOGGED INTERVAL
CSGS.IN                         : CASING SIZE
CSGD.F                          : CASING DRILLER
CSGL.F                          : CASING LOGGER
BS  .IN                   7.875 : BIT SIZE
MUD .              CHEMICAL GEL : MUD TYPE
MUDD.                       9.8 : MUD DENSITY
MUDV.                       123 : MUD VISCOSITY
PH  .                           : MUD PH
FL  .                           : FLUID LOSS
MUDS.                CIRCULATED : SOURCE OF SAMPLE
RM  .OHMM                   2.1 : MUD RESISTIVITY
RMT .DEGF                    70 : RM TEMPERATURE
RMF .OHMM                  1.81 : MUD FILTRATE RESISTIVITY
RMFT.DEGF                    70 : RMF TEMPERATURE
RMC .OHMM                  2.34 : MUD CAKE RESISTIVITY
RMCT.DEGF                    70 : RMC TEMPERATURE
RMFS.                  MEASURED : RMF SOURCE
RMCS.                           : RMC SOURCE
RMBH.OHMM                   1.5 : MUD RESISTIVITY AT BHT
BHT .DEGF                    98 : BOTTOM HOLE TEMPERATURE
TIMC.                           : TIME CIRCULATION STOPPED
TIML.                           : TIME LOGGER ON BOTTOM
TMAX.DEGF                    98 : MAXIMUM RECORDED TEMPERATURE
UNIT.                    L-4553 : EQUIPMENT NUMBER
BASE.                      W.F. : BASE LOCATION
ENG .                     ADAMS : RECORDED BY
WIT .   MR. HARRELSON & MR. NIX : WITNESSED BY
~Curve Information -----------------------------------------
DEPT.F          :DEPTH
CALI.IN         :
DT.US/F         :
SP.MV           :
~ASCII ------------------------------------------------------
# ...
1285.00000        8.05541       68.01529      -39.19997
1285.50000        8.04558       69.88839      -39.20515
1286.00000        8.03594       69.33160      -38.91491
1286.50000        8.03830       72.99203      -38.32721
1287.00000        8.05198       76.65148      -37.73950
1287.50000        8.06587       79.75671      -37.44823
1288.00000        8.07955       75.89934      -37.45341
1288.50000        8.09344       67.71660      -37.45858
1289.00000        8.10712       65.83342      -37.46375
1289.50000        8.07694       66.74686      -37.76537
1290.00000        8.04675       71.80114      -38.95631
1290.50000        8.01656       76.85641      -40.44368
1291.00000        7.98638       82.05290      -41.93106
1291.50000        7.95619       82.75701      -43.41844
1292.00000        7.92600       83.46111      -44.31294
1292.50000        7.89582       88.56400      -44.91099
1293.00000        7.86563       86.78038      -45.21261
1293.50000        7.83564       80.74742      -45.21778
1294.00000        7.80546       77.42576      -45.81687
1294.50000        7.87006       73.20728      -46.71137
1295.00000        8.00806       68.99243      -48.79163
1295.50000        7.98894       64.76502      -52.35409
1296.00000        7.86507       70.62023      -55.32367
1296.50000        7.74121       81.28658      -59.18258
1297.00000        7.67288       93.91556      -62.74504
1297.50000        7.68795      103.72775      -67.19683
1298.00000        7.70322      107.97881      -71.94505
1298.50000        7.71829      105.25238      -76.69328
1299.00000        7.73336      104.37614      -79.96034
1299.50000        7.74843      103.50090      -81.15127
1300.00000        7.81817      103.18582      -79.74353
1300.50000        7.81684      103.30846      -80.04514
1301.00000        7.81550      104.36518      -80.34676
1301.50000        7.81410      105.21990      -81.24125
1302.00000        7.81277      106.02388      -82.72863
1302.50000        7.81144      106.37911      -84.21601
1303.00000        7.81010      104.94229      -86.29730
1303.50000        7.80897      102.20896      -87.48824
1304.00000        7.80763       99.09155      -88.08630
1304.50000        7.80630       95.97314      -88.09147
1305.00000        7.80470       96.81593      -87.20732
1305.50000        7.80337      100.29851      -85.73029
1306.00000        7.80223      102.66170      -83.95682
1306.50000        7.80090      100.12438      -80.99862
1307.00000        7.79957      100.73632      -79.52159
1307.50000        7.79823      100.24876      -77.74812
1308.00000        7.79710       99.71543      -76.27109
1308.50000        7.79550      100.78209      -76.27626
1309.00000        7.79417       99.32339      -76.28144
1309.50000        7.79283       96.81593      -75.69373
1310.00000        7.79150       94.72637      -73.62382
1310.50000        7.79036       97.01493      -69.47882
1311.00000        7.78903       99.30349      -65.33486
1311.50000        7.78770      100.41294      -62.96851
1312.00000        7.78610      101.52339      -63.86300
1312.50000        7.78496      101.42588      -68.31479
1313.00000        7.78363      100.25473      -74.24878
1313.50000        7.78230      101.13831      -83.44362
1314.00000        7.78096      100.64677      -87.30356
1314.50000        7.77963      100.32140      -87.30873
1315.00000        7.77850      101.62289      -85.83170
1315.50000        7.77690      102.92339      -84.94755
1316.00000        7.77556      102.50150      -84.06340
1316.50000        7.77423      101.12438      -84.66146
1317.00000        7.77309       98.78607      -85.25951
1317.50000        7.77176       97.11443      -84.96928
1318.00000        7.77043       98.10946      -83.78869
1318.50000        7.76909       98.90548      -81.71878
1319.00000        7.76750       97.03782      -78.46311
1319.50000        7.76636       94.70349      -75.20743
1320.00000        7.76503       92.68657      -70.17311
1320.50000        7.80618       94.43881      -62.86509
1321.00000        7.91137       96.81593      -56.54718
1321.50000        8.01636       95.67861      -47.65913
1322.00000        8.06068       94.31443      -41.14261
1322.50000        8.01389       93.17712      -38.77625
1323.00000        7.95755       92.03981      -37.89314
1323.50000        7.93112       92.78608      -37.30543
1324.00000        7.98552       92.94926      -37.31061
1324.50000        8.04011       92.23881      -37.90866
1325.00000        8.09471       93.19603      -38.50672
1325.50000        8.12322       94.34329      -39.10477
1326.00000        8.13414       94.50249      -40.29571
1326.50000        8.14756       94.12936      -41.78412
1327.00000        8.15848       93.75622      -43.86438
1327.50000        8.16959       93.38309      -44.46244
1328.00000        8.16312       93.00996      -45.06049
1328.50000        8.14519       93.88060      -45.65855
1329.00000        8.12725       95.99503      -45.96016
1329.50000        8.10932       98.10946      -46.26281
1330.00000        8.08756       98.49652      -46.26799
1330.50000        8.07319       98.47662      -46.27316
1331.00000        8.07284       96.83085      -47.16766
1331.50000        8.07250       94.85672      -47.46927
1332.00000        8.07215       95.80100      -47.77089
1332.50000        8.07181       96.71642      -48.66538
1333.00000        8.07146       97.46269      -50.15380
1333.50000        8.03923       98.63583      -51.04829
1334.00000        7.99896       98.77015      -51.34991
1334.50000        7.95870       96.87065      -51.35508
1335.00000        7.91843       96.01991      -51.06381
1335.50000        7.87837       96.82488      -49.88322
1336.00000        7.83810       98.00100      -49.59196
1336.50000        7.79783       98.36319      -48.70884
1337.00000        7.74959       97.50349      -48.12114
1337.50000        7.70933       96.81593      -48.42275
1338.00000        7.66906       98.07861      -48.72437
1338.50000        7.62900      100.18408      -49.02598
1339.00000        7.63142      102.28856      -48.73471
1339.50000        7.66269      102.90249      -48.44345
1340.00000        7.69377      101.49254      -48.74610
1340.50000        7.73110      100.08259      -49.04771
1341.00000        7.72977      100.42289      -49.05288
1341.50000        7.70531      100.32339      -48.46518
1342.00000        7.70576       99.14130      -46.98815
1342.50000        7.88506      100.32040      -45.21468
1343.00000        8.06436      102.08956      -45.21985
1343.50000        8.02943       99.52538      -44.92858
1344.00000        7.99450       96.44876      -44.34191
1344.50000        7.95258       96.46767      -44.05064
1345.00000        7.93168       97.79404      -43.46294
1345.50000        7.96652       98.49951      -42.57879
1346.00000        8.00155       99.20399      -40.80532
1346.50000        8.01899      100.19901      -39.62473
1347.00000        8.01054      100.39801      -38.14770
1347.50000        8.00190      100.34826      -36.96711
1348.00000        8.02777       99.27065      -36.08399
1348.50000        8.04066       98.40797      -35.19984
1349.00000        8.04032       98.54030      -34.61214
1349.50000        8.03997       99.20399      -34.32087
1350.00000        8.07099       99.86767      -34.61508
1350.50000        8.07065       98.18806      -35.50781
1351.00000        8.07030       96.37513      -37.28812
1351.50000        8.06996       95.19901      -38.77359
1352.00000        8.06955       96.56717      -38.77876
1352.50000        8.06920       97.93533      -38.48806
1353.00000        8.06886       99.30349      -38.19737
1353.50000        8.06851       98.66369      -37.31497
1354.00000        8.05772       98.15125      -36.43256
1354.50000        8.03094      100.19105      -36.14187
1355.00000        8.00437      101.89055      -36.73875
1355.50000        8.01921       99.56916      -38.52008
1356.00000        8.11189       97.24677      -40.30038
