~Version ---------------------------------------------------
VERS. 2.0 : CWLS LOG ASCII STANDARD - VERSION 2.0
WRAP. NO  : One line per depth step
DLM . SPACE : Column Data Section Delimiter
~Well ------------------------------------------------------
STRT.F          194 : START DEPTH
STOP.F       1764.0 : STOP DEPTH
STEP.F          0.5 : STEP
NULL.       -999.25 : NULL VALUE
COMP.                 WALSH & WATTS, INC. : COMPANY
WELL.                         SALMON E 42 : WELL
FLD .                        NORTH NOCONA : FIELD
CNTY.                            MONTAGUE : COUNTY
STAT.                               TEXAS : STATE
CTRY.                                 USA : COUNTRY
SEC .                                     : SECTION
TWP .                                     : TOWNSHIP
RGE .                                     : RANGE
LOC . 150' FSL & 300' W OF WELL NO. 1, 407' E OF WELL NO. 5, F. ROBERTSON SURVEY : LOCATION
EKB .F                      880 : ELEVATION KELLY BUSHING
EDF .F                          : ELEVATION DERRICK FLOOR
EGL .F                      874 : ELEVATION GROUND LEVEL
PDAT.              GROUND LEVEL : PERMANENT DATUM
EPD .                       874 : ELEVATION PERMANENT DATUM
APD .                         6 : ABOVE PERMANENT DATUM
LMF .                        KB : LOG MEASURED FROM
DMF .                        KB : DRILLING MEASURED FROM
API .            42337037780000 : API NUMBER
UWI .            42337037780000 : UWI NUMBER
DIGC.                     NthDS : DIGITIZING COMPANY
~Params ----------------------------------------------------
SRVC.                LANE WELLS : LOGGING COMPANY
LOG .                       IEL : LOG
DATE.                1965-11-21 : RUN DATE
RUN .                         1 : RUN NUMBER
TDD .F                     1766 : TOTAL DEPTH DRILLER
TDL .F                     1768 : TOTAL DEPTH LOGGER
BOTL.F                     1764 : BOTTOM LOGGED INTERVAL
TOPL.F                      200 : TOP LOGGED INTERVAL
CSGS.IN                         : CASING SIZE
CSGD.F                          : CASING DRILLER
CSGL.F                          : CASING LOGGER
BS  .IN                   7.875 : BIT SIZE
MUD .              CHEMICAL GEL : MUD TYPE
MUDD.                       9.8 : MUD DENSITY
MUDV.                       123 : MUD VISCOSITY
PH  .                           : MUD PH
FL  .                           : FLUID LOSS
MUDS.                CIRCULATED : SOURCE OF SAMPLE
RM  .OHMM                   2.1 : MUD RESISTIVITY
RMT .DEGF                    70 : RM TEMPERATURE
RMF .OHMM                  1.81 : MUD FILTRATE RESISTIVITY
RMFT.DEGF                    70 : RMF TEMPERATURE
RMC .OHMM                  2.34 : MUD CAKE RESISTIVITY
RMCT.DEGF                    70 : RMC TEMPERATURE
RMFS.                  MEASURED : RMF SOURCE
RMCS.                           : RMC SOURCE
RMBH.OHMM                   1.5 : MUD RESISTIVITY AT BHT
BHT .DEGF                    98 : BOTTOM HOLE TEMPERATURE
TIMC.                           : TIME CIRCULATION STOPPED
TIML.                           : TIME LOGGER ON BOTTOM
TMAX.DEGF                    98 : MAXIMUM RECORDED TEMPERATURE
UNIT.                    L-4553 : EQUIPMENT NUMBER
BASE.                      W.F. : BASE LOCATION
ENG .                     ADAMS : RECORDED BY
WIT .   MR. HARRELSON & MR. NIX : WITNESSED BY
~Curve Information -----------------------------------------
DEPT.F          :DEPTH
CILD.MMHO       :
ILD.OHMM        :
ROP.MIN/FT      :
SN.OHMM         :
SP.MV           :
~ASCII ------------------------------------------------------
# ...
1518.50000      411.94037        2.48521        -999.25        3.35306      -41.20547
1519.00000      410.94535        2.44576        -999.25        3.35306      -40.90128
1519.50000      410.94535        2.48521        -999.25        3.35306      -40.30064
1520.00000      410.94535        2.44576        -999.25        3.35306      -40.88575
1520.50000      411.94037        2.44576        -999.25        3.31361      -41.47087
1521.00000      410.94535        2.40631        -999.25        3.35306      -41.16667
1521.50000      410.94535        2.44576        -999.25        3.31361      -40.86092
1522.00000      410.94535        2.44576        -999.25        3.35306      -40.85316
1522.50000      410.94535        2.44576        -999.25        3.35306      -40.84540
1523.00000      410.94535        2.44576        -999.25        3.31361      -41.13408
1523.50000      410.94535        2.44576        -999.25        3.35306      -41.12631
1524.00000      410.94535        2.44576        -999.25        3.35306      -41.11855
1524.50000      410.94535        2.44576        -999.25        3.35306      -40.22148
1525.00000      407.96027        2.48521        -999.25        3.35306      -39.91728
1525.50000      407.96027        2.48521        -999.25        3.35306      -39.61153
1526.00000      407.96027        2.40631        -999.25        3.39250      -39.90020
1526.50000      406.96525        2.48521        -999.25        3.39250      -40.18888
1527.00000      405.97022        2.48521        -999.25        3.39250      -39.88468
1527.50000      405.97022        2.48521        -999.25        3.39250      -39.58048
1528.00000      404.97520        2.48521        -999.25        3.39250      -38.97985
1528.50000      402.98515        2.48521        -999.25        3.39250      -38.97208
1529.00000      401.99012        2.48521        -999.25        3.39250      -38.96432
1529.50000      401.99012        2.48521        -999.25        3.43195      -39.25145
1530.00000      403.98017        2.48521        -999.25        3.39250      -39.54013
1530.50000      404.97520        2.48521        -999.25        3.39250      -39.82880
1531.00000      405.97022        2.44576        -999.25        3.39250      -39.52461
1531.50000      406.96525        2.44576        -999.25        3.39250      -38.62753
1532.00000      408.95530        2.44576        -999.25        3.35306      -38.02689
1532.50000      411.94037        2.48521        -999.25        3.35306      -38.01913
1533.00000      412.93540        2.44576        -999.25        3.35306      -38.60425
1533.50000      413.93042        2.44576        -999.25        3.31361      -39.78224
1534.00000      415.92047        2.40631        -999.25        3.31361      -42.14443
1534.50000      417.91052        2.44576        -999.25        3.27416      -43.02599
1535.00000      419.90057        2.40631        -999.25        3.27416      -43.61111
1535.50000      420.89559        2.40631        -999.25        3.31361      -43.01047
1536.00000      423.88067        2.36686        -999.25        3.27416      -42.40983
1536.50000      424.87569        2.40631        -999.25        3.27416      -42.69851
1537.00000      425.87072        2.36686        -999.25        3.23471      -42.69075
1537.50000      426.86574        2.36686        -999.25        3.23471      -42.09011
1538.00000      425.87072        2.36686        -999.25        3.23471      -42.37723
1538.50000      424.87569        2.36686        -999.25        3.23471      -42.36947
1539.00000      423.88067        2.40631        -999.25        3.23471      -42.06527
1539.50000      422.88564        2.40631        -999.25        3.27416      -41.76108
1540.00000      422.88564        2.40631        -999.25        3.27416      -41.75331
1540.50000      423.88067        2.40631        -999.25        3.27416      -41.15268
1541.00000      422.88564        2.40631        -999.25        3.27416      -40.84848
1541.50000      422.88564        2.40631        -999.25        3.23471      -40.24784
1542.00000      423.88067        2.36686        -999.25        3.27416      -39.64565
1542.50000      423.88067        2.40631        -999.25        3.23471      -39.34145
1543.00000      424.87569        2.36686        -999.25        3.23471      -39.03725
1543.50000      425.87072        2.36686        -999.25        3.27416      -39.02949
1544.00000      426.86574        2.36686        -999.25        3.23471      -39.02173
1544.50000      428.85579        2.36686        -999.25        3.23471      -39.01397
1545.00000      428.85579        2.36686        -999.25        3.23471      -38.11689
1545.50000      428.85579        2.36686        -999.25        3.23471      -37.51625
1546.00000      428.85579        2.36686        -999.25        3.19527      -36.61763
1546.50000      428.85579        2.36686        -999.25        3.19527      -36.31343
1547.00000      427.86077        2.36686        -999.25        3.19527      -36.60210
1547.50000      426.86574        2.36686        -999.25        3.23471      -37.48366
1548.00000      424.87569        2.36686        -999.25        3.23471      -38.36521
1548.50000      422.88564        2.40631        -999.25        3.27416      -39.54321
1549.00000      420.89559        2.36686        -999.25        3.31361      -39.83188
1549.50000      419.90057        2.40631        -999.25        3.31361      -39.52768
1550.00000      419.90057        2.40631        -999.25        3.35306      -39.13046
1550.50000      421.05270        2.44576        -999.25        3.35306      -39.13046
1551.00000      421.05270        2.44576        -999.25        3.39250      -38.83402
1551.50000      422.04575        2.44576        -999.25        3.39250      -39.72335
1552.00000      423.03880        2.44576        -999.25        3.39250      -40.31623
1552.50000      424.03185        2.40631        -999.25        3.39250      -40.90912
1553.00000      424.03185        2.40631        -999.25        3.35306      -41.79845
1553.50000      424.03185        2.40631        -999.25        3.35306      -42.09489
1554.00000      427.01099        2.40631        -999.25        3.35306      -42.39133
1554.50000      432.96928        2.36686        -999.25        3.35306      -42.68777
1555.00000      443.89282        2.24852        -999.25        3.39250      -42.98422
1555.50000      459.78160        2.16962        -999.25        3.43195      -43.57710
1556.00000      485.60086        2.05128        -999.25        3.47140      -45.65220
1556.50000      509.43402        2.01183        -999.25        3.51085      -48.61663
1557.00000      529.29499        1.97239        -999.25        3.51085      -51.28461
1557.50000      541.21158        1.89349        -999.25        3.55029      -56.32413
1558.00000      540.21853        1.97239        -999.25        3.55029      -63.14231
1558.50000      530.28804        1.97239        -999.25        3.47140      -70.84982
1559.00000      516.38536        2.01183        -999.25        3.35306      -74.70358
1559.50000      497.51744        2.09073        -999.25        3.27416      -74.11069
1560.00000      470.70513        2.24852        -999.25        3.35306      -71.73915
1560.50000      444.88587        2.32742        -999.25        3.70809      -64.03164
1561.00000      426.01794        2.40631        -999.25        3.94477      -55.73125
1561.50000      416.08746        2.44576        -999.25        3.94477      -49.20951
1562.00000      413.10831        2.44576        -999.25        3.82643      -43.28066
1562.50000      417.08051        2.44576        -999.25        3.66864      -41.50200
1563.00000      421.05270        2.40631        -999.25        3.62919      -40.90912
1563.50000      424.03185        2.44576        -999.25        3.55029      -40.01979
1564.00000      425.02490        2.40631        -999.25        3.51085      -39.13046
1564.50000      424.03185        2.40631        -999.25        3.47140      -38.24113
1565.00000      423.03880        2.40631        -999.25        3.43195      -37.35181
