~Version ---------------------------------------------------
VERS. 2.0 : CWLS LOG ASCII STANDARD - VERSION 2.0
WRAP. NO  : One line per depth step
DLM . SPACE : Column Data Section Delimiter
~Well ------------------------------------------------------
STRT.F         98.5 : START DEPTH
STOP.F       1003.5 : STOP DEPTH
STEP.F          0.5 : STEP
NULL.       -999.25 : NULL VALUE
COMP.                       WALSH & WATTS : COMPANY
WELL.                          SALMON D 8 : WELL
FLD .                          OLD NOCOMA : FIELD
CNTY.                            MONTAGUE : COUNTY
STAT.                               TEXAS : STATE
CTRY.                                 USA : COUNTRY
SEC .                                     : SECTION
TWP .                                     : TOWNSHIP
RGE .                                     : RANGE
LOC .                          OLD NOCOMA : LOCATION
EKB .F                          : ELEVATION KELLY BUSHING
EDF .F                      855 : ELEVATION DERRICK FLOOR
EGL .F                          : ELEVATION GROUND LEVEL
PDAT.                        RT : PERMANENT DATUM
EPD .                           : ELEVATION PERMANENT DATUM
APD .                         4 : ABOVE PERMANENT DATUM
LMF .                           : LOG MEASURED FROM
DMF .                           : DRILLING MEASURED FROM
API .            42337016420000 : API NUMBER
UWI .            42337016420000 : UWI NUMBER
DIGC.                     NthDS : DIGITIZING COMPANY
~Params ----------------------------------------------------
SRVC.              SCHLUMBERGER : LOGGING COMPANY
LOG .                        EL : LOG
DATE.                1948-12-15 : RUN DATE
RUN .                         1 : RUN NUMBER
TDD .F                          : TOTAL DEPTH DRILLER
TDL .F                          : TOTAL DEPTH LOGGER
BOTL.F                     1005 : BOTTOM LOGGED INTERVAL
TOPL.F                     1004 : TOP LOGGED INTERVAL
CSGS.IN                         : CASING SIZE
CSGD.F                          : CASING DRILLER
CSGL.F                          : CASING LOGGER
BS  .IN                       9 : BIT SIZE
MUD .                   AQUAGEL : MUD TYPE
MUDD.                      10.2 : MUD DENSITY
MUDV.                        40 : MUD VISCOSITY
PH  .                           : MUD PH
FL  .                           : FLUID LOSS
MUDS.                           : SOURCE OF SAMPLE
RM  .OHMM                    .8 : MUD RESISTIVITY
RMT .DEGF                    65 : RM TEMPERATURE
RMF .OHMM                       : MUD FILTRATE RESISTIVITY
RMFT.DEGF                       : RMF TEMPERATURE
RMC .OHMM                       : MUD CAKE RESISTIVITY
RMCT.DEGF                       : RMC TEMPERATURE
RMFS.                           : RMF SOURCE
RMCS.                           : RMC SOURCE
RMBH.OHMM                       : MUD RESISTIVITY AT BHT
BHT .DEGF                       : BOTTOM HOLE TEMPERATURE
TIMC.                           : TIME CIRCULATION STOPPED
TIML.                           : TIME LOGGER ON BOTTOM
TMAX.DEGF                       : MAXIMUM RECORDED TEMPERATURE
UNIT.                       201 : EQUIPMENT NUMBER
BASE.                           : BASE LOCATION
ENG .                    LITTLE : RECORDED BY
WIT .                 MR. WATTS : WITNESSED BY
~Curve Information -----------------------------------------
DEPT.F          :DEPTH
ILD.OHMM        :
LAT.OHMM        :
SN.OHMM         :
SP.MV           :
~ASCII ------------------------------------------------------
# ...
961.00000        2.83130        1.54906        3.35535      -57.84601
961.50000        6.91247        1.43923        3.63653      -56.69817
962.00000        8.37633        1.34455        3.63964      -55.97532
962.50000        8.05503        1.27125        3.68731      -56.95242
963.00000        6.43813        1.19884        3.91324      -57.29740
963.50000        4.89671        1.26010        4.13916      -56.69240
964.00000        4.25367        1.32047        3.94530      -56.08383
964.50000        3.97872        1.38173        3.18373      -56.62881
965.00000        3.70287        2.12555        2.97918      -57.17736
965.50000        3.44663        2.73928        2.91456      -57.72233
966.00000        3.26793        3.32004        2.82320      -58.09117
966.50000        3.08833        3.29130        2.62756      -56.97661
967.00000        2.90874        3.11108        2.43281      -55.77163
967.50000        2.73004        2.92996        2.23807      -54.57021
968.00000        2.72513        2.74973        2.19127      -53.36880
968.50000        2.76389        2.61495        2.24429      -53.68878
969.00000        2.80265        2.54968        2.29642      -55.32187
969.50000        2.84141        2.48440        2.34944      -55.23829
970.00000        2.88017        2.41913        2.40246      -52.58805
970.50000        2.86278        2.42514        2.44211      -49.96525
971.00000        2.83202        2.53808        2.43007      -47.34244
971.50000        2.81464        2.65102        2.41803      -47.75885
972.00000        2.85162        2.72921        2.40689      -50.17520
972.50000        2.88949        2.66660        2.39485      -53.02256
973.00000        2.92646        2.60489        2.38280      -55.01036
973.50000        2.96433        2.60912        2.39215      -55.95175
974.00000        3.00131        2.71404        2.48439      -56.88957
974.50000        2.94114        2.81807        2.53652      -56.77385
975.00000        2.88009        2.79913        2.42823      -55.94743
975.50000        2.79675        2.74900        2.31993      -55.12458
976.00000        2.62161        2.69888        2.45940      -54.30173
976.50000        2.44647        2.64964        2.66037      -53.21103
977.00000        2.27133        2.59951        2.63140      -50.77036
977.50000        2.15680        2.63671        2.60331      -47.18686
978.00000        2.28379        2.73183        2.60019      -47.74612
978.50000        2.41079        2.82784        2.69955      -50.91246
979.00000        2.53689        2.92296        2.79981      -55.36449
979.50000        2.39919        2.91382        2.90006      -57.64871
980.00000        2.14678        2.87795        3.00032      -58.55439
980.50000        2.50639        2.84208        2.93124      -55.97086
981.00000        2.65834        2.80710        2.78757      -52.34808
981.50000        2.80939        2.77123        2.60708      -48.62887
982.00000        2.96134        2.73536        2.42660      -46.14891
982.50000        2.96445        2.70038        2.54468      -48.63670
983.00000        2.86596        2.80174        2.66276      -50.33879
983.50000        2.61418        2.99398        2.78084      -49.65879
984.00000        2.36239        3.18623        2.89892      -52.02873
984.50000        2.17478        3.48719        3.01700      -56.58075
985.00000        2.02905        3.81577        3.13509      -60.62564
985.50000        1.87352        4.14436        3.27367      -62.65630
986.00000        1.67343        4.47205        3.41759      -60.98704
986.50000        1.47423        4.80063        3.56152      -58.39637
987.00000        1.52725        5.12921        3.70545      -58.56278
987.50000        1.57938        5.19582        4.21033      -61.58627
988.00000        1.63240        5.19737        4.95941      -65.41331
988.50000        1.74157        5.19893        6.07658      -71.20459
989.00000        1.93540        5.20048        7.81824      -75.83519
989.50000        2.89304        5.20204       10.14838      -81.96575
990.00000        3.46922        5.29270       12.77710      -89.38442
990.50000        3.79050        5.73980       16.60008     -103.30051
991.00000        4.11268        6.18690       20.42306     -109.61321
991.50000        4.58280        6.96815       23.95968     -112.66527
992.00000        5.09125        7.97217       26.03137     -114.45307
992.50000        5.59970        9.75590       28.10395     -115.42661
993.00000        6.59476       11.53962       29.27816     -116.06444
993.50000        7.20926       12.78869       30.59585     -116.90226
994.00000        8.29435       13.49064       33.54363     -118.04722
994.50000        9.07730       13.88694       37.15779     -119.18861
995.00000        9.46988       13.56949       39.13947     -120.33357
995.50000        9.48012       12.69066       39.33865     -120.71784
996.00000        9.23814       12.61825       37.41400     -120.70925
996.50000        8.95784       13.25069       35.37911     -119.13642
997.00000        8.45918       13.88403       30.41710     -117.28502
997.50000        7.81346       14.62785       26.51656     -115.24792
998.00000        7.24974       15.23802       23.84978     -113.21438
998.50000        6.58442       15.44541       22.13724     -112.65938
999.00000        5.77026       15.28836       20.80349     -114.40433
999.50000        5.08444       15.13041       19.86188     -115.61357
1000.00000        4.67677       14.97012       18.96662     -116.85436
1000.50000        4.23028       15.12968       18.11546     -116.92345
1001.00000        3.78379       15.52769       17.26430     -116.55947
1001.50000        3.33730       16.00099       16.53005     -116.01067
1002.00000        3.09045       16.22510       15.94867     -114.48475
1002.50000        2.75906       16.22510       15.55614     -112.65507
1003.00000        2.17768       16.22510       16.02689     -111.12915
1003.50000        1.64189       16.22510       17.26714        -999.25
