~Version ---------------------------------------------------
VERS. 2.0 : CWLS LOG ASCII STANDARD - VERSION 2.0
WRAP. NO  : One line per depth step
DLM . SPACE : Column Data Section Delimiter
~Well ------------------------------------------------------
STRT.F          230 : START DEPTH
STOP.F       1777.5 : STOP DEPTH
STEP.F          0.5 : STEP
NULL.       -999.25 : NULL VALUE
COMP.         WALSH & WATTS, INCORPORATED : COMPANY
WELL.                         SALMON E 44 : WELL
FLD .                             REGULAR : FIELD
CNTY.                            MONTAGUE : COUNTY
STAT.                               TEXAS : STATE
CTRY.                                 USA : COUNTRY
SEC .                                     : SECTION
TWP .                                     : TOWNSHIP
RGE .                                     : RANGE
LOC . 300' WEST OF NO 23, 300' SOUTH OF D-9, F.ROBERTSON SURV. : LOCATION
EKB .F                      862 : ELEVATION KELLY BUSHING
EDF .F                          : ELEVATION DERRICK FLOOR
EGL .F                      856 : ELEVATION GROUND LEVEL
PDAT.                        GL : PERMANENT DATUM
EPD .                       856 : ELEVATION PERMANENT DATUM
APD .                         6 : ABOVE PERMANENT DATUM
LMF .                        KB : LOG MEASURED FROM
DMF .                        KB : DRILLING MEASURED FROM
API .            42337038720000 : API NUMBER
UWI .                           : UWI NUMBER
DIGC.                     NthDS : DIGITIZING COMPANY
~Params ----------------------------------------------------
SRVC.              SCHLUMBERGER : LOGGING COMPANY
LOG .                       IEL : LOG
DATE.                1965-11-28 : RUN DATE
RUN .                         1 : RUN NUMBER
TDD .F                     1779 : TOTAL DEPTH DRILLER
TDL .F                     1779 : TOTAL DEPTH LOGGER
BOTL.F                     1778 : BOTTOM LOGGED INTERVAL
TOPL.F                          : TOP LOGGED INTERVAL
CSGS.IN                         : CASING SIZE
CSGD.F                          : CASING DRILLER
CSGL.F                          : CASING LOGGER
BS  .IN                   7.875 : BIT SIZE
MUD .                       GEL : MUD TYPE
MUDD.                        10 : MUD DENSITY
MUDV.                       9.8 : MUD VISCOSITY
PH  .                           : MUD PH
FL  .                           : FLUID LOSS
MUDS.                CIRCULATED : SOURCE OF SAMPLE
RM  .OHMM                   2.0 : MUD RESISTIVITY
RMT .DEGF                    81 : RM TEMPERATURE
RMF .OHMM                   1.5 : MUD FILTRATE RESISTIVITY
RMFT.DEGF                    81 : RMF TEMPERATURE
RMC .OHMM                       : MUD CAKE RESISTIVITY
RMCT.DEGF                       : RMC TEMPERATURE
RMFS.                         M : RMF SOURCE
RMCS.                           : RMC SOURCE
RMBH.OHMM                   1.6 : MUD RESISTIVITY AT BHT
BHT .DEGF                   100 : BOTTOM HOLE TEMPERATURE
TIMC.                           : TIME CIRCULATION STOPPED
TIML.                           : TIME LOGGER ON BOTTOM
TMAX.DEGF                   100 : MAXIMUM RECORDED TEMPERATURE
UNIT.                      4559 : EQUIPMENT NUMBER
BASE.                       WFS : BASE LOCATION
ENG .                      FINK : RECORDED BY
WIT .                       NIX : WITNESSED BY
~Curve Information -----------------------------------------
DEPT.F          :DEPTH
CILD.MMHO       :
ILD.OHMM        :
SN.OHMM         :
SP.MV           :
~ASCII ------------------------------------------------------
# ...
402.50000      159.95005        6.36447        7.58483      -63.25160
403.00000      159.79990        6.22754        7.50499      -63.08639
403.50000      159.65976        6.23473        7.42515      -63.05510
404.00000      159.51962        6.24191        7.34531      -63.02382
404.50000      159.36947        6.24950        7.26547      -62.99254
405.00000      159.22933        6.25669        7.18563      -62.96125
405.50000      159.99009        6.26387        7.10579      -62.92997
406.00000      161.66176        6.24072        7.02595      -62.89869
406.50000      163.33344        6.18762        6.94611      -62.86740
407.00000      164.99510        6.13453        6.86627      -62.83612
407.50000      166.66677        6.08104        6.78643      -62.99829
408.00000      168.33844        6.02794        6.70659      -63.35688
408.50000      167.76787        5.97485        6.70219      -63.71548
409.00000      164.96507        6.01197        6.77325      -64.07408
409.50000      162.16227        6.13972        6.84391      -64.61197
410.00000      156.90701        6.26746        6.91497      -64.13724
410.50000      151.65176        6.50698        6.98603      -63.66250
411.00000      146.39650        6.74651        7.20958      -63.66396
411.50000      141.14125        7.03912        7.54491      -64.14160
412.00000      138.93904        7.21237        7.89102      -64.61924
412.50000      136.73684        7.38523        8.23672      -65.09689
413.00000      133.43354        7.51297        8.58283      -65.57453
413.50000      131.23134        7.64072        8.45229      -65.57598
414.00000      131.13124        7.66906        8.32136      -65.10125
414.50000      133.13324        7.59800        8.19082      -64.62652
415.00000      135.13524        7.52734        8.06028      -64.15178
415.50000      133.88399        7.45629        7.92974      -63.67705
416.00000      129.37949        7.38523        7.97724      -63.57136
416.50000      124.87498        7.65150        8.20359      -63.83769
417.00000      120.37048        8.07704        8.42994      -64.10403
417.50000      116.25637        8.66267        8.67984      -64.37036
418.00000      112.54265        8.94770        8.95369      -64.63670
418.50000      108.81893        9.23313        9.22714      -65.36434
419.00000      105.10522        9.51816        9.50100      -66.09496
419.50000      104.77488        9.65629       10.03313      -66.82260
420.00000      104.43454        9.64750       10.37924      -67.55322
420.50000      104.10421        9.63832       10.53892      -67.91777
421.00000      104.77488        9.62954       10.69860      -67.91922
421.50000      105.43555        9.62076       10.31098      -67.92068
422.00000      106.10622        9.53213        9.92295      -67.92286
422.50000      106.77689        9.44351        9.53533      -67.52848
423.00000      107.43755        9.31018        9.50100      -67.13113
423.50000      108.10822        9.22155        9.66068      -66.73675
424.00000      106.32644        9.35928        9.82036      -66.34237
424.50000      104.54465        9.49740        9.98004      -65.94502
425.00000      102.77288        9.63513       10.16247      -65.55064
425.50000      100.99110        9.77325       10.34491      -65.84971
426.00000      101.81192        9.91098       10.52734      -66.14878
426.50000      103.53364        9.98004       10.64870      -66.44786
427.00000      105.24536        9.98004       10.70858      -66.36895
427.50000      107.43755        9.83114       10.61876      -66.28708
428.00000      110.11022        9.53373       10.37924      -66.20817
428.50000      112.78289        9.23593       10.13972      -66.12927
429.00000      115.44555        8.93852        9.90020      -66.05037
429.50000      118.11823        8.64072        9.66068      -65.96849
430.00000      120.79090        8.34331        9.42116      -65.88959
430.50000      123.45356        8.25030        9.10179      -65.81069
431.00000      126.12623        8.15688        8.70259      -65.73178
431.50000      124.12423        8.06387        8.83034      -65.64990
432.00000      122.12223        8.16367        8.95808      -65.57100
432.50000      120.12023        8.26347        9.08583      -65.04270
433.00000      118.11823        8.40120        9.21357      -64.51439
433.50000      116.11622        8.53932        9.34132      -63.98906
434.00000      114.11422        8.74611        9.25589      -63.46076
434.50000      112.44255        8.88423        9.19880      -62.75090
435.00000      111.11122        9.02195        9.14171      -61.85950
435.50000      109.77989        9.06187        9.23593      -60.52240
436.00000      109.98009        9.10179        9.33054      -59.63100
436.50000      111.73184        9.14171        9.42475      -59.93008
437.00000      113.48359        9.18163        9.51896      -60.22915
437.50000      115.23534        9.04191        9.61357      -60.52822
438.00000      116.91703        8.90219        9.52774      -62.19634
438.50000      118.51863        8.76247        9.26147      -63.86445
439.00000      121.32143        8.62275        8.99521      -64.21412
439.50000      123.72383        8.48303        8.90219      -63.24832
440.00000      126.12623        8.34331        8.98203      -62.28251
440.50000      132.93304        7.97086        9.06187      -61.31671
441.00000      139.73985        7.67146        8.76926      -60.83602
441.50000      143.14325        7.44511        8.25349      -60.83747
442.00000      143.14325        7.21876        7.51497      -60.96988
442.50000      143.14325        7.08303        7.24950      -61.23026
443.00000      143.81392        7.03752        7.45708      -61.49362
443.50000      144.47458        6.99162        7.66467      -61.75400
444.00000      145.14525        6.94611        7.59641      -62.01736
444.50000      145.81592        6.94611        7.52774      -62.27774
445.00000      144.83494        6.94611        7.45948      -62.54110
445.50000      142.22233        7.02595        7.62475      -62.80148
446.00000      139.59971        7.18563        7.82435      -62.50830
446.50000      136.98709        7.34531        8.02395      -61.65856
447.00000      134.36447        7.50499        7.98842      -60.81181
447.50000      131.75186        7.56726        7.95289      -59.96207
448.00000      129.12924        7.62914        7.91736      -60.55876
448.50000      128.68880        7.69142        7.88183      -61.45380
449.00000      128.23835        7.75329        7.96806      -62.05049
449.50000      127.79791        7.81557        8.17565      -62.64718
450.00000      127.34745        7.87744        8.38323      -63.24387
450.50000      126.12623        7.93972        8.43473      -63.84056
451.00000      124.12423        8.00159        8.48583      -63.19619
451.50000      122.12223        8.06387        8.53732      -62.55478
452.00000      119.78990        8.21477        8.58842      -61.91041
452.50000      119.11923        8.36567        8.63992      -61.26603
453.00000      118.44856        8.51617        8.69102      -60.62463
453.50000      116.68680        8.66706        8.74251      -59.98025
454.00000      113.82393        8.80239        9.00199      -60.42814
454.50000      110.97108        8.92215        9.26147      -60.87602
455.00000      108.10822        9.04191        9.52096      -62.06794
455.50000      110.11022        9.06507        9.78044      -63.25987
456.00000      112.11222        8.99122        9.62076      -64.45180
456.50000      114.11422        8.88064        9.38124      -65.64372
457.00000      116.11622        8.80718        9.22155      -66.83565
457.50000      118.11823        8.73333        9.15928      -66.63770
458.00000      120.12023        8.65948        9.09740      -66.44273
458.50000      122.12223        8.50299        9.03513      -66.24478
459.00000      124.12423        8.26347        8.97325      -66.04683
459.50000      126.12623        8.02395        8.93413      -65.81912
