~Version ---------------------------------------------------
VERS. 2.0 : CWLS LOG ASCII STANDARD - VERSION 2.0
WRAP. NO  : One line per depth step
DLM . SPACE : Column Data Section Delimiter
~Well ------------------------------------------------------
STRT.F          866 : START DEPTH
STOP.F       1785.0 : STOP DEPTH
STEP.F          0.5 : STEP
NULL.       -999.25 : NULL VALUE
COMP.                 WALSH & WATTS, INC, : COMPANY
WELL.                         SALMON E 41 : WELL
FLD .                        NORTH NOCONA : FIELD
CNTY.                            MONTAGUE : COUNTY
STAT.                               TEXAS : STATE
CTRY.                                 USA : COUNTRY
SEC .                                     : SECTION
TWP .                                     : TOWNSHIP
RGE .                                     : RANGE
LOC . 300' N OF NO. 40
150' W OF EL & 385' E OF NO. 87
F. ROBERTSON SURVEY : LOCATION
EKB .F                          : ELEVATION KELLY BUSHING
EDF .F                          : ELEVATION DERRICK FLOOR
EGL .F                      878 : ELEVATION GROUND LEVEL
PDAT.              GROUND LEVEL : PERMANENT DATUM
EPD .                       878 : ELEVATION PERMANENT DATUM
APD .                           : ABOVE PERMANENT DATUM
LMF .                        KB : LOG MEASURED FROM
DMF .                        KB : DRILLING MEASURED FROM
API .            42337037790000 : API NUMBER
UWI .            42337037790000 : UWI NUMBER
DIGC.                     NthDS : DIGITIZING COMPANY
~Params ----------------------------------------------------
SRVC.                LANE WELLS : LOGGING COMPANY
LOG .                        AC : LOG
DATE.                1965-12-01 : RUN DATE
RUN .                         1 : RUN NUMBER
TDD .F                     1790 : TOTAL DEPTH DRILLER
TDL .F                     1791 : TOTAL DEPTH LOGGER
BOTL.F                     1784 : BOTTOM LOGGED INTERVAL
TOPL.F                      880 : TOP LOGGED INTERVAL
CSGS.IN                         : CASING SIZE
CSGD.F                          : CASING DRILLER
CSGL.F                          : CASING LOGGER
BS  .IN                       9 : BIT SIZE
MUD .                       GEL : MUD TYPE
MUDD.                        10 : MUD DENSITY
MUDV.                        80 : MUD VISCOSITY
PH  .                       9.0 : MUD PH
FL  .                       6.8 : FLUID LOSS
MUDS.                       PIT : SOURCE OF SAMPLE
RM  .OHMM                  1.95 : MUD RESISTIVITY
RMT .DEGF                    74 : RM TEMPERATURE
RMF .OHMM                   1.5 : MUD FILTRATE RESISTIVITY
RMFT.DEGF                    74 : RMF TEMPERATURE
RMC .OHMM                   2.3 : MUD CAKE RESISTIVITY
RMCT.DEGF                    74 : RMC TEMPERATURE
RMFS.                  MEASURED : RMF SOURCE
RMCS.                           : RMC SOURCE
RMBH.OHMM                   1.5 : MUD RESISTIVITY AT BHT
BHT .DEGF                    97 : BOTTOM HOLE TEMPERATURE
TIMC.                           : TIME CIRCULATION STOPPED
TIML.                           : TIME LOGGER ON BOTTOM
TMAX.DEGF                    97 : MAXIMUM RECORDED TEMPERATURE
UNIT.                    L-5172 : EQUIPMENT NUMBER
BASE.                      W.F. : BASE LOCATION
ENG .             ADAMS & BAKER : RECORDED BY
WIT .                   MR. NIX : WITNESSED BY
~Curve Information -----------------------------------------
DEPT.F          :DEPTH
CALS.IN         :
DT.US/F         :
SP.MV           :
~ASCII ------------------------------------------------------
# ...
1727.00000        8.95340       87.86629      -51.61802
1727.50000        8.95900       86.45244      -52.00202
1728.00000        8.96380       85.52169      -52.32002
1728.50000        8.96860       86.51737      -52.64102
1729.00000        8.97340       85.60749      -52.95902
1729.50000        8.97800       84.03559      -53.28002
1730.00000        8.98280       80.65753      -53.59802
1730.50000        8.98760       77.27948      -53.91602
1731.00000        8.99240       82.00277      -54.23702
1731.50000        8.99720       87.00770      -53.60102
1732.00000        8.99260       87.48052      -52.55102
1732.50000        8.98000       86.23267      -51.67502
1733.00000        8.96760       85.24029      -50.79902
1733.50000        8.95500       83.35328      -50.20802
1734.00000        8.94260       84.70383      -50.74202
1734.50000        8.93000       85.46889      -51.27902
1735.00000        8.92840       84.97750      -51.60002
1735.50000        8.97000       83.43244      -52.20002
1736.00000        9.01160       80.63291      -53.10002
1736.50000        8.99140       78.76876      -54.00002
1737.00000        8.96280       81.02321      -54.30002
1737.50000        8.93820       79.19187      -54.78602
1738.00000        8.92900       82.05135      -56.00702
1738.50000        8.92000       83.07188      -57.22502
1739.00000        8.91160       81.61529      -58.77902
1739.50000        8.90340       84.38134      -61.67102
1740.00000        8.88160       88.84253      -64.56302
1740.50000        8.85080       89.75869      -66.62702
1741.00000        8.82100       89.14404      -67.60802
1741.50000        8.82580       94.08701      -67.29902
1742.00000        8.83040       98.69002      -63.60002
1742.50000        8.83520       96.46504      -57.97502
1743.00000        8.84000       92.99455      -50.44502
1743.50000        8.99380       91.88586      -49.06202
1744.00000        9.14760       89.65094      -47.67603
1744.50000        9.29340       93.67874      -47.00103
1745.00000        9.09600       92.73606      -46.50003
1745.50000        9.05120       88.92759      -45.80703
1746.00000        9.07640       89.16085      -45.15003
1746.50000        9.15820       89.89510      -44.49303
1747.00000        9.24000       88.59258      -44.46003
1747.50000        9.24000       88.86063      -45.47103
1748.00000        9.24000       86.83843      -47.15403
1748.50000        9.24000       84.81623      -50.42702
1749.00000        9.19400       84.87653      -53.70002
1749.50000        9.07900       85.95206      -59.05802
1750.00000        8.96400       86.21888      -64.41302
1750.50000        8.80600       88.75783      -70.13024
1751.00000        8.76000       92.01816      -70.37775
1751.50000        8.76000       93.38797      -69.48312
1752.00000        8.76000       95.03173      -64.75350
1752.50000        8.76000       95.51696      -59.87179
1753.00000        8.89120       92.46191      -55.05569
1753.50000        9.02240       93.31231      -50.23660
1754.00000        9.18000       92.72988      -49.10639
1754.50000        9.19260       90.54249      -52.35390
1755.00000        9.17180       92.09935      -57.10738
1755.50000        9.10140       96.07146      -61.86086
1756.00000        9.03120       95.69898      -67.78034
1756.50000        8.96080       94.25089      -75.44733
1757.00000        8.89040       91.71524      -78.79326
1757.50000        8.82000       89.67710      -79.12427
1758.00000        8.80280       88.38523      -79.04972
1758.50000        8.78860       85.40182      -78.59047
1759.00000        8.77420       84.93083      -78.13123
1759.50000        8.76000       88.01207      -74.51095
1760.00000        8.74580       89.91155      -67.39565
1760.50000        8.75420       91.13508      -62.54972
1761.00000        8.77760       89.31784      -54.72169
1761.50000        8.80120       86.74139      -48.31016
1762.00000        8.85560       85.35400      -45.87378
1762.50000        8.94440       86.25116      -45.90062
1763.00000        9.03340       87.15828      -46.24655
1763.50000        9.12220       87.53339      -46.47617
1764.00000        9.11340       89.79871      -46.24655
1764.50000        9.08000       92.72870      -46.01692
1765.00000        9.04660       94.91641      -45.92448
1765.50000        9.01340       93.76682      -45.32806
1766.00000        8.98660       92.62453      -44.13521
1766.50000        9.02000       87.00101      -42.94237
1767.00000        9.10280       87.71940      -42.04774
1767.50000        9.26000       86.72603      -40.85490
1768.00000        9.22880       86.92668      -39.96027
1768.50000        9.19760       89.88056      -39.36384
1769.00000        9.16620       91.20857      -38.76742
1769.50000        9.16840       89.41918      -39.06563
1770.00000        9.17660       89.12265      -38.76742
1770.50000        9.18500       89.77107      -38.46921
1771.00000        9.19340       90.41948      -38.46921
1771.50000        9.20160       89.01915      -38.46921
1772.00000        9.21000       87.63673      -38.76742
1772.50000        9.21840       87.53887      -39.36384
1773.00000        9.21900       88.53554      -39.96027
1773.50000        9.21740       89.34846      -39.96027
1774.00000        9.21600       89.96304      -40.85490
1774.50000        9.21460       89.60251      -41.15311
1775.00000        9.21340       87.77929      -41.74953
1775.50000        9.21200       88.28840      -42.34595
1776.00000        9.21060       89.35970      -42.94237
1776.50000        9.20940       86.46684      -43.53879
1777.00000        9.20800       83.57397      -45.32806
1777.50000        9.20640       85.96400      -47.71374
1778.00000        9.20500       87.23430      -48.90659
1778.50000        9.20380       85.15138      -51.59048
1779.00000        9.20240       83.74707      -54.27438
1779.50000        9.20100       85.30294      -53.67796
1780.00000        9.19960       85.89265      -52.18690
1780.50000        9.19720       85.77490      -50.99406
1781.00000        9.19480       85.41867      -50.09943
1781.50000        9.19200       82.65416      -48.01195
1782.00000        9.18960       82.86775      -47.26643
1782.50000        9.18720       85.04054      -49.70281
1783.00000        9.18480       86.52974      -52.78332
1783.50000        9.18240       83.81499      -54.27438
1784.00000        9.18000       81.80670      -53.67796
1784.50000        9.18000        -999.25      -54.12527
1785.00000        -999.25        -999.25      -56.36185
