~Version ---------------------------------------------------
VERS. 2.0 : CWLS LOG ASCII STANDARD - VERSION 2.0
WRAP. NO  : One line per depth step
DLM . SPACE : Column Data Section Delimiter
~Well ------------------------------------------------------
STRT.F        986.5 : START DEPTH
STOP.F       1761.0 : STOP DEPTH
STEP.F          0.5 : STEP
NULL.       -999.25 : NULL VALUE
COMP.                 WALSH & WATTS, INC. : COMPANY
WELL.                       SALMON D E 6D : WELL
FLD .                             REGULAR : FIELD
CNTY.                            MONTAGUE : COUNTY
STAT.                               TEXAS : STATE
CTRY.                                 USA : COUNTRY
SEC .                                     : SECTION
TWP .                                     : TOWNSHIP
RGE .                                     : RANGE
LOC .  460 FSL 755 FEL
F. ROBERTSON A-620 : LOCATION
EKB .F                      880 : ELEVATION KELLY BUSHING
EDF .F                      878 : ELEVATION DERRICK FLOOR
EGL .F                      874 : ELEVATION GROUND LEVEL
PDAT.                        GL : PERMANENT DATUM
EPD .                       874 : ELEVATION PERMANENT DATUM
APD .                           : ABOVE PERMANENT DATUM
LMF .                        KB : LOG MEASURED FROM
DMF .                        KB : DRILLING MEASURED FROM
API .            42337016430000 : API NUMBER
UWI .            42337016430000 : UWI NUMBER
DIGC.                     NthDS : DIGITIZING COMPANY
~Params ----------------------------------------------------
SRVC.              SCHLUMBERGER : LOGGING COMPANY
LOG .                      DIFL : LOG
DATE.                2005-08-03 : RUN DATE
RUN .                         1 : RUN NUMBER
TDD .F                     1750 : TOTAL DEPTH DRILLER
TDL .F                     1750 : TOTAL DEPTH LOGGER
BOTL.F                     1750 : BOTTOM LOGGED INTERVAL
TOPL.F                      980 : TOP LOGGED INTERVAL
CSGS.IN                       7 : CASING SIZE
CSGD.F                      980 : CASING DRILLER
CSGL.F                      980 : CASING LOGGER
BS  .IN                     6.5 : BIT SIZE
MUD .                       FGM : MUD TYPE
MUDD.                       0.2 : MUD DENSITY
MUDV.                        80 : MUD VISCOSITY
PH  .                        11 : MUD PH
FL  .                         7 : FLUID LOSS
MUDS.                       PIT : SOURCE OF SAMPLE
RM  .OHMM                  1.70 : MUD RESISTIVITY
RMT .DEGF                    70 : RM TEMPERATURE
RMF .OHMM                  1.33 : MUD FILTRATE RESISTIVITY
RMFT.DEGF                    70 : RMF TEMPERATURE
RMC .OHMM                  2.67 : MUD CAKE RESISTIVITY
RMCT.DEGF                    70 : RMC TEMPERATURE
RMFS.                      MEAS : RMF SOURCE
RMCS.                       CAL : RMC SOURCE
RMBH.OHMM                  1.41 : MUD RESISTIVITY AT BHT
BHT .DEGF                    98 : BOTTOM HOLE TEMPERATURE
TIMC.                     2100  : TIME CIRCULATION STOPPED
TIML.                     0300  : TIME LOGGER ON BOTTOM
TMAX.DEGF                    98 : MAXIMUM RECORDED TEMPERATURE
UNIT.                       303 : EQUIPMENT NUMBER
BASE.                  WITCHATA : BASE LOCATION
ENG .              DAVID PARKER : RECORDED BY
WIT .              MR. BURLESON : WITNESSED BY
~Curve Information -----------------------------------------
DEPT.F          :DEPTH
GRR.API         :
ILD.OHMM        :
ILM.OHMM        :
SFL.OHMM        :
SP.MV           :
~ASCII ------------------------------------------------------
# ...
1315.50000      122.16412        3.23638        3.38078        5.57288      -27.86976
1316.00000      123.60839        3.24476        3.36895        5.58165      -28.96407
1316.50000      124.35087        3.25347        3.35717        5.58888      -28.92990
1317.00000      123.83735        3.25227        3.34511        5.59611      -28.89572
1317.50000      123.32685        3.24449        3.33341        5.60336      -28.86155
1318.00000      125.02112        3.23672        3.32175        5.60389      -28.82738
1318.50000      128.19125        3.22897        3.31318        5.59357      -28.79320
1319.00000      128.51506        3.22124        3.31839        5.58379      -28.76305
1319.50000      125.94437        3.16613        3.32361        5.57350      -28.72887
1320.00000      124.92183        3.11456        3.32884        5.56324      -28.69470
1320.50000      124.26676        3.18579        3.33500        5.55351      -27.65654
1321.00000      122.75026        3.23497        3.34487        5.54328      -26.23686
1321.50000      120.90545        3.19139        3.35632        5.56277      -25.96172
1322.00000      118.97932        3.22069        3.36780        5.60193      -25.69061
1322.50000      118.02697        3.26921        3.37902        5.64189      -25.71668
1323.00000      118.82366        3.27919        3.39059        5.68161      -26.19655
1323.50000      121.15646        3.28950        3.40219        5.72162      -26.67240
1324.00000      124.01937        3.29954        3.41352        5.76243      -27.31291
1324.50000      126.74072        3.30992        3.42078        5.80300      -27.99760
1325.00000      126.95610        3.32002        3.42490        5.84440      -28.81761
1325.50000      126.37934        3.32095        3.42870        5.88555      -29.61073
1326.00000      128.21517        3.31942        3.43282        5.84928      -30.40786
1326.50000      129.86124        3.31790        3.43695        5.76144      -31.20097
1327.00000      126.76345        3.27713        3.44108        5.65348      -31.99811
1327.50000      122.61147        3.23090        3.42051        5.60518      -32.79122
1328.00000      117.74566        3.26266        3.40007        5.59589      -33.58835
1328.50000      110.01545        3.26418        3.37974        5.58662      -34.38147
1329.00000      104.47797        3.21991        3.35954        5.57736      -35.17860
1329.50000       99.58595        3.21843        3.33945        5.56760      -35.97172
1330.00000      100.56939        3.21695        3.33792        5.55837      -36.76483
1330.50000      100.80887        3.21666        3.33608        5.54916      -37.33707
1331.00000      104.29224        3.22172        3.33455        5.53996      -37.01776
1331.50000      107.58587        3.22709        3.33302        5.53742      -36.36112
1332.00000      109.38254        3.23246        3.33149        5.53488      -35.97354
1332.50000      110.62802        3.23754        3.32996        5.53234      -36.65822
1333.00000      111.04821        3.19569        3.32843        5.52980      -36.95738
1333.50000      111.79069        3.14248        3.32690        5.45480      -36.68626
1334.00000      109.82240        3.09043        3.27966        5.38082      -36.41515
1334.50000      106.29691        3.07309        3.23309        5.33830      -36.68619
1335.00000      100.91605        3.14743        3.18718        5.41872      -37.32268
1335.50000       93.52619        3.25136        3.14193        5.41623      -38.08647
1336.00000       87.49173        3.35903        3.21942        5.60489      -38.72698
1336.50000       83.18916        3.46994        3.29883        5.85119      -39.36347
1337.00000       78.83327        3.57461        3.39614        6.10832      -39.99997
1337.50000       76.48245        3.66683        3.52060        6.36147      -40.01399
1338.00000       84.13440        3.76144        3.64929        6.52018      -39.41356
1338.50000       90.33458        3.82974        3.78303        6.64349      -37.89348
1339.00000       95.33508        3.78408        3.85564        6.70943      -36.36939
1339.50000      100.46902        3.73897        3.88530        6.59344      -34.84931
1340.00000      103.22049        3.64696        3.91518        6.36390      -34.57819
1340.50000      103.96296        3.54575        3.91663        6.14234      -34.30306
1341.00000      107.50658        3.36531        3.80548        5.92796      -33.85926
1341.50000      111.83331        3.28281        3.69714        5.72158      -32.72471
1342.00000      117.18411        3.24906        3.55004        5.52239      -31.59016
1342.50000      123.09815        3.21536        3.42329        5.50561      -30.86123
1343.00000      120.47625        3.22518        3.34368        5.53364      -30.73067
1343.50000      116.75197        3.24579        3.33752        5.56181      -30.60012
1344.00000      113.82888        3.26653        3.34925        5.59012      -30.47358
1344.50000      110.80639        3.28740        3.36134        5.61858      -30.34302
1345.00000      102.66145        3.30872        3.37315        5.66180      -30.21246
1345.50000       96.32579        3.31728        3.38532        5.70903      -30.73249
1346.00000       94.70989        3.30782        3.39722        5.75719      -31.41718
1346.50000       95.53369        3.29837        3.40948        5.80522      -30.62800
1347.00000      103.32118        3.28896        3.42146        5.77958      -28.99949
1347.50000      112.84959        3.31212        3.43381        5.72386      -27.37098
1348.00000      113.18244        3.35798        3.44779        5.79563      -26.82678
1348.50000      111.88280        3.40448        3.46342        5.90088      -26.23037
1349.00000      113.42044        3.41645        3.47881        5.92490      -25.14803
1349.50000      117.92789        3.42877        3.49458        5.92820      -24.24641
1350.00000      122.78346        3.60397        3.67653        5.93040      -23.55638
1350.50000      124.49967        3.61365        3.68912        6.21341      -23.37691
1351.00000      125.68667        3.61885        3.73143        6.21547      -23.20148
1351.50000      126.51379        3.59541        3.78085        6.21752      -23.14982
1352.00000      126.15546        3.57245        3.77757        6.21958      -23.78485
1352.50000      125.14997        3.54931        3.76073        6.22106      -24.41584
1353.00000      123.21003        3.52665        3.74396        6.22312      -24.59927
1353.50000      119.60984        3.51449        3.72762        6.22403      -24.48028
1354.00000      116.00663        3.51890        3.71100        6.21977      -24.35727
1354.50000      112.40645        3.52332        3.69480        6.21551      -24.40360
1355.00000      113.60554        3.52773        3.67833        6.14569      -24.56283
1355.50000      117.52634        3.53216        3.67276        6.07610      -24.72206
1356.00000      118.81313        3.53985        3.68348        6.05068      -24.94178
1356.50000      119.01728        3.55018        3.69389        6.09022      -25.18165
1357.00000      121.14780        3.56022        3.70467        6.13058      -25.42153
1357.50000      123.28135        3.57028        3.71514        6.17064      -25.49609
1358.00000      126.84832        3.58070        3.72701        6.21097      -24.93760
1358.50000      129.25706        3.59247        3.74237        6.25155      -24.83474
1359.00000      128.49048        3.60662        3.75815        6.29240      -24.84881
1359.50000      127.25213        3.62082        3.77364        6.29913      -25.22175
1360.00000      125.89886        3.63507        3.78955        6.30528      -25.68340
1360.50000      125.08087        3.64938        3.80552        6.31202      -25.20958
1361.00000      123.05625        3.66375        3.82121        6.31819      -24.73980
1361.50000      120.55382        3.66057        3.83731        6.32495      -24.26598
1362.00000      118.12396        3.63116        3.83575        6.29559      -23.79216
