~Version ---------------------------------------------------
VERS. 2.0 : CWLS LOG ASCII STANDARD - VERSION 2.0
WRAP. NO  : One line per depth step
DLM . SPACE : Column Data Section Delimiter
~Well ------------------------------------------------------
STRT.F          100 : START DEPTH
STOP.F       1786.5 : STOP DEPTH
STEP.F          0.5 : STEP
NULL.       -999.25 : NULL VALUE
COMP.                 WALSH & WATTS, INC. : COMPANY
WELL.                         SALMON E 41 : WELL
FLD .                        NORTH NOCONA : FIELD
CNTY.                            MONTAGUE : COUNTY
STAT.                               TEXAS : STATE
CTRY.                                 USA : COUNTRY
SEC .                                     : SECTION
TWP .                                     : TOWNSHIP
RGE .                                     : RANGE
LOC . 300' N OF NO. 40
150' W OF EL & 385' E OF NO. 87
F. ROBERTSON SURVEY : LOCATION
EKB .F                          : ELEVATION KELLY BUSHING
EDF .F                          : ELEVATION DERRICK FLOOR
EGL .F                      878 : ELEVATION GROUND LEVEL
PDAT.              GROUND LEVEL : PERMANENT DATUM
EPD .                       878 : ELEVATION PERMANENT DATUM
APD .                           : ABOVE PERMANENT DATUM
LMF .                        KB : LOG MEASURED FROM
DMF .                        KB : DRILLING MEASURED FROM
API .            42337037790000 : API NUMBER
UWI .            42337037790000 : UWI NUMBER
DIGC.                     NthDS : DIGITIZING COMPANY
~Params ----------------------------------------------------
SRVC.                LANE WELLS : LOGGING COMPANY
LOG .                       IEL : LOG
DATE.                1965-12-01 : RUN DATE
RUN .                         1 : RUN NUMBER
TDD .F                     1790 : TOTAL DEPTH DRILLER
TDL .F                     1791 : TOTAL DEPTH LOGGER
BOTL.F                     1787 : BOTTOM LOGGED INTERVAL
TOPL.F                      100 : TOP LOGGED INTERVAL
CSGS.IN                         : CASING SIZE
CSGD.F                          : CASING DRILLER
CSGL.F                          : CASING LOGGER
BS  .IN                       9 : BIT SIZE
MUD .                       GEL : MUD TYPE
MUDD.                        10 : MUD DENSITY
MUDV.                        80 : MUD VISCOSITY
PH  .                       9.0 : MUD PH
FL  .                       6.8 : FLUID LOSS
MUDS.                       PIT : SOURCE OF SAMPLE
RM  .OHMM                  1.95 : MUD RESISTIVITY
RMT .DEGF                    74 : RM TEMPERATURE
RMF .OHMM                   1.5 : MUD FILTRATE RESISTIVITY
RMFT.DEGF                    74 : RMF TEMPERATURE
RMC .OHMM                   2.3 : MUD CAKE RESISTIVITY
RMCT.DEGF                    74 : RMC TEMPERATURE
RMFS.                  MEASURED : RMF SOURCE
RMCS.                           : RMC SOURCE
RMBH.OHMM                   1.5 : MUD RESISTIVITY AT BHT
BHT .DEGF                    97 : BOTTOM HOLE TEMPERATURE
TIMC.                           : TIME CIRCULATION STOPPED
TIML.                           : TIME LOGGER ON BOTTOM
TMAX.DEGF                    97 : MAXIMUM RECORDED TEMPERATURE
UNIT.                    L-5172 : EQUIPMENT NUMBER
BASE.                      W.F. : BASE LOCATION
ENG .             ADAMS & BAKER : RECORDED BY
WIT .                   MR. NIX : WITNESSED BY
~Curve Information -----------------------------------------
DEPT.F          :DEPTH
CILD.MMHO       :
ILD.OHMM        :
ROP.FT/HR       :
SN.OHMM         :
SP.MV           :
~ASCII ------------------------------------------------------
# ...
195.00000       56.51689       25.06392        -999.25       31.72754       -8.26863
195.50000       60.43620       23.70071        -999.25       29.22052       -9.45629
196.00000       64.35551       21.78983        -999.25       26.71351      -10.64394
196.50000       71.23626       19.87506        -999.25       24.20253      -12.43278
197.00000       79.10417       16.07433        -999.25       19.87671      -15.12337
197.50000       85.98492       14.21415        -999.25       18.42540      -18.11454
198.00000       91.87267       13.34405        -999.25       16.82914      -21.40631
198.50000       94.80483       12.51356        -999.25       15.24618      -24.69807
199.00000       98.72414       11.96052        -999.25       14.29688      -27.68925
199.50000      100.66915       11.60504        -999.25       13.78321      -29.47808
200.00000       98.09765       11.47437        -999.25       13.62596      -30.11338
200.50000      101.04143       11.19667        -999.25       13.34827      -30.69229
201.00000      104.97628       10.83930        -999.25       12.63233      -30.97591
201.50000      109.90218       10.24288        -999.25       11.99584      -30.66314
202.00000      114.82809        9.76598        -999.25       11.16038      -30.64857
202.50000      120.74506        9.20941        -999.25       10.44444      -30.93219
203.00000      126.66203        8.73251        -999.25        9.80819      -31.51401
203.50000      131.58794        8.17593        -999.25        9.37137      -32.09583
204.00000      135.52279        7.97791        -999.25        9.21295      -32.67765
204.50000      138.46657        7.81974        -999.25        9.13445      -32.96127
205.00000      138.43716        7.85917        -999.25        8.97651      -33.24198
205.50000      136.41975        7.92409        -999.25        8.89825      -33.22741
206.00000      134.40822        8.00200        -999.25        8.93904      -32.91464
206.50000      133.38775        8.06693        -999.25        8.98006      -32.89715
207.00000      133.35835        8.13185        -999.25        9.02108      -32.88549
207.50000      134.32000        8.09758        -999.25        8.98242      -33.46731
208.00000      135.28166        8.03820        -999.25        8.94377      -33.75094
208.50000      136.24332        7.97923        -999.25        8.86527      -34.03456
209.00000      137.20497        7.91985        -999.25        8.70709      -34.01999
209.50000      138.16663        7.86088        -999.25        8.62859      -34.00250
210.00000      139.12829        7.80150        -999.25        8.62978      -33.68973
210.50000      139.09888        7.76205        -999.25        8.71064      -33.67516
211.00000      139.06948        7.80108        -999.25        8.83134      -33.95878
211.50000      138.04901        7.84051        -999.25        8.99188      -34.53768
212.00000      137.01678        7.87954        -999.25        9.07298      -34.52603
212.50000      136.00219        7.91857        -999.25        9.03432      -34.51145
213.00000      133.99066        8.05026        -999.25        9.07534      -34.49688
213.50000      132.97019        8.16021        -999.25        9.07653      -34.47939
214.00000      130.95866        8.27015        -999.25        9.15739      -33.86843
214.50000      129.93819        8.37970        -999.25        9.31793      -33.55566
215.00000      128.91772        8.42949        -999.25        9.47847      -32.94469
215.50000      129.87938        8.39601        -999.25        9.47965      -32.63192
216.00000      131.83210        8.31751        -999.25        9.32148      -32.31915
216.50000      133.78482        8.22706        -999.25        9.20314      -32.30458
217.00000      137.71966        8.02506        -999.25        8.88584      -32.29001
217.50000      141.65451        7.69158        -999.25        8.60790      -32.86891
218.00000      145.58935        7.37428        -999.25        8.25053      -33.15253
218.50000      148.52725        7.29555        -999.25        7.97283      -33.43616
219.00000      150.47997        7.17721        -999.25        7.73497      -33.42158
219.50000      152.42681        7.05887        -999.25        7.57679      -33.10881
220.00000      154.38541        6.90093        -999.25        7.45846      -33.39244
220.50000      155.34707        6.90188        -999.25        7.45987      -33.67606
221.00000      158.29085        6.82338        -999.25        7.46106      -33.36329
221.50000      161.23463        6.74512        -999.25        7.42240      -33.34872
222.00000      163.18735        6.62678        -999.25        7.30406      -33.62943
222.50000      165.14007        6.46860        -999.25        7.02636      -33.31666
223.00000      169.07492        6.31043        -999.25        6.78851      -33.30208
223.50000      174.00083        6.07257        -999.25        6.59049      -33.58571
224.00000      178.92673        5.95423        -999.25        6.48809      -33.86933
224.50000      182.86158        5.86179        -999.25        6.40959      -34.15295
225.00000      184.81430        5.76895        -999.25        6.33109      -34.43658
225.50000      186.76702        5.67651        -999.25        6.25259      -34.72020
226.00000      185.74067        5.67610        -999.25        6.29401      -34.70271
226.50000      181.74701        5.73704        -999.25        6.36571      -34.68814
227.00000      176.76229        5.89678        -999.25        6.43701      -34.67357
227.50000      168.80439        6.12187        -999.25        6.64616      -34.06260
228.00000      159.85542        6.51388        -999.25        7.06168      -34.04803
228.50000      150.90645        6.98461        -999.25        7.56030      -34.03346
229.00000      142.94854        7.37702        -999.25        7.97581      -34.01888
229.50000      136.97276        7.76903        -999.25        8.39133      -33.70611
230.00000      132.97910        8.16144        -999.25        8.67777      -33.39043
230.50000      131.95275        8.29370        -999.25        8.87815      -33.37586
231.00000      133.90547        8.36141        -999.25        8.83973      -33.36128
231.50000      139.82244        8.04069        -999.25        8.56179      -33.34671
232.00000      143.75728        7.72036        -999.25        8.16458      -33.63033
232.50000      149.67426        7.34625        -999.25        7.84704      -33.91396
233.00000      155.59123        6.97174        -999.25        7.60918      -33.89938
233.50000      160.51713        6.73389        -999.25        7.25181      -33.88481
234.00000      162.46985        6.57571        -999.25        7.09363      -34.16843
234.50000      164.42257        6.49721        -999.25        6.97529      -34.15095
235.00000      164.39317        6.49839        -999.25        6.93663      -34.13637
235.50000      164.36376        6.45973        -999.25        6.89821      -34.12180
236.00000      165.32542        6.46092        -999.25        7.01891      -34.40542
236.50000      165.29601        6.42250        -999.25        7.17945      -34.39085
237.00000      164.27554        6.47348        -999.25        7.37984      -34.67447
237.50000      159.28494        6.59936        -999.25        7.58045      -34.95810
238.00000      153.30916        6.88420        -999.25        7.78060      -34.94352
238.50000      145.35125        7.26386        -999.25        8.22002      -35.22715
239.00000      133.42910        7.86264        -999.25        8.89848      -34.91146
239.50000      121.50694        8.54589        -999.25       10.24131      -34.59869
240.00000      111.56690        9.77238        -999.25       11.65004      -33.98773
240.50000      102.61793       10.79466        -999.25       12.84642      -33.97315
241.00000       93.66896       11.81654        -999.25       14.28184      -33.66038
241.50000       87.68730       12.83882        -999.25       15.75733      -33.34761
242.00000       86.66683       13.34398        -999.25       16.23659      -33.63124
