~Version ---------------------------------------------------
VERS. 2.0 : CWLS LOG ASCII STANDARD - VERSION 2.0
WRAP. NO  : One line per depth step
DLM . SPACE : Column Data Section Delimiter
~Well ------------------------------------------------------
STRT.F          230 : START DEPTH
STOP.F       1777.5 : STOP DEPTH
STEP.F          0.5 : STEP
NULL.       -999.25 : NULL VALUE
COMP.         WALSH & WATTS, INCORPORATED : COMPANY
WELL.                         SALMON E 44 : WELL
FLD .                             REGULAR : FIELD
CNTY.                            MONTAGUE : COUNTY
STAT.                               TEXAS : STATE
CTRY.                                 USA : COUNTRY
SEC .                                     : SECTION
TWP .                                     : TOWNSHIP
RGE .                                     : RANGE
LOC . 300' WEST OF NO 23, 300' SOUTH OF D-9, F.ROBERTSON SURV. : LOCATION
EKB .F                      862 : ELEVATION KELLY BUSHING
EDF .F                          : ELEVATION DERRICK FLOOR
EGL .F                      856 : ELEVATION GROUND LEVEL
PDAT.                        GL : PERMANENT DATUM
EPD .                       856 : ELEVATION PERMANENT DATUM
APD .                         6 : ABOVE PERMANENT DATUM
LMF .                        KB : LOG MEASURED FROM
DMF .                        KB : DRILLING MEASURED FROM
API .            42337038720000 : API NUMBER
UWI .                           : UWI NUMBER
DIGC.                     NthDS : DIGITIZING COMPANY
~Params ----------------------------------------------------
SRVC.              SCHLUMBERGER : LOGGING COMPANY
LOG .                       IEL : LOG
DATE.                1965-11-28 : RUN DATE
RUN .                         1 : RUN NUMBER
TDD .F                     1779 : TOTAL DEPTH DRILLER
TDL .F                     1779 : TOTAL DEPTH LOGGER
BOTL.F                     1778 : BOTTOM LOGGED INTERVAL
TOPL.F                          : TOP LOGGED INTERVAL
CSGS.IN                         : CASING SIZE
CSGD.F                          : CASING DRILLER
CSGL.F                          : CASING LOGGER
BS  .IN                   7.875 : BIT SIZE
MUD .                       GEL : MUD TYPE
MUDD.                        10 : MUD DENSITY
MUDV.                       9.8 : MUD VISCOSITY
PH  .                           : MUD PH
FL  .                           : FLUID LOSS
MUDS.                CIRCULATED : SOURCE OF SAMPLE
RM  .OHMM                   2.0 : MUD RESISTIVITY
RMT .DEGF                    81 : RM TEMPERATURE
RMF .OHMM                   1.5 : MUD FILTRATE RESISTIVITY
RMFT.DEGF                    81 : RMF TEMPERATURE
RMC .OHMM                       : MUD CAKE RESISTIVITY
RMCT.DEGF                       : RMC TEMPERATURE
RMFS.                         M : RMF SOURCE
RMCS.                           : RMC SOURCE
RMBH.OHMM                   1.6 : MUD RESISTIVITY AT BHT
BHT .DEGF                   100 : BOTTOM HOLE TEMPERATURE
TIMC.                           : TIME CIRCULATION STOPPED
TIML.                           : TIME LOGGER ON BOTTOM
TMAX.DEGF                   100 : MAXIMUM RECORDED TEMPERATURE
UNIT.                      4559 : EQUIPMENT NUMBER
BASE.                       WFS : BASE LOCATION
ENG .                      FINK : RECORDED BY
WIT .                       NIX : WITNESSED BY
~Curve Information -----------------------------------------
DEPT.F          :DEPTH
CILD.MMHO       :
ILD.OHMM        :
SN.OHMM         :
SP.MV           :
~ASCII ------------------------------------------------------
# ...
1543.00000      341.68771        2.57362        3.26202      -47.17503
1543.50000      341.17465        2.57736        3.26135      -46.65003
1544.00000      340.65159        2.58069        3.26069      -45.52503
1544.50000      340.12852        2.58403        3.26003      -45.30003
1545.00000      339.52537        2.58777        3.25936      -45.30003
1545.50000      338.87218        2.59177        3.25857      -45.30003
1546.00000      338.20897        2.59551        3.25790      -46.08003
1546.50000      337.41913        2.59884        3.26484      -47.05503
1547.00000      336.76594        2.60258        3.30178      -48.03003
1547.50000      336.10273        2.60592        3.33831      -49.00502
1548.00000      335.44953        2.60925        3.37525      -49.73402
1548.50000      335.48702        2.61299        3.32859      -50.40002
1549.00000      336.59558        2.61393        3.28152      -50.23202
1549.50000      337.70413        2.61326        3.25606      -49.89902
1550.00000      338.03516        2.67998        3.32918      -48.90002
1550.50000      339.13371        2.67932        3.33532      -48.00003
1551.00000      339.85188        2.67866        3.34145      -47.18103
1551.50000      340.46994        2.67799        3.34719      -46.63503
1552.00000      341.08801        2.67720        3.35333      -46.11303
1552.50000      341.70608        2.67654        3.36053      -45.68703
1553.00000      342.32415        2.67587        3.36667      -45.25803
1553.50000      342.21149        2.67521        3.37241      -45.00003
1554.00000      341.85207        2.67455        3.37854      -45.00003
1554.50000      341.55924        2.67388        3.38468      -45.00003
1555.00000      337.51267        2.67322        3.39042      -45.00003
1555.50000      331.82447        2.73136        3.41655      -44.89203
1556.00000      323.33348        2.80469        3.45589      -44.78703
1556.50000      315.14280        2.87763        3.49523      -44.94903
1557.00000      308.15331        2.95057        3.53456      -46.20003
1557.50000      302.61526        2.97830        3.62390      -47.94903
1558.00000      302.85294        3.00644        3.74603      -49.70102
1558.50000      303.10064        3.03418        3.86857      -50.40002
1559.00000      303.34834        3.06231        3.89151      -50.16002
1559.50000      303.58603        3.03085        3.91444      -47.10003
1560.00000      307.82770        2.98459        3.93698      -44.10003
1560.50000      313.07037        2.92939        3.84112      -42.15003
1561.00000      318.31303        2.88313        3.66032      -41.70003
1561.50000      323.55569        2.84446        3.63446      -43.36803
1562.00000      328.45802        2.81060        3.60900      -44.49903
1562.50000      332.05905        2.77634        3.58313      -43.50003
1563.00000      333.25769        2.74248        3.55927      -42.90003
1563.50000      333.86575        2.70861        3.53581      -42.90003
1564.00000      334.47381        2.68955        3.51194      -41.40003
1564.50000      336.41319        2.67489        3.48808      -41.64903
1565.00000      340.34455        2.65982        3.46462      -42.51903
1565.50000      344.27591        2.62916        3.50275      -43.54203
1566.00000      349.00155        2.59850        3.55649      -44.56503
1566.50000      352.93291        2.56783        3.61063      -45.58503
1567.00000      349.94740        2.53717        3.66436      -45.75003
1567.50000      340.78575        2.63651        3.71490      -44.40003
1568.00000      321.35389        2.73584        3.76064      -42.90003
1568.50000      299.34947        2.91518        3.80597      -44.40003
1569.00000      273.93818        3.41451        4.10531      -48.15003
1569.50000      238.92084        4.05371        4.46824      -52.62902
1570.00000      206.47605        4.74625        5.30038      -58.20002
1570.50000      175.20242        5.67918        6.44531      -63.77102
1571.00000      141.72661        6.42504        8.20623      -67.80002
1571.50000      108.24078        9.01116       10.89115      -70.28702
1572.00000       77.59778       15.10847       13.12368      -70.71302
1572.50000       62.13987       16.59899       14.92100      -70.13402
1573.00000       53.52877       18.26072       16.60913      -69.30002
1573.50000       50.20292       19.38165       17.25286      -67.80002
1574.00000       49.80998       19.40499       17.86540      -66.30002
1574.50000       51.36898       19.13273       18.35393      -64.43102
1575.00000       52.92799       18.86086       18.54647      -62.46902
1575.50000       52.78530       18.78300       18.29581      -60.78002
1576.00000       52.64261       18.75354       18.77434      -60.18002
1576.50000       52.49992       18.72448       19.43527      -59.72402
1577.00000       52.34722       18.76821       19.96394      -59.83802
1577.50000       52.20453       18.86995       19.96789      -59.95502
1578.00000       52.06185       19.13568       19.97144      -59.96102
1578.50000       51.68893       19.36182       19.97498      -59.90102
1579.00000       51.15935       19.56116       19.97853      -59.83802
1579.50000       52.28792       19.40489       19.98207      -59.77502
1580.00000       53.80688       19.03970       19.98562      -59.71202
1580.50000       57.62813       18.03904       19.98916      -59.33102
1581.00000       62.01995       16.73719       19.99271      -58.86902
1581.50000       66.42178       15.38373       19.99757      -58.40702
1582.00000       70.81360       14.02987       18.76265      -57.94502
1582.50000       75.21543       12.67642       17.08959      -57.48602
1583.00000       79.98762       12.02856       15.22254      -57.01802
1583.50000       84.75982       11.25137       13.71509      -56.55002
1584.00000       89.53201       10.60391       13.38123      -56.08202
1584.50000       94.30421       10.31365       12.98043      -55.14002
1585.00000       96.16351       10.11299       12.64617      -53.49002
1585.50000       98.02281        9.97032       12.31231      -51.76202
1586.00000       99.89212        9.84246       11.97845      -49.91402
1586.50000      101.49117        9.66180       11.80779      -48.06903
1587.00000      102.06919        9.44554       12.29032      -46.22403
1587.50000      104.51908        9.22967       12.77285      -44.37603
1588.00000      109.79177        8.89581       12.15579      -42.56103
1588.50000      115.06447        8.56435       11.18834      -40.86003
1589.00000      121.39170        8.24369       10.72088      -39.15903
1589.50000      130.60831        7.71690       10.20142      -37.67103
1590.00000      142.45754        7.04144        9.32822      -37.02003
1590.50000      153.20568        6.58558        8.56557      -36.36903
1591.00000      162.29216        6.18492        7.66491      -35.72103
1591.50000      171.37864        5.78426        7.20425      -35.07003
1592.00000      180.78545        5.49799        7.05199      -34.41903
1592.50000      191.43348        5.21133        6.82292      -33.99903
1593.00000      202.09153        4.92507        6.39546      -34.50003
1593.50000      212.73956        4.63881        5.96840      -35.00103
1594.00000      223.39761        4.35255        5.54094      -34.55403
1594.50000      232.99460        4.12269        5.36708      -33.87303
1595.00000      241.02003        3.94909        5.19282      -34.00803
1595.50000      250.65054        3.80443        4.99242      -34.69203
1596.00000      258.67597        3.65977        4.86056      -34.80003
1596.50000      265.40011        3.51510        4.72870      -34.05003
1597.00000      271.25338        3.43684        4.59683      -33.08703
1597.50000      276.06561        3.40298        4.46497      -31.80003
1598.00000      276.68368        3.36871        4.33311      -32.13303
1598.50000      277.30175        3.33485        4.20125      -32.70003
1599.00000      277.91981        3.30099        4.16538      -34.20003
