~Version ---------------------------------------------------
VERS. 2.0 : CWLS LOG ASCII STANDARD - VERSION 2.0
WRAP. NO  : One line per depth step
DLM . SPACE : Column Data Section Delimiter
~Well ------------------------------------------------------
STRT.F          500 : START DEPTH
STOP.F       2022.5 : STOP DEPTH
STEP.F          0.5 : STEP
NULL.       -999.25 : NULL VALUE
COMP.                 WALSH & WATTS, INC. : COMPANY
WELL.                          HYNDS A 10 : WELL
FLD .                           N. NOCONA : FIELD
CNTY.                            MONTAGUE : COUNTY
STAT.                               TEXAS : STATE
CTRY.                                 USA : COUNTRY
SEC .                                     : SECTION
TWP .                                     : TOWNSHIP
RGE .                                     : RANGE
LOC .  244' SE OF NO. 5A J.J. WALL SURVEY : LOCATION
EKB .F                    903.5 : ELEVATION KELLY BUSHING
EDF .F                          : ELEVATION DERRICK FLOOR
EGL .F                      897 : ELEVATION GROUND LEVEL
PDAT.                        GL : PERMANENT DATUM
EPD .                           : ELEVATION PERMANENT DATUM
APD .                         6 : ABOVE PERMANENT DATUM
LMF .                           : LOG MEASURED FROM
DMF .                           : DRILLING MEASURED FROM
API .            42337037830000 : API NUMBER
UWI .            42337037830000 : UWI NUMBER
DIGC.                     NthDS : DIGITIZING COMPANY
~Params ----------------------------------------------------
SRVC.                LANE WELLS : LOGGING COMPANY
LOG .                       GRN : LOG
DATE.                1957-11-30 : RUN DATE
RUN .                         1 : RUN NUMBER
TDD .F                     2039 : TOTAL DEPTH DRILLER
TDL .F                     2015 : TOTAL DEPTH LOGGER
BOTL.F                     2023 : BOTTOM LOGGED INTERVAL
TOPL.F                      500 : TOP LOGGED INTERVAL
CSGS.IN                     5.5 : CASING SIZE
CSGD.F                     2038 : CASING DRILLER
CSGL.F                          : CASING LOGGER
BS  .IN                    8.75 : BIT SIZE
MUD .                     WATER : MUD TYPE
MUDD.                           : MUD DENSITY
MUDV.                           : MUD VISCOSITY
PH  .                           : MUD PH
FL  .                           : FLUID LOSS
MUDS.                           : SOURCE OF SAMPLE
RM  .OHMM                       : MUD RESISTIVITY
RMT .DEGF                       : RM TEMPERATURE
RMF .OHMM                       : MUD FILTRATE RESISTIVITY
RMFT.DEGF                       : RMF TEMPERATURE
RMC .OHMM                       : MUD CAKE RESISTIVITY
RMCT.DEGF                       : RMC TEMPERATURE
RMFS.                           : RMF SOURCE
RMCS.                           : RMC SOURCE
RMBH.OHMM                       : MUD RESISTIVITY AT BHT
BHT .DEGF                       : BOTTOM HOLE TEMPERATURE
TIMC.                           : TIME CIRCULATION STOPPED
TIML.                           : TIME LOGGER ON BOTTOM
TMAX.DEGF                       : MAXIMUM RECORDED TEMPERATURE
UNIT.                           : EQUIPMENT NUMBER
BASE.                           : BASE LOCATION
ENG .                   ROBERTS : RECORDED BY
WIT .                       NIX : WITNESSED BY
~Curve Information -----------------------------------------
DEPT.F          :DEPTH
GRN.GAPI        :
NEUT.API        :
~ASCII ------------------------------------------------------
# ...
900.00000       16.72708     2806.71492
900.50000       15.92054     2800.99714
901.00000       15.11399     2775.61183
901.50000       14.34904     2751.13313
902.00000       13.74684     2674.97720
902.50000       14.30014     2608.14131
903.00000       14.57859     2618.51302
903.50000       13.75758     2702.17575
904.00000       12.93657     2820.76141
904.50000       12.10832     2855.08598
905.00000       12.87772     2763.82579
905.50000       14.83790     2636.89924
906.00000       17.18975     2520.85211
906.50000       19.22497     2410.24469
907.00000       21.26019     2415.68439
907.50000       23.29542     2398.45865
908.00000       23.59013     2375.79319
908.50000       23.08920     2384.13408
909.00000       24.02135     2391.65901
909.50000       23.90919     2407.90561
910.00000       25.11711     2419.31087
910.50000       27.74004     2407.97814
911.00000       30.62517     2356.93553
911.50000       34.55929     2277.87843
912.00000       34.25003     2227.10781
912.50000       34.53119     2175.43057
913.00000       36.37021     2112.87391
913.50000       37.42623     2148.01443
914.00000       37.67755     2152.16675
914.50000       36.52381     2143.69893
915.00000       36.15668     2093.29096
915.50000       37.79860     2033.45416
916.00000       40.68101     2067.54300
916.50000       40.68007     2103.80773
917.00000       40.82561     2121.94009
917.50000       39.42955     2109.97273
918.00000       37.34001     2087.48860
918.50000       37.97125     2071.16947
919.00000       38.02003     2060.68897
919.50000       37.17280     2089.90021
920.00000       36.02087     2101.39613
920.50000       37.10673     2066.81771
921.00000       38.14738     2060.29006
921.50000       39.70430     2033.99813
922.00000       40.65363     2046.99903
922.50000       40.66263     2057.46141
923.00000       41.63185     2049.41064
923.50000       39.55316     2033.09151
924.00000       37.51063     2073.88933
924.50000       37.31259     2103.20936
925.00000       34.67331     2147.85124
925.50000       35.15610     2183.59013
926.00000       31.91737     2215.50309
926.50000       28.77268     2292.38432
927.00000       29.09723     2359.47407
927.50000       28.49683     2421.37796
928.00000       27.42899     2453.16399
928.50000       26.36114     2429.97270
929.00000       28.26091     2399.36527
929.50000       30.97425     2378.20480
930.00000       31.74998     2336.15585
930.50000       31.56369     2292.13046
931.00000       33.77975     2201.72250
931.50000       37.62328     2111.06068
932.00000       40.59250     2036.46413
932.50000       39.78957     2013.14591
933.00000       37.73167     2043.97093
933.50000       36.85822     2074.79595
934.00000       36.73251     2080.23566
934.50000       37.47026     2073.58108
935.00000       39.59607     2047.59740
935.50000       40.51466     2039.43784
936.00000       38.49022     2069.35624
936.50000       37.06252     2056.40973
937.00000       36.57062     2069.35624
937.50000       37.44761     2082.95551
938.00000       38.85535     2069.35624
938.50000       37.95206     2107.43420
939.00000       34.39326     2145.51217
939.50000       31.26936     2178.15042
940.00000       28.79826     2261.55930
940.50000       26.32807     2341.34170
941.00000       24.72587     2372.16672
941.50000       24.58840     2371.96726
942.00000       25.10645     2425.34894
942.50000       25.30080     2467.54296
943.00000       22.79987     2470.67986
943.50000       22.62623     2468.26825
944.00000       24.48967     2375.79319
944.50000       26.63791     2301.45050
945.00000       29.21580     2227.10781
945.50000       31.13077     2161.23293
946.00000       32.98787     2087.48860
946.50000       34.84407     2024.55117
947.00000       36.70117     1979.85489
947.50000       36.06913     2030.95189
948.00000       37.08717     2098.96639
948.50000       36.43253     2131.36892
949.00000       34.27879     2165.45777
949.50000       31.60425     2208.97544
950.00000       28.84279     2237.98723
950.50000       28.84366     2278.40426
951.00000       27.48829     2297.82403
951.50000       27.81465     2266.09239
952.00000       30.28206     2197.64271
952.50000       34.96574     2125.56657
953.00000       34.66100     2144.98633
953.50000       33.56603     2156.39159
954.00000       34.54610     2144.29730
954.50000       33.41677     2194.46955
955.00000       33.91492     2247.05341
955.50000       31.61019     2299.63726
956.00000       28.61649     2354.94097
956.50000       26.07939     2359.47407
957.00000       23.54138     2446.50941
957.50000       21.68692     2491.84032
958.00000       21.44276     2470.29908
958.50000       21.12717     2437.44323
959.00000       20.44992     2446.50941
959.50000       20.67683     2423.29999
960.00000       23.82688     2385.76599
960.50000       29.49427     2292.38432
961.00000       35.07108     2205.34897
961.50000       36.40377     2143.33628
962.00000       34.19850     2132.36620
962.50000       30.40190     2157.29820
963.00000       32.06642     2161.83130
963.50000       34.05643     2137.35260
964.00000       36.05549     2103.80773
964.50000       38.09071     2071.16947
965.00000       38.61870     2082.95551
965.50000       38.01469     2115.28552
966.00000       35.92351     2157.60645
966.50000       34.18026     2172.71071
967.00000       35.45056     2127.37980
967.50000       38.72900     2088.39522
968.00000       40.23710     2096.55478
968.50000       41.22621     2110.69803
969.00000       40.52003     2111.51398
969.50000       41.32469     2111.06068
970.00000       41.62665     2074.79595
970.50000       39.90961     2080.96095
971.00000       37.34901     2092.92831
971.50000       36.95747     2112.87391
972.00000       35.32362     2119.52849
972.50000       32.49900     2145.51217
973.00000       32.40945     2181.77690
973.50000       28.57669     2191.74970
974.00000       27.50613     2211.24199
974.50000       26.64353     2219.85486
975.00000       27.80189     2202.84670
975.50000       27.77292     2163.19122
976.00000       28.97903     2173.16402
976.50000       27.91300     2179.96366
977.00000       25.34606     2207.16221
977.50000       24.58110     2241.61370
978.00000       25.23568     2274.25195
978.50000       24.47796     2295.41242
979.00000       22.74556     2263.00989
979.50000       22.13160     2224.02530
980.00000       19.22108     2241.01533
980.50000       18.44437     2321.39610
981.00000       17.14325     2352.22112
981.50000       14.88373     2354.75965
982.00000       15.42709     2343.60825
982.50000       15.68655     2365.40335
983.00000       15.11237     2400.01803
983.50000       15.11341     2406.61821
984.00000       14.94249     2429.28367
984.50000       13.95873     2420.81585
985.00000       13.65038     2383.04614
985.50000       14.61960     2398.91196
986.00000       13.94235     2397.55203
986.50000       12.81302     2388.48585
987.00000       12.19635     2386.07424
987.50000       13.62850     2407.21658
988.00000       13.60314     2404.80498
988.50000       15.34813     2373.97996
989.00000       17.15731     2358.56745
989.50000       17.47464     2372.16672
990.00000       18.86881     2319.58286
990.50000       22.07509     2245.24017
991.00000       24.90687     2176.33719
991.50000       28.37338     2120.12686
992.00000       31.83988     2061.37800
992.50000       35.30729     1993.79868
993.00000       36.96547     2000.45325
993.50000       36.51426     1984.58743
994.00000       37.37860     1983.53576
994.50000       38.80912     1998.24110
995.00000       38.26478     1987.16223
995.50000       37.73852     1998.11418
996.00000       38.17610     2042.15769
996.50000       38.78004     2065.72976
997.00000       37.74112     2065.72976
997.50000       36.49878     2037.31635
998.00000       36.97433     2036.71798
998.50000       36.43270     2092.92831
999.00000       36.28890     2063.91653
999.50000       37.27801     2081.14227
