~Version ---------------------------------------------------
VERS. 2.0 : CWLS LOG ASCII STANDARD - VERSION 2.0
WRAP. NO  : One line per depth step
DLM . SPACE : Column Data Section Delimiter
~Well ------------------------------------------------------
STRT.F          866 : START DEPTH
STOP.F       1785.0 : STOP DEPTH
STEP.F          0.5 : STEP
NULL.       -999.25 : NULL VALUE
COMP.                 WALSH & WATTS, INC, : COMPANY
WELL.                         SALMON E 41 : WELL
FLD .                        NORTH NOCONA : FIELD
CNTY.                            MONTAGUE : COUNTY
STAT.                               TEXAS : STATE
CTRY.                                 USA : COUNTRY
SEC .                                     : SECTION
TWP .                                     : TOWNSHIP
RGE .                                     : RANGE
LOC . 300' N OF NO. 40
150' W OF EL & 385' E OF NO. 87
F. ROBERTSON SURVEY : LOCATION
EKB .F                          : ELEVATION KELLY BUSHING
EDF .F                          : ELEVATION DERRICK FLOOR
EGL .F                      878 : ELEVATION GROUND LEVEL
PDAT.              GROUND LEVEL : PERMANENT DATUM
EPD .                       878 : ELEVATION PERMANENT DATUM
APD .                           : ABOVE PERMANENT DATUM
LMF .                        KB : LOG MEASURED FROM
DMF .                        KB : DRILLING MEASURED FROM
API .            42337037790000 : API NUMBER
UWI .            42337037790000 : UWI NUMBER
DIGC.                     NthDS : DIGITIZING COMPANY
~Params ----------------------------------------------------
SRVC.                LANE WELLS : LOGGING COMPANY
LOG .                        AC : LOG
DATE.                1965-12-01 : RUN DATE
RUN .                         1 : RUN NUMBER
TDD .F                     1790 : TOTAL DEPTH DRILLER
TDL .F                     1791 : TOTAL DEPTH LOGGER
BOTL.F                     1784 : BOTTOM LOGGED INTERVAL
TOPL.F                      880 : TOP LOGGED INTERVAL
CSGS.IN                         : CASING SIZE
CSGD.F                          : CASING DRILLER
CSGL.F                          : CASING LOGGER
BS  .IN                       9 : BIT SIZE
MUD .                       GEL : MUD TYPE
MUDD.                        10 : MUD DENSITY
MUDV.                        80 : MUD VISCOSITY
PH  .                       9.0 : MUD PH
FL  .                       6.8 : FLUID LOSS
MUDS.                       PIT : SOURCE OF SAMPLE
RM  .OHMM                  1.95 : MUD RESISTIVITY
RMT .DEGF                    74 : RM TEMPERATURE
RMF .OHMM                   1.5 : MUD FILTRATE RESISTIVITY
RMFT.DEGF                    74 : RMF TEMPERATURE
RMC .OHMM                   2.3 : MUD CAKE RESISTIVITY
RMCT.DEGF                    74 : RMC TEMPERATURE
RMFS.                  MEASURED : RMF SOURCE
RMCS.                           : RMC SOURCE
RMBH.OHMM                   1.5 : MUD RESISTIVITY AT BHT
BHT .DEGF                    97 : BOTTOM HOLE TEMPERATURE
TIMC.                           : TIME CIRCULATION STOPPED
TIML.                           : TIME LOGGER ON BOTTOM
TMAX.DEGF                    97 : MAXIMUM RECORDED TEMPERATURE
UNIT.                    L-5172 : EQUIPMENT NUMBER
BASE.                      W.F. : BASE LOCATION
ENG .             ADAMS & BAKER : RECORDED BY
WIT .                   MR. NIX : WITNESSED BY
~Curve Information -----------------------------------------
DEPT.F          :DEPTH
CALS.IN         :
DT.US/F         :
SP.MV           :
~ASCII ------------------------------------------------------
# ...
1226.50000        8.83740       94.45383      -74.40002
1227.00000        8.82400       97.34931      -72.00002
1227.50000        8.81060       94.95315      -72.00002
1228.00000        8.75500       96.69090      -74.10002
1228.50000        8.53000      100.45244      -76.20002
1229.00000        8.72800      102.79534      -77.10002
1229.50000        8.72480      102.03641      -78.00002
1230.00000        8.63060       99.49243      -76.20002
1230.50000        8.53640       97.14588      -76.50002
1231.00000        8.47680      102.30622      -76.50002
1231.50000        8.46880      101.66303      -75.90002
1232.00000        8.46080      104.88886      -75.00002
1232.50000        8.45280      105.10578      -74.40002
1233.00000        8.44480      101.71757      -73.50002
1233.50000        8.45340       89.26194      -72.00002
1234.00000        8.48660       86.64158      -70.50002
1234.50000        8.52000       90.27713      -66.90002
1235.00000        8.55340       96.54064      -63.30002
1235.50000        8.60440      101.03168      -56.65802
1236.00000        8.75120      100.05416      -51.96002
1236.50000        8.98000       96.76912      -49.41002
1237.00000        9.13420      102.72311      -48.00003
1237.50000        9.14240      110.90924      -47.70003
1238.00000        8.95500      109.88212      -47.10003
1238.50000        8.88000      103.49689      -45.90003
1239.00000        9.16280      105.25944      -45.00003
1239.50000        9.49760      112.60264      -45.00003
1240.00000        9.28500      103.18966      -45.00003
1240.50000        9.34240       93.62754      -44.70003
1241.00000        9.58000       86.39212      -45.60003
1241.50000        9.37480       86.20329      -45.90003
1242.00000        9.16940       71.48974      -46.20003
1242.50000        8.96420       80.66792      -46.80003
1243.00000        8.80000      104.38008      -47.10003
1243.50000        8.80000       94.85797      -46.20003
1244.00000        9.05380       91.28820      -46.80003
1244.50000        9.30760       98.97830      -46.20003
1245.00000        9.34000      108.14986      -45.30003
1245.50000        9.04000      104.39557      -44.70003
1246.00000        8.98720      107.58966      -44.10003
1246.50000        9.30540      110.39387      -44.10003
1247.00000        9.52300      109.56913      -44.90703
1247.50000        9.33840      108.38824      -45.25503
1248.00000        9.15380      103.42960      -45.60003
1248.50000        9.28400       95.91640      -45.09903
1249.00000        9.24860      100.73647      -44.66703
1249.50000        9.05060       96.71334      -44.49903
1250.00000        9.20400       78.09526      -45.26703
1250.50000        9.40800       78.79134      -47.56803
1251.00000        9.40280       81.42194      -49.80002
1251.50000        9.16000       89.70727      -52.05002
1252.00000        8.91720       96.45491      -52.80002
1252.50000        8.82000       98.99357      -51.60002
1253.00000        8.82000       93.18474      -50.70002
1253.50000        8.82000       92.88876      -48.60002
1254.00000        8.97280       93.92215      -45.60003
1254.50000        9.16360       98.34837      -45.45003
1255.00000        9.07500      102.68233      -45.90003
1255.50000        8.74500       99.36852      -44.10003
1256.00000        8.63140       93.62417      -43.50003
1256.50000        8.76000       90.44329      -43.80003
1257.00000        9.11300       97.53021      -44.70003
1257.50000        8.87760      102.26728      -46.80003
1258.00000        8.64240      101.10524      -45.60003
1258.50000        8.40700      103.46104      -43.20003
1259.00000        8.70000      101.50535      -40.20003
1259.50000        9.06860       99.10919      -39.00003
1260.00000        9.21140       98.76362      -39.00003
1260.50000        9.22100      103.62635      -39.30003
1261.00000        9.20200      111.76320      -39.90003
1261.50000        9.18280      111.66563      -41.40003
1262.00000        9.16380       97.73383      -42.00003
1262.50000        9.15200       80.74317      -42.60003
1263.00000        9.14200       67.16355      -42.90003
1263.50000        9.07000       84.21668      -43.20003
1264.00000        8.98260       98.87631      -42.90003
1264.50000        8.89500       96.97023      -42.30003
1265.00000        8.86000       95.06415      -41.40003
1265.50000        8.86000       95.82571      -39.00003
1266.00000        8.90660       99.64380      -39.00003
1266.50000        8.96500      101.10675      -39.00003
1267.00000        8.98280      100.47380      -39.00003
1267.50000        8.94000       98.68974      -40.50003
1268.00000        8.89720       85.86077      -40.80003
1268.50000        8.79700       66.13138      -42.00003
1269.00000        8.65840       60.72333      -43.20003
1269.50000        8.52000       61.51366      -47.40003
1270.00000        8.84000       62.73554      -48.00003
1270.50000        9.17200       63.00504      -48.60002
1271.00000        9.17660       61.49876      -48.30003
1271.50000        8.96000       63.78213      -48.30003
1272.00000        8.74340       73.12037      -48.30003
1272.50000        8.52660       80.47713      -48.30003
1273.00000        8.60500       83.05316      -47.40003
1273.50000        8.88000       83.86135      -46.80003
1274.00000        8.85980       83.13582      -46.20003
1274.50000        8.83940       85.41952      -45.30003
1275.00000        8.81920       88.03326      -45.00003
1275.50000        8.79480       86.45455      -45.30003
1276.00000        8.77460       77.03165      -46.80003
1276.50000        8.75440       71.90138      -47.70003
1277.00000        8.73400       78.18573      -49.20002
1277.50000        8.71380       91.38174      -51.60002
1278.00000        8.69360       99.91541      -54.90002
1278.50000        8.67320      100.74344      -57.60002
1279.00000        8.65300       99.63795      -59.40002
1279.50000        8.63280       97.73782      -62.40002
1280.00000        8.61240       99.53807      -62.40002
1280.50000        8.58820       98.77285      -62.10002
1281.00000        8.58780       95.69912      -61.80002
1281.50000        8.60080       95.95870      -61.50002
1282.00000        8.61400       97.54763      -61.80002
1282.50000        8.62700       95.36708      -62.10002
1283.00000        8.64000       96.19511      -63.90002
1283.50000        8.65300       99.86737      -65.10002
1284.00000        8.66600       98.62100      -66.60002
1284.50000        8.67920       97.09290      -69.60002
1285.00000        8.69220       96.45665      -71.40002
1285.50000        8.68840       99.38486      -74.70002
1286.00000        8.66900      101.70296      -76.20002
1286.50000        8.64960      100.48339      -75.00002
1287.00000        8.63040       97.61997      -74.70002
1287.50000        8.61100       95.53267      -73.29002
1288.00000        8.59160       93.87261      -70.74002
1288.50000        8.59420       90.27805      -67.87502
1289.00000        8.63000       92.30151      -63.75002
1289.50000        8.66580       98.06899      -59.62502
1290.00000        8.65500       96.80775      -61.50002
1290.50000        8.60500       95.54750      -64.89902
1291.00000        8.58540       89.74064      -67.50002
1291.50000        8.59920       86.07167      -69.30002
1292.00000        8.61280       89.42647      -68.10002
1292.50000        8.62660       93.87551      -66.00002
1293.00000        8.64020       94.59971      -59.70002
1293.50000        8.65400       93.33846      -57.00002
1294.00000        8.66760       92.33019      -54.00002
1294.50000        8.68140       92.94096      -52.50002
1295.00000        8.69500       94.99815      -51.00002
1295.50000        8.71160       96.48788      -49.50002
1296.00000        8.72520       97.23059      -49.20002
1296.50000        8.73900       96.54177      -49.20002
1297.00000        8.75260       93.75374      -49.80002
1297.50000        8.76640       93.97860      -51.60002
