~Version ---------------------------------------------------
VERS. 2.0 : CWLS LOG ASCII STANDARD - VERSION 2.0
WRAP. NO  : One line per depth step
DLM . SPACE : Column Data Section Delimiter
~Well ------------------------------------------------------
STRT.F          866 : START DEPTH
STOP.F       1785.0 : STOP DEPTH
STEP.F          0.5 : STEP
NULL.       -999.25 : NULL VALUE
COMP.                 WALSH & WATTS, INC, : COMPANY
WELL.                         SALMON E 41 : WELL
FLD .                        NORTH NOCONA : FIELD
CNTY.                            MONTAGUE : COUNTY
STAT.                               TEXAS : STATE
CTRY.                                 USA : COUNTRY
SEC .                                     : SECTION
TWP .                                     : TOWNSHIP
RGE .                                     : RANGE
LOC . 300' N OF NO. 40
150' W OF EL & 385' E OF NO. 87
F. ROBERTSON SURVEY : LOCATION
EKB .F                          : ELEVATION KELLY BUSHING
EDF .F                          : ELEVATION DERRICK FLOOR
EGL .F                      878 : ELEVATION GROUND LEVEL
PDAT.              GROUND LEVEL : PERMANENT DATUM
EPD .                       878 : ELEVATION PERMANENT DATUM
APD .                           : ABOVE PERMANENT DATUM
LMF .                        KB : LOG MEASURED FROM
DMF .                        KB : DRILLING MEASURED FROM
API .            42337037790000 : API NUMBER
UWI .            42337037790000 : UWI NUMBER
DIGC.                     NthDS : DIGITIZING COMPANY
~Params ----------------------------------------------------
SRVC.                LANE WELLS : LOGGING COMPANY
LOG .                        AC : LOG
DATE.                1965-12-01 : RUN DATE
RUN .                         1 : RUN NUMBER
TDD .F                     1790 : TOTAL DEPTH DRILLER
TDL .F                     1791 : TOTAL DEPTH LOGGER
BOTL.F                     1784 : BOTTOM LOGGED INTERVAL
TOPL.F                      880 : TOP LOGGED INTERVAL
CSGS.IN                         : CASING SIZE
CSGD.F                          : CASING DRILLER
CSGL.F                          : CASING LOGGER
BS  .IN                       9 : BIT SIZE
MUD .                       GEL : MUD TYPE
MUDD.                        10 : MUD DENSITY
MUDV.                        80 : MUD VISCOSITY
PH  .                       9.0 : MUD PH
FL  .                       6.8 : FLUID LOSS
MUDS.                       PIT : SOURCE OF SAMPLE
RM  .OHMM                  1.95 : MUD RESISTIVITY
RMT .DEGF                    74 : RM TEMPERATURE
RMF .OHMM                   1.5 : MUD FILTRATE RESISTIVITY
RMFT.DEGF                    74 : RMF TEMPERATURE
RMC .OHMM                   2.3 : MUD CAKE RESISTIVITY
RMCT.DEGF                    74 : RMC TEMPERATURE
RMFS.                  MEASURED : RMF SOURCE
RMCS.                           : RMC SOURCE
RMBH.OHMM                   1.5 : MUD RESISTIVITY AT BHT
BHT .DEGF                    97 : BOTTOM HOLE TEMPERATURE
TIMC.                           : TIME CIRCULATION STOPPED
TIML.                           : TIME LOGGER ON BOTTOM
TMAX.DEGF                    97 : MAXIMUM RECORDED TEMPERATURE
UNIT.                    L-5172 : EQUIPMENT NUMBER
BASE.                      W.F. : BASE LOCATION
ENG .             ADAMS & BAKER : RECORDED BY
WIT .                   MR. NIX : WITNESSED BY
~Curve Information -----------------------------------------
DEPT.F          :DEPTH
CALS.IN         :
DT.US/F         :
SP.MV           :
~ASCII ------------------------------------------------------
# ...
939.00000        8.76434       83.96397      -55.20421
939.50000        8.74801       87.40161      -61.73907
940.00000        8.73187       91.01925      -63.59165
940.50000        8.71574       97.01120      -64.26994
941.00000        8.71713      108.88779      -59.86855
941.50000        8.72709      123.76470      -54.02990
942.00000        8.78606      122.94136      -48.40640
942.50000        9.01454      118.44305      -41.86556
943.00000        9.47948      117.84471      -33.73210
943.50000        9.74502      118.65336      -29.40242
944.00000        9.61753      120.68801      -29.16338
944.50000        9.49004      122.72265      -29.96118
945.00000        9.36255      123.45131      -30.75601
945.50000        9.20956      118.95299      -31.37453
946.00000        9.14522      119.19765      -31.07573
946.50000        9.33327      122.05629      -30.77692
947.00000        9.40398      124.10827      -29.58170
947.50000        9.29801      127.85991      -29.28290
948.00000        9.19223      126.89457      -28.08768
948.50000        9.15080      125.06324      -27.49007
949.00000        9.36653      126.28689      -27.78887
949.50000        9.29482      127.04154      -27.78887
950.00000        9.22311      125.69300      -28.38648
950.50000        9.12335      121.85619      -28.74254
951.00000        9.05150      116.20783      -30.23955
951.50000        9.04990      114.51457      -30.53895
952.00000        9.27844      117.70265      -30.23955
952.50000        9.25349      120.23470      -29.64075
953.00000        9.15369      120.71790      -29.34135
953.50000        9.05389      119.07450      -29.04195
954.00000        8.99601      120.52912      -30.23955
954.50000        9.10579      119.87574      -30.23955
955.00000        9.19022      120.29314      -30.23955
955.50000        9.17365      123.73845      -30.23955
956.00000        9.03812      125.71317      -30.53895
956.50000        8.90279      121.24127      -30.23955
957.00000        8.78443      114.69959      -31.43715
957.50000        8.87425      112.40813      -32.03596
958.00000        8.97405      116.29810      -32.03596
958.50000        8.92215      123.27878      -32.63476
959.00000        8.83233      124.72642      -32.93416
959.50000        9.00738      124.47882      -33.53296
960.00000        9.24850      122.15446      -33.23356
960.50000        9.30679      120.41435      -33.53296
961.00000        9.09042      116.27944      -33.23356
961.50000        8.87425      114.69486      -32.03596
962.00000        8.84092      119.20297      -30.83835
962.50000        8.85429      123.77089      -29.94015
963.00000        9.05389      124.68979      -29.34135
963.50000        9.15449      120.80313      -29.34135
964.00000        9.10639      116.71707      -29.34135
964.50000        9.04870      118.85563      -29.04195
965.00000        9.00060      124.44781      -28.44314
965.50000        8.95269      128.63655      -28.14374
966.00000        8.93633      132.31017      -28.44314
966.50000        9.04730      133.03365      -28.74254
967.00000        9.06387      131.78207      -31.13775
967.50000        8.93912      126.37498      -31.73656
968.00000        8.89421      120.02074      -32.93416
968.50000        8.88303      107.62166      -34.73057
969.00000        8.92754       98.18967      -36.52697
969.50000        8.93273       94.16343      -38.02398
970.00000        8.87964       93.85601      -39.52099
970.50000        8.82635       96.38008      -41.61679
971.00000        8.78942       99.19328      -42.51500
971.50000        8.77445       98.04140      -44.61080
972.00000        8.76208       94.71041      -47.00601
972.50000        8.70459       93.44852      -49.40122
973.00000        8.57984       94.96762      -50.59883
973.50000        8.69182       98.54851      -52.09583
974.00000        8.74571      100.03371      -52.99404
974.50000        8.62355       98.04168      -52.69463
975.00000        8.63473       97.08422      -52.09583
975.50000        8.73453       95.41988      -52.39523
976.00000        8.76387       87.66485      -52.39523
976.50000        8.77565       75.74201      -52.69463
977.00000        8.78742       61.82549      -53.29344
977.50000        8.80519       57.16616      -54.19164
978.00000        8.83194       60.46989      -55.38924
978.50000        8.85888       68.64298      -55.68865
979.00000        8.89122       79.91110      -55.98805
979.50000        8.91796       90.64749      -56.88625
980.00000        8.88423       98.37625      -57.48505
980.50000        8.75948       99.41080      -57.78445
981.00000        8.63473      100.12431      -57.78445
981.50000        8.55489      103.11697      -56.88625
982.00000        8.47505      106.10964      -52.69463
982.50000        8.39521      108.95275      -49.70062
983.00000        8.61357      108.00725      -44.31140
983.50000        8.83194      112.39605      -41.61679
984.00000        9.05010      121.37073      -35.62877
984.50000        9.18962      121.62164      -33.53296
985.00000        9.30938      105.77127      -30.23955
985.50000        9.42914       96.35058      -30.23955
986.00000        9.57285       98.76730      -30.23955
986.50000        9.34331      104.36314      -28.74254
987.00000        9.11377      109.51631      -27.84434
987.50000        9.12415      113.30658      -26.34734
988.00000        9.13433      111.84164      -25.44913
988.50000        9.14471      107.49835      -25.14973
989.00000        9.15509      106.75125      -26.04793
989.50000        9.16547      111.91771      -26.94614
990.00000        9.17365      114.66113      -27.54494
990.50000        9.17365      117.30484      -27.54494
991.00000        9.17365      119.34536      -28.14374
991.50000        9.26946      120.70693      -30.23955
992.00000        9.26886      121.24796      -30.23955
992.50000        9.16128      118.50785      -29.64075
993.00000        9.13373      121.05918      -30.23955
993.50000        9.31158      122.73181      -31.43715
994.00000        9.15728      112.39154      -31.73656
994.50000        9.10978      104.25732      -33.23356
995.00000        9.38323       94.78744      -35.02997
995.50000        9.23353       95.46207      -35.92817
996.00000        9.08383      100.07486      -36.82638
996.50000        9.03892      101.65411      -39.82039
997.00000        9.02016      102.96981      -40.71859
997.50000        9.00140      107.60055      -38.02398
998.00000        8.99401      112.26519      -37.72458
998.50000        8.99401      113.31868      -36.52697
999.00000        8.99401      105.66866      -36.52697
999.50000        9.13533      100.55835      -36.52697
1000.00000        9.27685       93.94814      -37.72458
1000.50000        9.19940       92.21773      -40.11979
1001.00000        9.00679       93.58889      -41.31739
1001.50000        8.81437       95.68216      -43.11380
1002.00000        8.76906       95.39198      -46.70661
1002.50000        8.72355       94.57591      -47.60482
1003.00000        8.72016       93.59583      -46.70661
1003.50000        8.72695       93.59748      -46.10781
1004.00000        8.73393       93.59913      -44.31140
1004.50000        8.74072       93.02011      -43.41320
1005.00000        8.74770       90.45803      -42.51500
1005.50000        8.75449       89.91885      -43.71260
1006.00000        8.92076       93.29199      -45.20961
1006.50000        9.05389       96.66414      -46.40721
1007.00000        9.01397       99.81717      -49.70062
1007.50000        8.81437       99.08875      -50.59883
1008.00000        8.61477       96.70030      -49.70062
1008.50000        8.72575       95.30754      -48.50302
1009.00000        8.79082       96.70361      -47.60482
1009.50000        8.67285       99.69329      -47.00601
1010.00000        8.55489      101.71585      -46.70661
1010.50000        8.77944      102.28622      -45.80841
1011.00000        8.88842      104.18029      -45.20961
1011.50000        8.90020      121.15728      -44.61080
