~Version ---------------------------------------------------
VERS. 2.0 : CWLS LOG ASCII STANDARD - VERSION 2.0
WRAP. NO  : One line per depth step
DLM . SPACE : Column Data Section Delimiter
~Well ------------------------------------------------------
STRT.F          500 : START DEPTH
STOP.F        996.0 : STOP DEPTH
STEP.F          0.5 : STEP
NULL.       -999.25 : NULL VALUE
COMP.                       WALSH & WATTS : COMPANY
WELL.                           HYNDS B 6 : WELL
FLD .                           N. NOCONA : FIELD
CNTY.                            MONTAGUE : COUNTY
STAT.                               TEXAS : STATE
CTRY.                                 USA : COUNTRY
SEC .                                     : SECTION
TWP .                                     : TOWNSHIP
RGE .                                     : RANGE
LOC . 550' FR W/L OF LEASE, 150' FR S/L OF LEASE, 400' FR NO 4 WELL, 300' FR NO 3 WELL : LOCATION
EKB .F                          : ELEVATION KELLY BUSHING
EDF .F                          : ELEVATION DERRICK FLOOR
EGL .F                          : ELEVATION GROUND LEVEL
PDAT.                        GL : PERMANENT DATUM
EPD .                           : ELEVATION PERMANENT DATUM
APD .                         6 : ABOVE PERMANENT DATUM
LMF .                        KB : LOG MEASURED FROM
DMF .                        KB : DRILLING MEASURED FROM
API .            42337038650000 : API NUMBER
UWI .                           : UWI NUMBER
DIGC.                     NthDS : DIGITIZING COMPANY
~Params ----------------------------------------------------
SRVC.                LANE WELLS : LOGGING COMPANY
LOG .                       GRN : LOG
DATE.                1957-10-16 : RUN DATE
RUN .                         1 : RUN NUMBER
TDD .F                     1015 : TOTAL DEPTH DRILLER
TDL .F                      997 : TOTAL DEPTH LOGGER
BOTL.F                    996.5 : BOTTOM LOGGED INTERVAL
TOPL.F                      500 : TOP LOGGED INTERVAL
CSGS.IN                         : CASING SIZE
CSGD.F                          : CASING DRILLER
CSGL.F                          : CASING LOGGER
BS  .IN                     5.5 : BIT SIZE
MUD .                           : MUD TYPE
MUDD.                           : MUD DENSITY
MUDV.                           : MUD VISCOSITY
PH  .                           : MUD PH
FL  .                           : FLUID LOSS
MUDS.                           : SOURCE OF SAMPLE
RM  .OHMM                       : MUD RESISTIVITY
RMT .DEGF                       : RM TEMPERATURE
RMF .OHMM                       : MUD FILTRATE RESISTIVITY
RMFT.DEGF                       : RMF TEMPERATURE
RMC .OHMM                       : MUD CAKE RESISTIVITY
RMCT.DEGF                       : RMC TEMPERATURE
RMFS.                           : RMF SOURCE
RMCS.                           : RMC SOURCE
RMBH.OHMM                       : MUD RESISTIVITY AT BHT
BHT .DEGF                       : BOTTOM HOLE TEMPERATURE
TIMC.                           : TIME CIRCULATION STOPPED
TIML.                           : TIME LOGGER ON BOTTOM
TMAX.DEGF                       : MAXIMUM RECORDED TEMPERATURE
UNIT.                           : EQUIPMENT NUMBER
BASE.                           : BASE LOCATION
ENG .                     PRICE : RECORDED BY
WIT .                       NIX : WITNESSED BY
~Curve Information -----------------------------------------
DEPT.F          :DEPTH
GRN.GAPI        :
NEUT.API        :
~ASCII ------------------------------------------------------
# ...
900.00000       31.71774     2199.24519
900.50000       31.97132     2262.73126
901.00000       28.83512     2260.73665
901.50000       27.32974     2344.13287
902.00000       27.31182     2440.32334
902.50000       23.81720     2536.51380
903.00000       19.60573     2632.70427
903.50000       15.57347     2607.18765
904.00000       13.25896     2560.46708
904.50000       15.30466     2524.88757
905.00000       16.67831     2532.07535
905.50000       16.20071     2486.01965
906.00000       16.11111     2436.83726
906.50000       17.79122     2382.92891
907.00000       19.47132     2344.29459
907.50000       20.23297     2367.20564
908.00000       19.42652     2390.78156
908.50000       18.96057     2401.25775
909.00000       18.23924     2367.47519
909.50000       16.82795     2323.45003
910.00000       17.12903     2325.42667
910.50000       19.98028     2295.47160
911.00000       22.83154     2249.36199
911.50000       26.14695     2199.19129
912.00000       26.77419     2182.62345
912.50000       24.89247     2216.44196
913.00000       21.86828     2250.27843
913.50000       18.90143     2284.09694
914.00000       16.02150     2294.28562
914.50000       15.75269     2247.04393
915.00000       16.64874     2176.28024
915.50000       17.21595     2175.83100
916.00000       16.46953     2152.14727
916.50000       16.87276     2105.30091
917.00000       15.84229     2058.45455
917.50000       14.90143     2050.49409
918.00000       15.46416     2014.95052
918.50000       17.20609     1966.03767
919.00000       18.95609     1917.12483
919.50000       20.71057     1883.37820
920.00000       22.18638     1910.33238
920.50000       22.31182     1909.55969
921.00000       21.75627     1919.83822
921.50000       23.97849     1957.05295
922.00000       27.02060     1912.12932
922.50000       29.82078     1908.17604
923.00000       31.43369     1871.33867
923.50000       30.89605     1855.70525
924.00000       32.03136     1851.42852
924.50000       33.51254     1816.49591
925.00000       33.33781     1831.26680
925.50000       34.12186     1825.67830
926.00000       35.24193     1793.72862
926.50000       36.36200     1795.57947
927.00000       37.13888     1809.34407
927.50000       36.09318     1792.63248
928.00000       35.37634     1765.13922
928.50000       35.58153     1775.56150
929.00000       36.54121     1767.47525
929.50000       37.07885     1787.69088
930.00000       35.90232     1762.98289
930.50000       35.83243     1752.20122
931.00000       37.42114     1779.15539
931.50000       38.63171     1764.77983
932.00000       38.10931     1795.92089
932.50000       38.06451     1827.07992
933.00000       38.30376     1858.22097
933.50000       35.91397     1866.18144
934.00000       35.82437     1908.53543
934.50000       34.92831     1895.95682
935.00000       32.79838     1912.12932
935.50000       33.52240     1892.66841
936.00000       34.24551     1906.73849
936.50000       34.03225     1920.52106
937.00000       33.73386     1884.09698
937.50000       34.92831     1871.87776
938.00000       35.00268     1856.78342
938.50000       36.27239     1817.25063
939.00000       37.16845     1812.70436
939.50000       36.60125     1809.11047
940.00000       35.40591     1826.77444
940.50000       35.60035     1823.55790
941.00000       36.12903     1841.45548
941.50000       36.22132     1837.37641
942.00000       36.98924     1815.81307
942.50000       36.89963     1831.85979
943.00000       35.44623     1825.87596
943.50000       33.85304     1793.17156
944.00000       34.74910     1792.93796
944.50000       34.21146     1780.05387
945.00000       34.48028     1770.17067
945.50000       34.76881     1827.22367
946.00000       33.92293     1919.31710
946.50000       34.18906     1984.90560
947.00000       35.19713     1969.63156
947.50000       36.09318     1998.38268
948.00000       34.32705     1999.46085
948.50000       32.26254     2082.83910
949.00000       32.30017     2082.83910
949.50000       31.92652     2113.74655
950.00000       30.80645     2122.37189
950.50000       31.56809     2095.05832
951.00000       32.62813     2081.49139
951.50000       33.13619     2099.01160
952.00000       35.10752     2055.72320
952.50000       36.36200     2012.43479
953.00000       37.21325     2034.32158
953.50000       37.56272     2023.84539
954.00000       36.94444     2048.69714
954.50000       36.67562     2072.95590
955.00000       34.72490     2077.25060
955.50000       32.56630     2108.19399
956.00000       32.17293     2139.98195
956.50000       31.79211     2158.31079
957.00000       30.08960     2147.88851
957.50000       31.61290     2124.52822
958.00000       33.40501     2132.43478
958.50000       35.19713     2111.19489
959.00000       35.51075     2079.24521
959.50000       36.13171     2095.72319
960.00000       38.69175     2054.98645
960.50000       38.51254     2012.75824
961.00000       38.69175     2009.64953
961.50000       41.21146     1988.40964
962.00000       42.72401     1979.13740
962.50000       40.77239     2017.62796
963.00000       38.33333     2015.27397
963.50000       38.24372     2040.30541
964.00000       39.22938     2033.87235
964.50000       38.78135     2053.00981
965.00000       37.43727     2051.62616
965.50000       37.81092     2030.27846
966.00000       38.24372     2032.52464
966.50000       38.06451     2039.71242
967.00000       36.64605     2015.32787
967.50000       35.85035     2011.85977
968.00000       35.64515     2022.33596
968.50000       36.09318     2024.67199
969.00000       35.38888     1994.33956
969.50000       32.95698     2000.44917
970.00000       32.87992     2030.87145
970.50000       29.73118     2061.27576
971.00000       31.07526     2032.83012
971.50000       32.37455     2058.76004
972.00000       32.77777     2061.27576
972.50000       31.01792     2124.16883
973.00000       28.53404     2165.49857
973.50000       26.21863     2164.72588
974.00000       24.15770     2160.62885
974.50000       22.24910     2188.85885
975.00000       20.56899     2181.67107
975.50000       20.77061     2116.98105
976.00000       19.81093     2057.68187
976.50000       20.77061     2086.59471
977.00000       23.45878     2115.99273
977.50000       26.34587     2116.98105
978.00000       29.01433     2106.55877
978.50000       30.80645     2121.47342
979.00000       31.43369     2106.19938
979.50000       29.82078     2097.21466
980.00000       29.67473     2133.74655
980.50000       26.25896     2160.10773
981.00000       25.26881     2151.12301
981.50000       23.47670     2149.68545
982.00000       22.38351     2203.23441
982.50000       22.47311     2197.62794
983.00000       21.25448     2259.38894
983.50000       20.03584     2312.39882
984.00000       18.57347     2306.01967
984.50000       17.35484     2236.58571
985.00000       16.63082     2154.71690
985.50000       17.94803     2145.73217
986.00000       19.51613     2128.35571
986.50000       20.46595     2161.31169
987.00000       19.99014     2183.46802
987.50000       19.33691     2147.52912
988.00000       19.96415     2120.57494
988.50000       20.34050     2124.52822
989.00000       21.60663     2097.55608
989.50000       21.10304     2013.31530
990.00000       19.18369     1943.12662
990.50000       19.24014     1891.59024
991.00000       20.54659     1903.14460
991.50000       21.85304     2010.96130
992.00000       21.66666     2141.77889
992.50000       23.01075     1727.04399
993.00000       24.72849     1738.41865
993.50000       24.66397     1754.89664
994.00000       23.64605     1741.41955
994.50000       22.83154     1759.38900
995.00000       22.83154     1748.60733
995.50000       24.26523     1774.55521
996.00000       26.05734     1795.92089
