~Version ---------------------------------------------------
VERS. 2.0 : CWLS LOG ASCII STANDARD - VERSION 2.0
WRAP. NO  : One line per depth step
DLM . SPACE : Column Data Section Delimiter
~Well ------------------------------------------------------
STRT.F          572 : START DEPTH
STOP.F       1770.0 : STOP DEPTH
STEP.F          0.5 : STEP
NULL.       -999.25 : NULL VALUE
COMP.         WALSH & WATTS, INCORPORATED : COMPANY
WELL.                         SALMON E 44 : WELL
FLD .                             REGULAR : FIELD
CNTY.                            MONTAGUE : COUNTY
STAT.                               TEXAS : STATE
CTRY.                                 USA : COUNTRY
SEC .                                     : SECTION
TWP .                                     : TOWNSHIP
RGE .                                     : RANGE
LOC . 300' WEST OF NO 23, 300' SOUTH OF D-9, F.ROBERTSON SURV. : LOCATION
EKB .F                      862 : ELEVATION KELLY BUSHING
EDF .F                          : ELEVATION DERRICK FLOOR
EGL .F                      856 : ELEVATION GROUND LEVEL
PDAT.                        GL : PERMANENT DATUM
EPD .                       856 : ELEVATION PERMANENT DATUM
APD .                         6 : ABOVE PERMANENT DATUM
LMF .                        KB : LOG MEASURED FROM
DMF .                        KB : DRILLING MEASURED FROM
API .            42337038720000 : API NUMBER
UWI .                           : UWI NUMBER
DIGC.                     NthDS : DIGITIZING COMPANY
~Params ----------------------------------------------------
SRVC.              SCHLUMBERGER : LOGGING COMPANY
LOG .                     SONIC : LOG
DATE.                1965-11-28 : RUN DATE
RUN .                         1 : RUN NUMBER
TDD .F                     1179 : TOTAL DEPTH DRILLER
TDL .F                     1179 : TOTAL DEPTH LOGGER
BOTL.F                     1170 : BOTTOM LOGGED INTERVAL
TOPL.F                      600 : TOP LOGGED INTERVAL
CSGS.IN                         : CASING SIZE
CSGD.F                          : CASING DRILLER
CSGL.F                          : CASING LOGGER
BS  .IN                   7.875 : BIT SIZE
MUD .                       GEL : MUD TYPE
MUDD.                        10 : MUD DENSITY
MUDV.                        98 : MUD VISCOSITY
PH  .                           : MUD PH
FL  .                           : FLUID LOSS
MUDS.                CIRCULATED : SOURCE OF SAMPLE
RM  .OHMM                   2.0 : MUD RESISTIVITY
RMT .DEGF                    81 : RM TEMPERATURE
RMF .OHMM                   1.5 : MUD FILTRATE RESISTIVITY
RMFT.DEGF                    81 : RMF TEMPERATURE
RMC .OHMM                       : MUD CAKE RESISTIVITY
RMCT.DEGF                       : RMC TEMPERATURE
RMFS.                         M : RMF SOURCE
RMCS.                           : RMC SOURCE
RMBH.OHMM                   1.6 : MUD RESISTIVITY AT BHT
BHT .DEGF                   100 : BOTTOM HOLE TEMPERATURE
TIMC.                           : TIME CIRCULATION STOPPED
TIML.                           : TIME LOGGER ON BOTTOM
TMAX.DEGF                   100 : MAXIMUM RECORDED TEMPERATURE
UNIT.                      4559 : EQUIPMENT NUMBER
BASE.                       WFS : BASE LOCATION
ENG .                      FINK : RECORDED BY
WIT .                       NIX : WITNESSED BY
~Curve Information -----------------------------------------
DEPT.F          :DEPTH
CALS.IN         :
DT.US/F         :
SP.MV           :
~ASCII ------------------------------------------------------
# ...
791.00000        7.65010       97.22832      -90.30419
791.50000        7.65010       99.92024      -88.67596
792.00000        7.65010      100.43271      -86.10837
792.50000        7.69980      102.97109      -79.77139
793.00000        7.70974      106.72483      -73.21075
793.50000        7.70974      112.33300      -69.14316
794.00000        7.70974      115.23430      -68.92845
794.50000        7.56064      115.13460      -67.16304
795.00000        7.38509      115.75873      -65.00996
795.50000        7.10079      116.86939      -66.99903
796.00000        6.54175      116.42074      -68.54674
796.50000        6.40755      117.76670      -68.33203
797.00000        6.81511      122.06580      -68.68690
797.50000        7.27634      124.36690      -71.03382
798.00000        7.64354      123.19043      -72.46523
798.50000        7.64632      120.55833      -72.66503
799.00000        7.54076      116.81954      -72.99604
799.50000        7.43519      110.90728      -74.97020
800.00000        7.37177      104.75574      -77.35588
800.50000        7.40843      104.57086      -77.68332
801.00000        7.38829      103.21657      -75.30680
801.50000        7.45143      110.38424      -77.91537
802.00000        7.67197      121.13773      -78.52990
802.50000        7.70481      117.47006      -77.83194
803.00000        7.60253      103.67266      -79.65777
803.50000        7.53557      100.07985      -79.97766
804.00000        7.56008      104.25150      -79.15856
804.50000        7.58736      111.20759      -78.31476
805.00000        7.62675      111.75649      -75.93824
805.50000        7.68320      105.16966      -74.93075
806.00000        7.66089      105.36927      -76.58397
806.50000        7.64690      107.96408      -78.63004
807.00000        7.71659      108.81238      -78.63446
807.50000        7.85161      113.35330      -78.28173
808.00000        7.92770      105.56887      -76.50044
808.50000        7.79804       95.58883      -76.21617
809.00000        7.78525       94.92316      -81.92591
809.50000        7.69071      100.47905      -84.31215
810.00000        7.58526      108.36328      -84.19752
810.50000        7.60084      119.70060      -80.92814
811.00000        7.70967      107.36527      -78.90876
811.50000        7.73914       93.46009      -78.76436
812.00000        7.61801       97.61777      -78.67949
812.50000        7.60674      100.00000      -78.68391
813.00000        7.57510      105.83933      -82.02164
813.50000        7.45358      118.17266      -81.31177
814.00000        7.41142      129.32136      -79.38167
814.50000        7.48811      120.69861      -79.96644
815.00000        7.57829       97.55190      -81.42412
815.50000        7.67720       95.18963      -82.63686
816.00000        7.57770      108.94811      -80.93295
816.50000        7.56748      122.83433      -78.50285
817.00000        7.61679      131.81637      -76.73942
817.50000        7.60995      120.87126      -75.42241
818.00000        7.60291       99.08184      -75.16195
818.50000        7.53649       85.55889      -76.05922
819.00000        7.08976       96.90020      -77.55172
819.50000        6.71447      106.59980      -77.85375
820.00000        6.73699      115.79841      -78.58733
820.50000        6.54325      123.03393      -81.67892
821.00000        6.33462      120.61377      -82.53155
821.50000        6.63393      115.49901      -81.18776
822.00000        7.17728      102.07585      -81.40646
822.50000        7.54405       86.30739      -81.62218
823.00000        7.59336       84.01198      -82.23076
823.50000        7.81132       89.17166      -83.42565
824.00000        7.83735       94.61078      -82.20983
824.50000        7.85254       96.30739      -79.61009
825.00000        7.85740       97.18563      -78.49844
825.50000        7.86226      103.13374      -77.71714
826.00000        7.86713      103.34032      -78.26322
826.50000        7.90870       97.96208      -79.22685
827.00000        7.90265       91.89621      -81.79078
827.50000        7.78906       92.05589      -86.25946
828.00000        7.67548       96.44212      -86.85911
828.50000        7.51725      102.02096      -85.58674
829.00000        7.29209      103.02396      -84.31735
829.50000        6.90390       99.24152      -83.04499
830.00000        6.51591      102.77446      -81.77560
830.50000        6.31324      114.40120      -80.50324
831.00000        6.28556      118.44312      -80.08206
831.50000        6.59043      107.56487      -80.93766
832.00000        6.93318       92.12076      -79.60368
832.50000        7.21285       95.82136      -80.27773
833.00000        7.22367      102.14272      -82.43988
833.50000        7.07913      107.06587      -91.07521
834.00000        6.87248      107.46507      -96.99031
834.50000        7.20546      105.71258     -100.60780
835.00000        7.42739      104.93713     -104.22529
835.50000        7.42709      104.01497     -105.97375
836.00000        7.42680      102.87426     -101.21628
836.50000        7.42651      103.87226      -93.78114
837.00000        7.42621      105.11976      -98.44922
837.50000        7.42592      106.36727     -102.91790
838.00000        7.42562      108.96208     -105.40147
838.50000        7.42533      111.55689     -106.59636
839.00000        7.42503      109.96008     -106.69899
839.50000        7.42474      108.08883     -110.77184
840.00000        7.42445      109.20160     -114.21374
840.50000        7.42409      111.41717     -116.11100
841.00000        7.38412      114.00200     -118.09546
841.50000        7.31775      115.04990     -119.25463
842.00000        7.10575      113.05390     -118.72333
842.50000        6.49038      111.91018     -116.69799
843.00000        6.22560      111.33433     -114.67266
843.50000        6.33443      110.75849     -113.18898
844.00000        6.74743      106.59980     -113.49102
844.50000        7.28285      104.69062     -109.50736
845.00000        7.40875      105.31937     -112.53259
845.50000        7.44377      102.40020     -116.67984
846.00000        7.48607      100.87825     -120.65150
846.50000        7.50840      101.73154     -123.71929
847.00000        7.51108      103.81737     -124.43203
847.50000        7.46952      104.42116     -123.75193
848.00000        7.42795      105.46907     -122.45575
848.50000        7.42805      109.62775     -123.20421
849.00000        7.43887      117.39521     -123.95267
849.50000        7.44969      116.24751     -121.69519
850.00000        7.43147      103.91517     -119.35771
850.50000        7.41683       98.39375     -116.10519
851.00000        7.40239       95.14966     -114.30186
851.50000        7.42839       99.12377     -115.65091
852.00000        7.53262      103.80964     -115.31471
852.50000        7.52176      108.37763     -111.47653
853.00000        7.51111      111.04454     -109.09142
853.50000        7.50026      109.21601     -108.79705
854.00000        7.49956      102.59135     -109.30048
854.50000        7.53911       95.44821     -109.80093
855.00000        7.55833       90.19615     -107.61513
855.50000        7.49569       85.62588     -105.37854
856.00000        7.47049       78.49273     -104.03836
856.50000        7.47020       75.74813     -105.83561
857.00000        7.46990       76.99948     -109.69760
857.50000        7.47956       79.19986     -113.77771
858.00000        7.50417       81.60057     -116.48631
858.50000        7.50885       83.60116     -115.95290
859.00000        7.50850       86.08726     -113.86571
859.50000        7.50820       87.51643     -113.21277
860.00000        7.50791       89.49204     -113.57666
860.50000        7.50761       91.60352     -114.83606
861.00000        7.50732       92.10615     -116.44806
861.50000        7.34766       89.61078     -118.22439
862.00000        6.84936       85.95011     -120.00372
862.50000        6.75743       83.77193     -121.59779
863.00000        6.84877       82.60074     -122.45680
863.50000        7.14728       84.82610     -121.60665
