~Version ---------------------------------------------------
VERS. 2.0 : CWLS LOG ASCII STANDARD - VERSION 2.0
WRAP. NO  : One line per depth step
DLM . SPACE : Column Data Section Delimiter
~Well ------------------------------------------------------
STRT.F          194 : START DEPTH
STOP.F       1764.0 : STOP DEPTH
STEP.F          0.5 : STEP
NULL.       -999.25 : NULL VALUE
COMP.                 WALSH & WATTS, INC. : COMPANY
WELL.                         SALMON E 42 : WELL
FLD .                        NORTH NOCONA : FIELD
CNTY.                            MONTAGUE : COUNTY
STAT.                               TEXAS : STATE
CTRY.                                 USA : COUNTRY
SEC .                                     : SECTION
TWP .                                     : TOWNSHIP
RGE .                                     : RANGE
LOC . 150' FSL & 300' W OF WELL NO. 1, 407' E OF WELL NO. 5, F. ROBERTSON SURVEY : LOCATION
EKB .F                      880 : ELEVATION KELLY BUSHING
EDF .F                          : ELEVATION DERRICK FLOOR
EGL .F                      874 : ELEVATION GROUND LEVEL
PDAT.              GROUND LEVEL : PERMANENT DATUM
EPD .                       874 : ELEVATION PERMANENT DATUM
APD .                         6 : ABOVE PERMANENT DATUM
LMF .                        KB : LOG MEASURED FROM
DMF .                        KB : DRILLING MEASURED FROM
API .            42337037780000 : API NUMBER
UWI .            42337037780000 : UWI NUMBER
DIGC.                     NthDS : DIGITIZING COMPANY
~Params ----------------------------------------------------
SRVC.                LANE WELLS : LOGGING COMPANY
LOG .                       IEL : LOG
DATE.                1965-11-21 : RUN DATE
RUN .                         1 : RUN NUMBER
TDD .F                     1766 : TOTAL DEPTH DRILLER
TDL .F                     1768 : TOTAL DEPTH LOGGER
BOTL.F                     1764 : BOTTOM LOGGED INTERVAL
TOPL.F                      200 : TOP LOGGED INTERVAL
CSGS.IN                         : CASING SIZE
CSGD.F                          : CASING DRILLER
CSGL.F                          : CASING LOGGER
BS  .IN                   7.875 : BIT SIZE
MUD .              CHEMICAL GEL : MUD TYPE
MUDD.                       9.8 : MUD DENSITY
MUDV.                       123 : MUD VISCOSITY
PH  .                           : MUD PH
FL  .                           : FLUID LOSS
MUDS.                CIRCULATED : SOURCE OF SAMPLE
RM  .OHMM                   2.1 : MUD RESISTIVITY
RMT .DEGF                    70 : RM TEMPERATURE
RMF .OHMM                  1.81 : MUD FILTRATE RESISTIVITY
RMFT.DEGF                    70 : RMF TEMPERATURE
RMC .OHMM                  2.34 : MUD CAKE RESISTIVITY
RMCT.DEGF                    70 : RMC TEMPERATURE
RMFS.                  MEASURED : RMF SOURCE
RMCS.                           : RMC SOURCE
RMBH.OHMM                   1.5 : MUD RESISTIVITY AT BHT
BHT .DEGF                    98 : BOTTOM HOLE TEMPERATURE
TIMC.                           : TIME CIRCULATION STOPPED
TIML.                           : TIME LOGGER ON BOTTOM
TMAX.DEGF                    98 : MAXIMUM RECORDED TEMPERATURE
UNIT.                    L-4553 : EQUIPMENT NUMBER
BASE.                      W.F. : BASE LOCATION
ENG .                     ADAMS : RECORDED BY
WIT .   MR. HARRELSON & MR. NIX : WITNESSED BY
~Curve Information -----------------------------------------
DEPT.F          :DEPTH
CILD.MMHO       :
ILD.OHMM        :
ROP.MIN/FT      :
SN.OHMM         :
SP.MV           :
~ASCII ------------------------------------------------------
# ...
621.50000      284.05761        3.40178        -999.25        5.49249      -54.54548
622.00000      290.03913        3.32205        -999.25        5.37346      -55.73125
622.50000      296.02413        3.28192        -999.25        5.29374      -56.32413
623.00000      297.03551        3.32068        -999.25        5.25360      -56.62058
623.50000      297.05286        3.31999        -999.25        5.29236      -56.32413
624.00000      295.08215        3.35875        -999.25        5.37057      -56.32413
624.50000      288.14129        3.47640        -999.25        5.40933      -56.32413
625.00000      279.21237        3.59406        -999.25        5.52698      -56.02769
625.50000      269.28943        3.75116        -999.25        5.80243      -55.73125
626.00000      259.36648        3.86881        -999.25        6.11732      -55.43481
626.50000      249.44353        3.98646        -999.25        6.47166      -56.32413
627.00000      240.51461        4.10398        -999.25        6.90489      -57.50990
627.50000      230.59167        4.30053        -999.25        7.25923      -58.10279
628.00000      220.66872        4.41818        -999.25        7.45578      -57.80635
628.50000      213.72786        4.53584        -999.25        7.45495      -56.91702
629.00000      213.74868        4.53515        -999.25        7.41482      -55.73125
629.50000      214.76006        4.49501        -999.25        7.33523      -54.84192
630.00000      217.75950        4.41543        -999.25        7.25565      -53.95259
630.50000      220.75894        4.37529        -999.25        7.17607      -53.95259
631.00000      222.76434        4.33516        -999.25        7.13593      -53.95259
631.50000      222.78169        4.37392        -999.25        7.09579      -54.24904
632.00000      221.80501        4.41254        -999.25        7.05566      -54.24904
632.50000      220.82833        4.41185        -999.25        7.13386      -53.65615
633.00000      219.85165        4.41116        -999.25        7.17262      -53.35971
633.50000      217.88094        4.48937        -999.25        7.25069      -52.76682
634.00000      214.91967        4.60702        -999.25        7.32890      -52.76682
634.50000      210.96090        4.64578        -999.25        7.44655      -52.76682
635.00000      207.00213        4.72399        -999.25        7.56421      -53.35971
635.50000      204.03739        4.80219        -999.25        7.68186      -53.95259
636.00000      201.07265        4.84095        -999.25        7.76007      -53.95259
636.50000      200.09597        4.87971        -999.25        7.79883      -53.95259
637.00000      199.11929        4.87902        -999.25        7.79814      -53.65615
637.50000      199.13664        4.87820        -999.25        7.79745      -53.35971
638.00000      200.14802        4.87751        -999.25        7.83621      -53.35971
638.50000      199.17134        4.87682        -999.25        7.91428      -53.35971
639.00000      198.19466        4.91558        -999.25        7.95303      -52.47038
639.50000      198.21548        4.91489        -999.25        7.87345      -51.58105
640.00000      198.23283        4.87475        -999.25        7.87276      -50.98817
640.50000      200.23824        4.87407        -999.25        7.91152      -50.98817
641.00000      199.26156        4.91282        -999.25        7.91083      -51.28461
641.50000      198.28488        4.95158        -999.25        7.91014      -51.87749
642.00000      197.30820        4.91145        -999.25        7.90946      -52.17394
642.50000      197.32554        4.98952        -999.25        7.98766      -51.87749
643.00000      196.34886        4.94938        -999.25        8.02642      -51.58105
643.50000      196.36621        4.98814        -999.25        7.98629      -51.28461
644.00000      196.38356        4.98745        -999.25        8.02491      -51.28461
644.50000      196.40438        5.02621        -999.25        8.02422      -52.47038
645.00000      194.43367        5.06497        -999.25        8.02353      -53.95259
645.50000      193.45699        5.06428        -999.25        8.02284      -55.13836
646.00000      192.48031        5.10304        -999.25        7.86436      -56.91702
646.50000      191.50363        5.10235        -999.25        7.66644      -58.10279
647.00000      190.52695        5.10166        -999.25        7.62630      -58.99212
647.50000      191.53833        5.14028        -999.25        7.86230      -60.17789
648.00000      190.56165        5.13960        -999.25        8.33498      -60.77077
648.50000      190.57900        5.13891        -999.25        8.61042      -61.36366
649.00000      190.59635        5.17767        -999.25        8.57015      -61.66010
649.50000      189.62314        5.17698        -999.25        8.53001      -62.25299
650.00000      187.68431        5.26519        -999.25        8.52647      -62.54943
650.50000      187.70164        5.26451        -999.25        8.48649      -63.43876
651.00000      186.72593        5.30311        -999.25        8.48580      -63.43876
651.50000      185.75022        5.34172        -999.25        8.48512      -63.43876
652.00000      183.78147        5.34090        -999.25        8.48443      -62.84587
652.50000      183.79880        5.37950        -999.25        8.44445      -61.66010
653.00000      184.80918        5.33953        -999.25        8.40434      -60.17789
653.50000      186.81606        5.26025        -999.25        8.32507      -58.69567
654.00000      189.81252        5.18098        -999.25        8.20651      -58.69567
654.50000      192.80898        5.06242        -999.25        8.00936      -59.28856
655.00000      196.79848        4.98315        -999.25        7.81221      -60.17789
655.50000      199.79494        4.90388        -999.25        7.61506      -60.47433
656.00000      202.79140        4.78518        -999.25        7.45720      -60.47433
656.50000      205.78786        4.74520        -999.25        7.29921      -59.58500
657.00000      208.78778        4.70522        -999.25        7.21994      -58.69567
657.50000      211.78424        4.58666        -999.25        7.17996      -57.50990
658.00000      213.78766        4.50739        -999.25        7.10069      -56.32413
658.50000      218.77020        4.42812        -999.25        7.02142      -55.13836
659.00000      223.75275        4.34885        -999.25        6.86357      -53.65615
659.50000      229.72834        4.19085        -999.25        6.66642      -53.06326
660.00000      236.69697        4.15088        -999.25        6.42984      -53.65615
660.50000      244.66210        3.99302        -999.25        6.23269      -55.43481
661.00000      249.64465        3.95304        -999.25        6.15342      -56.02769
661.50000      253.63415        3.91306        -999.25        6.11344      -56.02769
662.00000      252.65844        3.99096        -999.25        6.15205      -55.73125
662.50000      245.72447        4.10815        -999.25        6.30853      -56.02769
663.00000      236.80442        4.30379        -999.25        6.54360      -56.62058
663.50000      226.89133        4.46028        -999.25        6.81796      -56.91702
664.00000      216.97824        4.65605        -999.25        7.17077      -57.21346
664.50000      208.05819        4.77325        -999.25        7.40584      -56.62058
665.00000      202.12073        4.85115        -999.25        7.44445      -56.02769
665.50000      200.15198        4.88975        -999.25        7.64023      -55.43481
666.00000      201.16235        4.81048        -999.25        7.71813      -55.43481
666.50000      205.15185        4.77050        -999.25        7.56027      -56.02769
667.00000      208.14831        4.61251        -999.25        7.36312      -57.21346
667.50000      213.13086        4.53324        -999.25        7.20527      -57.21346
668.00000      217.12036        4.41468        -999.25        7.08657      -56.32413
668.50000      222.10637        4.41399        -999.25        7.00729      -55.13836
