~Version ---------------------------------------------------
VERS. 2.0 : CWLS LOG ASCII STANDARD - VERSION 2.0
WRAP. NO  : One line per depth step
DLM . SPACE : Column Data Section Delimiter
~Well ------------------------------------------------------
STRT.F          100 : START DEPTH
STOP.F       2271.5 : STOP DEPTH
STEP.F          0.5 : STEP
NULL.       -999.25 : NULL VALUE
COMP.                       WALSH & WATTS : COMPANY
WELL.                        SALMON E 24  : WELL
FLD .                               NORTH : FIELD
CNTY.                            MONTAGUE : COUNTY
STAT.                               TEXAS : STATE
CTRY.                                 USA : COUNTRY
SEC .                                     : SECTION
TWP .                                     : TOWNSHIP
RGE .                                     : RANGE
LOC .                 SW CORNER OF LEAGUE : LOCATION
EKB .F                          : ELEVATION KELLY BUSHING
EDF .F                          : ELEVATION DERRICK FLOOR
EGL .F                      850 : ELEVATION GROUND LEVEL
PDAT.                        GL : PERMANENT DATUM
EPD .                       850 : ELEVATION PERMANENT DATUM
APD .                         5 : ABOVE PERMANENT DATUM
LMF .                        RT : LOG MEASURED FROM
DMF .                        RT : DRILLING MEASURED FROM
API .            42337038630000 : API NUMBER
UWI .                           : UWI NUMBER
DIGC.                     NthDS : DIGITIZING COMPANY
~Params ----------------------------------------------------
SRVC.               HALLIBURTON : LOGGING COMPANY
LOG .                        EL : LOG
DATE.                1950-09-25 : RUN DATE
RUN .                         1 : RUN NUMBER
TDD .F                     2272 : TOTAL DEPTH DRILLER
TDL .F                     2272 : TOTAL DEPTH LOGGER
BOTL.F                     2272 : BOTTOM LOGGED INTERVAL
TOPL.F                          : TOP LOGGED INTERVAL
CSGS.IN                         : CASING SIZE
CSGD.F                          : CASING DRILLER
CSGL.F                          : CASING LOGGER
BS  .IN                       9 : BIT SIZE
MUD .        WATER BASE AQUAGEL : MUD TYPE
MUDD.                       9.8 : MUD DENSITY
MUDV.                        39 : MUD VISCOSITY
PH  .                           : MUD PH
FL  .                           : FLUID LOSS
MUDS.                           : SOURCE OF SAMPLE
RM  .OHMM                   2.3 : MUD RESISTIVITY
RMT .DEGF                    70 : RM TEMPERATURE
RMF .OHMM                       : MUD FILTRATE RESISTIVITY
RMFT.DEGF                       : RMF TEMPERATURE
RMC .OHMM                       : MUD CAKE RESISTIVITY
RMCT.DEGF                       : RMC TEMPERATURE
RMFS.                           : RMF SOURCE
RMCS.                           : RMC SOURCE
RMBH.OHMM                       : MUD RESISTIVITY AT BHT
BHT .DEGF                       : BOTTOM HOLE TEMPERATURE
TIMC.                           : TIME CIRCULATION STOPPED
TIML.                           : TIME LOGGER ON BOTTOM
TMAX.DEGF                       : MAXIMUM RECORDED TEMPERATURE
UNIT.                           : EQUIPMENT NUMBER
BASE.                           : BASE LOCATION
ENG .                  HARRISON : RECORDED BY
WIT .                    DAWSON : WITNESSED BY
~Curve Information -----------------------------------------
DEPT.F          :DEPTH
ILD.OHMM        :
SN.OHMM         :
SP.MV           :
~ASCII ------------------------------------------------------
# ...
684.00000        3.19950        6.67779      -25.76212
684.50000        3.92320        7.59599      -26.76583
685.00000        5.15108        8.51419      -28.43870
685.50000        6.65025        9.26544      -28.43870
686.00000        8.18030        8.47746      -27.43498
686.50000        7.34557        7.54925      -26.09669
687.00000        6.51085        6.99082      -26.43126
687.50000        5.17529        6.92821      -28.10412
688.00000        3.50584        7.34557      -30.11156
688.50000        2.83806        7.76294      -33.12271
689.00000        2.59265        8.09683      -36.46843
689.50000        2.34724        8.18030      -38.47587
690.00000        2.10184        7.92988      -38.47587
690.50000        1.89983        7.67946      -37.80672
691.00000        1.72871        7.42905      -37.80672
691.50000        1.55676        7.42905      -39.81416
692.00000        1.39566        7.59599      -42.82531
692.50000        1.27963        7.67946      -44.83274
693.00000        1.16361        7.67946      -45.16732
693.50000        1.04841        7.59599      -44.49817
694.00000        1.07095        7.42905      -43.49446
694.50000        1.18698        7.34557      -41.82159
695.00000        1.30300        7.09516      -40.48330
695.50000        1.41903        6.67779      -38.81044
696.00000        1.57596        6.26043      -37.13758
696.50000        1.73205        5.75960      -34.12643
697.00000        1.88898        5.42571      -32.11899
697.50000        2.13272        5.17529      -29.77699
698.00000        2.39816        5.25876      -28.10412
698.50000        2.92154        5.34224      -26.43126
699.00000        3.52671        5.50918      -25.76212
699.50000        3.99666        5.67613      -25.76212
700.00000        4.01335        5.75960      -25.76212
700.50000        3.81386        5.75960      -26.09669
701.00000        3.71786        5.75960      -26.09669
701.50000        3.62103        5.84307      -26.09669
702.00000        3.52504        5.92654      -26.09669
702.50000        3.53339        5.84307      -26.43126
703.00000        3.56177        5.75960      -26.09669
703.50000        3.58931        5.67613      -24.75840
704.00000        3.78381        5.50918      -24.42383
704.50000        4.01753        5.34224      -24.75840
705.00000        4.18614        5.25876      -24.75840
705.50000        4.25042        5.15442      -25.09297
706.00000        4.31469        5.02003      -24.42383
706.50000        4.29883        4.91486      -23.75468
707.00000        4.13189        4.85225      -23.75468
707.50000        3.92320        4.88314      -24.08925
708.00000        3.71452        5.03589      -23.75468
708.50000        3.58931        5.00835      -24.42383
709.00000        3.58931        5.00835      -25.09297
709.50000        3.46411        5.42571      -26.43126
710.00000        3.33890        5.92654      -28.77327
710.50000        2.92154        6.59432      -31.78442
711.00000        2.42070        7.26210      -36.80301
711.50000        2.00334        7.59599      -42.49074
712.00000        1.58598        7.59599      -46.50561
712.50000        1.16861        7.51252      -49.51676
713.00000        1.01252        7.42905      -49.18219
713.50000        0.79299        7.34557      -47.17475
714.00000        0.58431        7.51252      -44.16360
714.50000        0.95492        7.67946      -40.48330
715.00000        1.47663        8.26377      -37.80672
715.50000        2.82220        9.59933      -36.80301
716.00000        3.94407       10.51753      -37.80672
716.50000        5.01836       10.85142      -39.14501
717.00000        5.90567        9.93322      -39.81416
717.50000        5.81552        8.34724      -38.47587
718.00000        5.25876        6.42738      -37.13758
718.50000        4.05926        5.84307      -34.46100
719.00000        2.93072        5.17529      -30.78070
719.50000        1.91068        5.09182      -27.10041
720.00000        1.25209        5.09182      -25.42754
720.50000        1.00167        5.00835      -25.42754
721.00000        1.00167        4.75793      -25.76212
721.50000        1.00167        4.59098      -26.09669
722.00000        1.00167        4.50751      -25.09297
722.50000        1.00167        4.25709      -23.75468
723.00000        1.14775        4.25709      -23.08554
723.50000        1.39149        4.42404      -22.41639
724.00000        1.55092        4.50751      -22.37959
724.50000        1.46411        4.59098      -22.00821
725.00000        1.37730        4.67446      -21.63684
725.50000        1.29048        4.92487      -21.31230
726.00000        1.20367        5.34224      -21.14502
726.50000        1.20785        5.59265      -20.97773
727.00000        1.25709        5.75960      -20.81045
727.50000        1.30634        5.75960      -20.74353
728.00000        1.46578        5.75960      -20.74353
728.50000        1.85476        5.75960      -20.74353
729.00000        2.34474        5.67613      -21.30227
729.50000        2.87563        5.50918      -21.85766
730.00000        3.40734        5.42571      -22.41639
730.50000        4.04424        5.34224      -22.63052
731.00000        4.13940        5.17529      -22.32606
731.50000        3.94324        4.92487      -22.02160
732.00000        3.74624        4.84140      -21.71714
732.50000        3.42237        4.75793      -21.41268
733.00000        3.39399        4.75793      -21.07810
733.50000        3.36978        4.84140      -21.07810
734.00000        3.34641        4.75793      -20.74353
734.50000        3.32220        4.67446      -20.40896
735.00000        3.29382        4.50751      -19.73981
735.50000        3.26962        4.50751      -19.40524
736.00000        3.26043        4.36143      -19.40524
736.50000        3.27462        4.25709      -19.40524
737.00000        3.29048        4.22371      -19.73981
737.50000        3.30384        4.34891      -20.40896
738.00000        3.31719        4.40985      -20.40896
738.50000        3.33055        4.37563      -20.40896
739.00000        3.31052        4.34057      -19.40524
739.50000        3.22454        4.42404      -19.07067
740.00000        3.15275        4.42404      -18.40152
740.50000        3.08097        4.50751      -18.06695
741.00000        3.01002        4.50751      -18.06695
741.50000        2.92404        4.50751      -17.73238
742.00000        2.85225        4.59098      -18.06695
742.50000        2.78631        4.50751      -18.06695
743.00000        2.72037        4.59098      -18.06695
743.50000        2.64274        4.59098      -18.40152
744.00000        2.57763        4.42404      -18.73610
744.50000        2.51169        4.17362      -19.07067
745.00000        2.44658        4.00668      -19.07067
745.50000        2.37229        3.83973      -20.07439
746.00000        2.27462        4.00668      -20.40896
746.50000        2.19366        4.25709      -20.74353
747.00000        2.11269        4.67446      -21.74725
747.50000        2.03088        5.00835      -21.74725
748.00000        1.93406        5.42571      -22.41639
748.50000        1.85225        5.59265      -23.08554
749.00000        1.72538        5.67613      -23.42011
749.50000        1.58598        5.59265      -24.42383
750.00000        1.71953        5.42571      -25.76212
750.50000        2.02003        5.25876      -27.10041
751.00000        2.15359        4.75793      -28.10412
751.50000        2.28714        4.25709      -27.10041
752.00000        2.42070        3.92320      -26.43126
752.50000        2.47663        3.83973      -25.42754
753.00000        2.53172        3.67279      -24.08925
753.50000        2.57679        3.58931      -22.41639
754.00000        2.75459        3.56511      -21.41268
754.50000        2.96327        3.50584      -20.74353
755.00000        3.17195        3.54758      -20.74353
755.50000        3.20701        3.58931      -20.40896
756.00000        3.24123        3.66361      -20.07439
756.50000        3.22621        3.75626      -19.73981
