~Version ---------------------------------------------------
VERS. 2.0 : CWLS LOG ASCII STANDARD - VERSION 2.0
WRAP. NO  : One line per depth step
DLM . SPACE : Column Data Section Delimiter
~Well ------------------------------------------------------
STRT.F          572 : START DEPTH
STOP.F       1770.0 : STOP DEPTH
STEP.F          0.5 : STEP
NULL.       -999.25 : NULL VALUE
COMP.         WALSH & WATTS, INCORPORATED : COMPANY
WELL.                         SALMON E 44 : WELL
FLD .                             REGULAR : FIELD
CNTY.                            MONTAGUE : COUNTY
STAT.                               TEXAS : STATE
CTRY.                                 USA : COUNTRY
SEC .                                     : SECTION
TWP .                                     : TOWNSHIP
RGE .                                     : RANGE
LOC . 300' WEST OF NO 23, 300' SOUTH OF D-9, F.ROBERTSON SURV. : LOCATION
EKB .F                      862 : ELEVATION KELLY BUSHING
EDF .F                          : ELEVATION DERRICK FLOOR
EGL .F                      856 : ELEVATION GROUND LEVEL
PDAT.                        GL : PERMANENT DATUM
EPD .                       856 : ELEVATION PERMANENT DATUM
APD .                         6 : ABOVE PERMANENT DATUM
LMF .                        KB : LOG MEASURED FROM
DMF .                        KB : DRILLING MEASURED FROM
API .            42337038720000 : API NUMBER
UWI .                           : UWI NUMBER
DIGC.                     NthDS : DIGITIZING COMPANY
~Params ----------------------------------------------------
SRVC.              SCHLUMBERGER : LOGGING COMPANY
LOG .                     SONIC : LOG
DATE.                1965-11-28 : RUN DATE
RUN .                         1 : RUN NUMBER
TDD .F                     1179 : TOTAL DEPTH DRILLER
TDL .F                     1179 : TOTAL DEPTH LOGGER
BOTL.F                     1170 : BOTTOM LOGGED INTERVAL
TOPL.F                      600 : TOP LOGGED INTERVAL
CSGS.IN                         : CASING SIZE
CSGD.F                          : CASING DRILLER
CSGL.F                          : CASING LOGGER
BS  .IN                   7.875 : BIT SIZE
MUD .                       GEL : MUD TYPE
MUDD.                        10 : MUD DENSITY
MUDV.                        98 : MUD VISCOSITY
PH  .                           : MUD PH
FL  .                           : FLUID LOSS
MUDS.                CIRCULATED : SOURCE OF SAMPLE
RM  .OHMM                   2.0 : MUD RESISTIVITY
RMT .DEGF                    81 : RM TEMPERATURE
RMF .OHMM                   1.5 : MUD FILTRATE RESISTIVITY
RMFT.DEGF                    81 : RMF TEMPERATURE
RMC .OHMM                       : MUD CAKE RESISTIVITY
RMCT.DEGF                       : RMC TEMPERATURE
RMFS.                         M : RMF SOURCE
RMCS.                           : RMC SOURCE
RMBH.OHMM                   1.6 : MUD RESISTIVITY AT BHT
BHT .DEGF                   100 : BOTTOM HOLE TEMPERATURE
TIMC.                           : TIME CIRCULATION STOPPED
TIML.                           : TIME LOGGER ON BOTTOM
TMAX.DEGF                   100 : MAXIMUM RECORDED TEMPERATURE
UNIT.                      4559 : EQUIPMENT NUMBER
BASE.                       WFS : BASE LOCATION
ENG .                      FINK : RECORDED BY
WIT .                       NIX : WITNESSED BY
~Curve Information -----------------------------------------
DEPT.F          :DEPTH
CALS.IN         :
DT.US/F         :
SP.MV           :
~ASCII ------------------------------------------------------
# ...
1224.50000        7.25275      104.52719      -62.40511
1225.00000        7.25246      104.31089      -62.51348
1225.50000        7.23890      104.81100      -62.78818
1226.00000        7.21662      104.97281      -63.70446
1226.50000        7.21197      103.62220      -64.62372
1227.00000        7.21162      101.63478      -65.17168
1227.50000        7.21132      101.73689      -64.30877
1228.00000        7.31004      102.26983      -62.67358
1228.50000        7.44262      102.16199      -61.03542
1229.00000        7.46569      103.01831      -59.40023
1229.50000        7.31134      102.52341      -61.45116
1230.00000        7.30887      101.15290      -62.34665
1230.50000        7.40758       99.96150      -62.35106
1231.00000        7.43937      101.55612      -62.35546
1231.50000        7.45412      103.42437      -61.17176
1232.00000        7.45759      104.70158      -59.69102
1232.50000        7.41492      105.16838      -58.60533
1233.00000        7.43997      106.38590      -58.76805
1233.50000        7.36225      107.17456      -57.07345
1234.00000        7.20256      106.56921      -58.58676
1234.50000        7.18998      105.85342      -60.90205
1235.00000        7.18706      105.13763      -59.58765
1235.50000        7.18676      104.09647      -58.86434
1236.00000        7.16409      101.75284      -60.52022
1236.50000        7.12677      100.22511      -60.27215
1237.00000        7.21717      100.21279      -57.16964
1237.50000        7.30777      101.07509      -55.33842
1238.00000        7.22490      101.41600      -58.58340
1238.50000        7.07272      100.97682      -61.82839
1239.00000        7.15996      101.82618      -62.89318
1239.50000        7.28342      102.94419      -63.95798
1240.00000        7.38214      101.70303      -64.57427
1240.50000        7.38185      103.37924      -64.71025
1241.00000        7.38155      106.31268      -67.41464
1241.50000        7.34423      106.88542      -69.13290
1242.00000        7.37443      103.12689      -65.78089
1242.50000        7.49295      100.32356      -61.46947
1243.00000        7.55859      103.16195      -59.08577
1243.50000        7.55830      105.50283      -60.01691
1244.00000        7.38626      104.11242      -61.77081
1244.50000        7.28756      100.68223      -64.06827
1245.00000        7.23340       99.00327      -65.19545
1245.50000        7.19489       99.94118      -64.56421
1246.00000        7.18054      101.75471      -64.86565
1246.50000        7.16618      102.55332      -65.16708
1247.00000        7.20767      103.35194      -63.68635
1247.50000        7.35787      104.15055      -59.82939
1248.00000        7.31144      104.58798      -55.37837
1248.50000        7.08006      104.48412      -56.43723
1249.00000        7.09957      104.38025      -58.87132
1249.50000        7.02502      104.79133      -60.24294
1250.00000        7.07707      105.25470      -59.15556
1250.50000        7.20523      105.82374      -57.94455
1251.00000        7.24783      104.74046      -58.40843
1251.50000        7.13878      103.48435      -61.87230
1252.00000        7.07248      103.06739      -65.05158
1252.50000        7.10519      103.56950      -66.72198
1253.00000        7.15292      104.37131      -66.17203
1253.50000        7.22318      104.82047      -65.36715
1254.00000        7.20312      104.40651      -64.18578
1254.50000        7.30164      102.66089      -62.50343
1255.00000        7.48910      100.88731      -60.07404
1255.50000        7.72319       99.74409      -57.64465
1256.00000        7.74088      101.37006      -58.78442
1256.50000        7.74059      102.74428      -62.31054
1257.00000        7.66856      103.89126      -60.83273
1257.50000        7.59633      104.48927      -61.37161
1258.00000        7.61975      104.70867      -58.91554
1258.50000        7.64317      104.36563      -54.97727
1259.00000        7.66659      104.02160      -54.21092
1259.50000        7.69002      103.16709      -55.40108
1260.00000        7.71344      101.97092      -56.59125
1260.50000        7.58463      102.64285      -56.61639
1261.00000        7.47722      103.12798      -56.05163
1261.50000        7.66112      100.73303      -60.13209
1262.00000        7.71833       99.61278      -60.65526
1262.50000        7.72555      101.29569      -62.11815
1263.00000        7.73296      102.07951      -62.36859
1263.50000        7.74018      101.51670      -61.11905
1264.00000        7.74759      100.95289      -59.86950
1264.50000        7.77714      102.26470      -58.75038
1265.00000        7.82191      104.30126      -57.82692
1265.50000        7.84454      104.41776      -56.66037
1266.00000        7.83437      102.47235      -56.39204
1266.50000        7.81688      101.41504      -57.47044
1267.00000        7.78832      101.13993      -60.99656
1267.50000        7.78803      101.45623      -61.68277
1268.00000        7.78774      102.16613      -60.47176
1268.50000        7.84673      102.60630      -59.74988
1269.00000        7.86976      101.96757      -61.13866
1269.50000        7.76170      102.41173      -64.00668
1270.00000        7.72999      103.29246      -63.07729
1270.50000        7.78621      104.64423      -61.19632
1271.00000        7.74640      106.04543      -60.26692
1271.50000        7.70658      106.02307      -60.76341
1272.00000        7.81913      105.40132      -59.96446
1272.50000        7.93188      104.43492      -58.30285
1273.00000        7.98633      102.24575      -59.33294
1273.50000        7.84434      100.11453      -60.36302
1274.00000        7.84720      100.86639      -60.82691
1274.50000        7.85007      101.31855      -60.35788
1275.00000        7.85314      101.30418      -59.96504
1275.50000        7.85601      102.47261      -59.87162
1276.00000        7.85888      103.01468      -59.97384
1276.50000        7.86175      102.80251      -60.07903
1277.00000        7.89446      103.61731      -59.82552
1277.50000        7.90557      103.33821      -59.33486
1278.00000        7.86812      102.78539      -60.17226
1278.50000        7.64807      102.78852      -61.34167
1279.00000        7.52426      102.99094      -62.51108
1279.50000        7.76388      103.09345      -62.39098
1280.00000        7.84975      100.92327      -62.27383
1280.50000        7.89610       99.88794      -61.00353
1281.00000        8.03691       99.90454      -58.97138
1281.50000        7.91804       99.74732      -59.56866
1282.00000        7.98198       98.41129      -64.61256
1282.50000        7.92398       99.64166      -64.94096
1283.00000        8.02250      102.28360      -65.21512
1283.50000        8.06509      104.69277      -64.10786
1284.00000        7.97014      104.21588      -64.13597
1284.50000        7.75818      102.81991      -65.42693
1285.00000        7.73674      103.31403      -64.93627
1285.50000        7.71090      104.70076      -64.44561
1286.00000        7.73254      104.54654      -65.77510
1286.50000        7.81861       98.18560      -69.27750
1287.00000        7.86950       91.88409      -74.34215
1287.50000        7.87830       93.51605      -73.92561
1288.00000        7.83670      100.68093      -68.22351
1288.50000        7.79530      101.54267      -69.90873
1289.00000        7.80904      100.36648      -67.93586
1289.50000        7.79235       94.32223      -67.94026
1290.00000        7.75490       84.86691      -71.50283
1290.50000        7.80520       84.65974      -76.78389
1291.00000        7.76182       87.80916      -75.10153
1291.50000        7.71825       87.63248      -73.78973
1292.00000        7.67468       91.43125      -72.11331
1292.50000        7.76094       94.20406      -69.59795
1293.00000        7.87389       95.80505      -65.89684
1293.50000        8.02735       97.02943      -62.53070
1294.00000        8.11066       95.01109      -59.38392
1294.50000        8.11445       92.48327      -63.24206
1295.00000        7.94954       94.12722      -69.76816
1295.50000        7.85043       94.78617      -73.72412
