~Version ---------------------------------------------------
VERS. 2.0 : CWLS LOG ASCII STANDARD - VERSION 2.0
WRAP. NO  : One line per depth step
DLM . SPACE : Column Data Section Delimiter
~Well ------------------------------------------------------
STRT.F          230 : START DEPTH
STOP.F       1777.5 : STOP DEPTH
STEP.F          0.5 : STEP
NULL.       -999.25 : NULL VALUE
COMP.         WALSH & WATTS, INCORPORATED : COMPANY
WELL.                         SALMON E 44 : WELL
FLD .                             REGULAR : FIELD
CNTY.                            MONTAGUE : COUNTY
STAT.                               TEXAS : STATE
CTRY.                                 USA : COUNTRY
SEC .                                     : SECTION
TWP .                                     : TOWNSHIP
RGE .                                     : RANGE
LOC . 300' WEST OF NO 23, 300' SOUTH OF D-9, F.ROBERTSON SURV. : LOCATION
EKB .F                      862 : ELEVATION KELLY BUSHING
EDF .F                          : ELEVATION DERRICK FLOOR
EGL .F                      856 : ELEVATION GROUND LEVEL
PDAT.                        GL : PERMANENT DATUM
EPD .                       856 : ELEVATION PERMANENT DATUM
APD .                         6 : ABOVE PERMANENT DATUM
LMF .                        KB : LOG MEASURED FROM
DMF .                        KB : DRILLING MEASURED FROM
API .            42337038720000 : API NUMBER
UWI .                           : UWI NUMBER
DIGC.                     NthDS : DIGITIZING COMPANY
~Params ----------------------------------------------------
SRVC.              SCHLUMBERGER : LOGGING COMPANY
LOG .                       IEL : LOG
DATE.                1965-11-28 : RUN DATE
RUN .                         1 : RUN NUMBER
TDD .F                     1779 : TOTAL DEPTH DRILLER
TDL .F                     1779 : TOTAL DEPTH LOGGER
BOTL.F                     1778 : BOTTOM LOGGED INTERVAL
TOPL.F                          : TOP LOGGED INTERVAL
CSGS.IN                         : CASING SIZE
CSGD.F                          : CASING DRILLER
CSGL.F                          : CASING LOGGER
BS  .IN                   7.875 : BIT SIZE
MUD .                       GEL : MUD TYPE
MUDD.                        10 : MUD DENSITY
MUDV.                       9.8 : MUD VISCOSITY
PH  .                           : MUD PH
FL  .                           : FLUID LOSS
MUDS.                CIRCULATED : SOURCE OF SAMPLE
RM  .OHMM                   2.0 : MUD RESISTIVITY
RMT .DEGF                    81 : RM TEMPERATURE
RMF .OHMM                   1.5 : MUD FILTRATE RESISTIVITY
RMFT.DEGF                    81 : RMF TEMPERATURE
RMC .OHMM                       : MUD CAKE RESISTIVITY
RMCT.DEGF                       : RMC TEMPERATURE
RMFS.                         M : RMF SOURCE
RMCS.                           : RMC SOURCE
RMBH.OHMM                   1.6 : MUD RESISTIVITY AT BHT
BHT .DEGF                   100 : BOTTOM HOLE TEMPERATURE
TIMC.                           : TIME CIRCULATION STOPPED
TIML.                           : TIME LOGGER ON BOTTOM
TMAX.DEGF                   100 : MAXIMUM RECORDED TEMPERATURE
UNIT.                      4559 : EQUIPMENT NUMBER
BASE.                       WFS : BASE LOCATION
ENG .                      FINK : RECORDED BY
WIT .                       NIX : WITNESSED BY
~Curve Information -----------------------------------------
DEPT.F          :DEPTH
CILD.MMHO       :
ILD.OHMM        :
SN.OHMM         :
SP.MV           :
~ASCII ------------------------------------------------------
# ...
1430.00000      301.74375        3.03966        3.57406      -38.34903
1430.50000      300.57004        3.03420        3.58819      -38.16903
1431.00000      299.39633        3.02913        3.60233      -38.28603
1431.50000      300.27465        3.02367        3.61687      -38.75103
1432.00000      301.15298        3.01821        3.63100      -40.50003
1432.50000      302.04132        3.01314        3.62794      -42.24903
1433.00000      302.91964        3.00768        3.61288      -41.19903
1433.50000      303.79797        3.00262        3.59781      -39.45003
1434.00000      304.83995        2.99715        3.58275      -38.40003
1434.50000      305.69825        2.99169        3.56809      -38.40003
1435.00000      306.54655        2.98663        3.55302      -40.13403
1435.50000      307.39485        2.98023        3.55236      -42.30003
1436.00000      308.25315        2.97477        3.55156      -45.02703
1436.50000      307.88024        2.96970        3.55090      -47.75403
1437.00000      306.68650        2.96424        3.55024      -49.67102
1437.50000      305.49277        2.95878        3.54517      -50.70002
1438.00000      304.30905        2.95371        3.53931      -50.70002
1438.50000      303.11531        2.94825        3.53345      -50.70002
1439.00000      301.92158        2.94759        3.52758      -48.92702
1439.50000      302.20932        2.94692        3.52172      -47.15403
1440.00000      302.86743        2.94626        3.51586      -46.69203
1440.50000      303.64915        2.94560        3.51000      -46.55403
1441.00000      304.30726        2.94494        3.50533      -44.82903
1441.50000      304.96536        2.94427        3.50747      -42.16803
1442.00000      305.62347        2.94361        3.50961      -39.99903
1442.50000      306.28158        2.94295        3.51134      -38.70003
1443.00000      306.93969        2.94228        3.51348      -38.70003
1443.50000      307.58778        2.94162        3.51562      -38.34003
1444.00000      307.86551        2.94082        3.51735      -38.47503
1444.50000      307.88298        2.94016        3.51976      -38.94303
1445.00000      307.90045        2.93950        3.52189      -39.41403
1445.50000      307.91792        2.93883        3.52403      -39.88203
1446.00000      308.21567        2.93817        3.52577      -40.35003
1446.50000      308.56697        2.93471        3.52790      -40.81803
1447.00000      308.86472        2.92884        3.53004      -41.79303
1447.50000      309.81311        2.92338        3.53178      -43.52403
1448.00000      311.19194        2.91792        3.53391      -45.25503
1448.50000      312.58077        2.91205        3.52205      -46.89303
1449.00000      313.95959        2.90659        3.48979      -48.50702
1449.50000      315.33842        2.90113        3.45792      -49.74002
1450.00000      315.95322        2.92238        3.45278      -49.44002
1450.50000      317.33204        2.91692        3.43932      -49.24202
1451.00000      318.71087        2.91106        3.43865      -48.60002
1451.50000      320.09970        2.90559        3.43799      -47.95803
1452.00000      321.47852        2.90013        3.43733      -47.57103
1452.50000      322.85735        2.89427        3.43666      -47.28003
1453.00000      322.92487        2.88787        3.43600      -46.68003
1453.50000      322.11151        2.88201        3.43534      -46.08003
1454.00000      321.28815        2.87655        3.43454      -45.76803
1454.50000      320.47479        2.86908        3.43388      -46.59903
1455.00000      318.82410        2.86042        3.43322      -47.34003
1455.50000      317.45018        2.85176        3.43255      -47.94003
1456.00000      316.08628        2.84309        3.46989      -48.90002
1456.50000      315.70336        2.83443        3.50723      -50.13302
1457.00000      315.98108        2.83377        3.54496      -50.30102
1457.50000      316.25881        2.83870        3.58230      -50.34902
1458.00000      316.54655        2.84364        3.55244      -50.22602
1458.50000      316.61407        2.84858        3.50537      -50.10002
1459.00000      316.63154        2.85351        3.45871      -50.60102
1459.50000      316.64902        2.85845        3.41205      -51.09902
1460.00000      316.66649        2.86339        3.36498      -49.65002
1460.50000      316.68396        2.86832        3.37432      -47.00103
1461.00000      315.96069        2.87286        3.42046      -45.33303
1461.50000      314.13633        2.87780        3.46699      -44.79903
1462.00000      312.31197        2.88273        3.50393      -44.55003
1462.50000      310.48761        2.88767        3.50327      -44.74203
1463.00000      309.90449        2.89261        3.50260      -45.60003
1463.50000      310.14218        2.89754        3.50194      -47.22603
1464.00000      310.38988        2.90248        3.50128      -48.84902
1464.50000      310.63757        2.90662        3.48061      -49.50002
1465.00000      310.88527        2.91115        3.44675      -47.29503
1465.50000      311.12296        2.91569        3.41249      -45.08703
1466.00000      311.37066        2.92089        3.37862      -42.88203
1466.50000      311.61836        2.92503        3.43423      -41.85003
1467.00000      311.85605        2.92957        3.48076      -42.26103
1467.50000      311.12278        2.93410        3.52690      -43.65903
1468.00000      309.94255        2.93824        3.51384      -45.06003
1468.50000      308.95902        2.94278        3.48598      -45.30003
1469.00000      307.97550        2.94732        3.45811      -43.46103
1469.50000      306.99198        2.95145        3.43025      -41.40003
1470.00000      306.00845        2.95599        3.42879      -40.75803
1470.50000      305.02493        2.96053        3.46692      -40.98003
1471.00000      304.04140        2.96466        3.50506      -41.55003
1471.50000      303.05788        2.96920        3.54360      -42.00003
1472.00000      301.46375        2.98294        3.58173      -42.00003
1472.50000      299.87963        3.00267        3.61987      -42.00003
1473.00000      298.28550        3.02241        3.65801      -42.68703
1473.50000      296.69137        3.04255        3.68454      -42.60003
1474.00000      295.09724        3.06228        3.66388      -41.10003
1474.50000      294.29389        3.08202        3.64322      -40.26603
1475.00000      294.67172        3.10176        3.62255      -39.60003
1475.50000      295.04955        3.12189        3.62429      -40.67103
1476.00000      296.73868        3.09803        3.71603      -42.00003
1476.50000      299.31870        3.06297        3.80776      -43.50003
1477.00000      301.89872        3.02830        3.80950      -44.62503
1477.50000      304.47873        2.99364        3.75164      -44.25003
1478.00000      307.05875        2.95858        3.69417      -44.37003
1478.50000      309.63877        2.91698        3.63631      -44.82003
1479.00000      312.20877        2.88192        3.56671      -44.35803
1479.50000      314.78879        2.84726        3.50885      -43.15803
1480.00000      317.19212        2.85259        3.45139      -41.44203
1480.50000      316.29869        2.86753        3.45953      -41.10003
1481.00000      315.40526        2.88287        3.48406      -41.60103
1481.50000      313.42074        2.89780        3.50860      -42.84903
1482.00000      311.43622        2.91274        3.53354      -44.10003
1482.50000      309.45170        2.92808        3.55807      -45.35103
1483.00000      307.46718        2.94301        3.58261      -45.65703
1483.50000      305.48266        2.95835        3.60715      -45.72903
1484.00000      304.14879        2.97329        3.63208      -45.80103
1484.50000      302.82493        2.98862        3.65662      -45.87003
1485.00000      301.49105        3.00356        3.68115      -46.54203
1485.50000      300.16719        3.01890        3.70609      -47.30403
1486.00000      298.83332        3.03383        3.73063      -46.82703
