~Version ---------------------------------------------------
VERS. 2.0 : CWLS LOG ASCII STANDARD - VERSION 2.0
WRAP. NO  : One line per depth step
DLM . SPACE : Column Data Section Delimiter
~Well ------------------------------------------------------
STRT.F          866 : START DEPTH
STOP.F       1785.0 : STOP DEPTH
STEP.F          0.5 : STEP
NULL.       -999.25 : NULL VALUE
COMP.                 WALSH & WATTS, INC, : COMPANY
WELL.                         SALMON E 41 : WELL
FLD .                        NORTH NOCONA : FIELD
CNTY.                            MONTAGUE : COUNTY
STAT.                               TEXAS : STATE
CTRY.                                 USA : COUNTRY
SEC .                                     : SECTION
TWP .                                     : TOWNSHIP
RGE .                                     : RANGE
LOC . 300' N OF NO. 40
150' W OF EL & 385' E OF NO. 87
F. ROBERTSON SURVEY : LOCATION
EKB .F                          : ELEVATION KELLY BUSHING
EDF .F                          : ELEVATION DERRICK FLOOR
EGL .F                      878 : ELEVATION GROUND LEVEL
PDAT.              GROUND LEVEL : PERMANENT DATUM
EPD .                       878 : ELEVATION PERMANENT DATUM
APD .                           : ABOVE PERMANENT DATUM
LMF .                        KB : LOG MEASURED FROM
DMF .                        KB : DRILLING MEASURED FROM
API .            42337037790000 : API NUMBER
UWI .            42337037790000 : UWI NUMBER
DIGC.                     NthDS : DIGITIZING COMPANY
~Params ----------------------------------------------------
SRVC.                LANE WELLS : LOGGING COMPANY
LOG .                        AC : LOG
DATE.                1965-12-01 : RUN DATE
RUN .                         1 : RUN NUMBER
TDD .F                     1790 : TOTAL DEPTH DRILLER
TDL .F                     1791 : TOTAL DEPTH LOGGER
BOTL.F                     1784 : BOTTOM LOGGED INTERVAL
TOPL.F                      880 : TOP LOGGED INTERVAL
CSGS.IN                         : CASING SIZE
CSGD.F                          : CASING DRILLER
CSGL.F                          : CASING LOGGER
BS  .IN                       9 : BIT SIZE
MUD .                       GEL : MUD TYPE
MUDD.                        10 : MUD DENSITY
MUDV.                        80 : MUD VISCOSITY
PH  .                       9.0 : MUD PH
FL  .                       6.8 : FLUID LOSS
MUDS.                       PIT : SOURCE OF SAMPLE
RM  .OHMM                  1.95 : MUD RESISTIVITY
RMT .DEGF                    74 : RM TEMPERATURE
RMF .OHMM                   1.5 : MUD FILTRATE RESISTIVITY
RMFT.DEGF                    74 : RMF TEMPERATURE
RMC .OHMM                   2.3 : MUD CAKE RESISTIVITY
RMCT.DEGF                    74 : RMC TEMPERATURE
RMFS.                  MEASURED : RMF SOURCE
RMCS.                           : RMC SOURCE
RMBH.OHMM                   1.5 : MUD RESISTIVITY AT BHT
BHT .DEGF                    97 : BOTTOM HOLE TEMPERATURE
TIMC.                           : TIME CIRCULATION STOPPED
TIML.                           : TIME LOGGER ON BOTTOM
TMAX.DEGF                    97 : MAXIMUM RECORDED TEMPERATURE
UNIT.                    L-5172 : EQUIPMENT NUMBER
BASE.                      W.F. : BASE LOCATION
ENG .             ADAMS & BAKER : RECORDED BY
WIT .                   MR. NIX : WITNESSED BY
~Curve Information -----------------------------------------
DEPT.F          :DEPTH
CALS.IN         :
DT.US/F         :
SP.MV           :
~ASCII ------------------------------------------------------
# ...
1584.00000        9.24520       96.22750      -36.90003
1584.50000        9.27080       97.03470      -37.20003
1585.00000        9.29660       97.32900      -36.90003
1585.50000        9.32220       97.28104      -36.60003
1586.00000        9.34800       96.90571      -36.90003
1586.50000        9.37380       96.31212      -36.90003
1587.00000        9.39940       96.69570      -36.90003
1587.50000        9.42120       97.73107      -36.60003
1588.00000        9.42780       98.10077      -36.60003
1588.50000        9.43340       95.80779      -36.30003
1589.00000        9.43880       95.46816      -36.00003
1589.50000        9.46660       96.62390      -36.30003
1590.00000        9.50000       97.58685      -36.30003
1590.50000        9.50000       98.17083      -36.90003
1591.00000        9.50000       97.18042      -36.90003
1591.50000        9.50000       96.78524      -36.60003
1592.00000        9.50000       98.15097      -36.60003
1592.50000        9.50000       98.64070      -36.90003
1593.00000        9.52280       97.96080      -37.20003
1593.50000        9.55140       97.79181      -37.80003
1594.00000        9.57840       97.33513      -38.10003
1594.50000        9.57060       96.87944      -38.10003
1595.00000        9.56260       97.19358      -38.40003
1595.50000        9.55480       96.89761      -38.66403
1596.00000        9.54680       93.92308      -39.97503
1596.50000        9.53900       90.05570      -41.70003
1597.00000        9.53100       90.18928      -43.80003
1597.50000        9.52320       90.50541      -46.40103
1598.00000        9.48400       81.82655      -48.60002
1598.50000        9.42400       79.94328      -48.60002
1599.00000        9.22660       83.40324      -49.20002
1599.50000        8.93780       90.46272      -48.00003
1600.00000        8.20000       96.30370      -45.90003
1600.50000        9.27804       98.29339      -43.11380
1601.00000        9.28243       96.74724      -38.92218
1601.50000        9.28703       96.32957      -37.72458
1602.00000        9.29162       96.45572      -37.72458
1602.50000        9.29102       96.63201      -38.62278
1603.00000        9.28683       96.98226      -39.52099
1603.50000        9.28263       95.44508      -39.82039
1604.00000        9.27764       93.90690      -40.41919
1604.50000        9.27345       95.26113      -40.71859
1605.00000        9.26926       98.78169      -41.61679
1605.50000        9.26507      119.10228      -41.91619
1606.00000        9.26108      137.53012      -42.21560
1606.50000        9.25689       88.22893      -42.21560
1607.00000        9.25409       90.62101      -42.51500
1607.50000        9.25669       68.14569      -41.91619
1608.00000        9.25968       67.86547      -40.71859
1608.50000        9.26227       94.41113      -40.11979
1609.00000        9.26487       94.27334      -38.92218
1609.50000        9.26746       93.22918      -38.92218
1610.00000        9.27006       93.70493      -39.22158
1610.50000        9.27265       93.85300      -39.52099
1611.00000        9.27525       92.94231      -39.82039
1611.50000        9.27784       92.03062      -40.11979
1612.00000        9.28104       93.52628      -40.11979
1612.50000        9.28363       90.83871      -40.11979
1613.00000        9.28623       81.51073      -40.11979
1613.50000        9.28882       92.05150      -39.52099
1614.00000        9.29142       90.63084      -38.92218
1614.50000        9.29002       91.59265      -38.62278
1615.00000        9.27345       92.40804      -38.32338
1615.50000        9.00539       92.51726      -38.02398
1616.00000        8.26407       94.13743      -37.72458
1616.50000        9.23852       95.34824      -37.42518
1617.00000        9.25110       94.99730      -37.42518
1617.50000        9.26347       91.85156      -37.72458
1618.00000        9.27046       88.59925      -39.52099
1618.50000        9.25509       88.63177      -40.11979
1619.00000        9.23972       89.17658      -41.31739
1619.50000        9.18024       90.66328      -41.61679
1620.00000        9.11377       92.32529      -41.01799
1620.50000        9.04730       91.56300      -40.71859
1621.00000        9.04531       89.57263      -40.11979
1621.50000        9.09381       88.99361      -39.52099
1622.00000        9.19361       82.10585      -38.92218
1622.50000        9.21497       71.59960      -38.32338
1623.00000        9.21677       70.99368      -38.32338
1623.50000        9.21896       76.28415      -38.02398
1624.00000        9.22076      101.85371      -37.72458
1624.50000        9.22255       75.09954      -38.02398
1625.00000        9.22435       51.69462      -37.72458
1625.50000        9.22615       55.46716      -38.02398
1626.00000        9.22774       65.48569      -38.02398
1626.50000        9.22954       96.84208      -38.02398
1627.00000        9.23174       97.31186      -38.02398
1627.50000        9.23353       98.21025      -38.02398
1628.00000        9.23533       97.01669      -38.32338
1628.50000        9.23712       95.48847      -38.32338
1629.00000        9.23892       94.56582      -38.32338
1629.50000        9.24072       81.05559      -38.32338
1630.00000        9.24251       66.89365      -38.32338
1630.50000        9.24431       93.78791      -38.32338
1631.00000        9.24631       91.49874      -38.92218
1631.50000        9.24810       95.13583      -39.22158
1632.00000        9.24990       92.89645      -39.52099
1632.50000        9.25170       95.04583      -39.82039
1633.00000        9.25349       93.82937      -39.52099
1633.50000        9.20060       93.74835      -39.82039
1634.00000        9.14790       95.36852      -39.82039
1634.50000        9.09501       94.65802      -40.11979
1635.00000        9.10040       82.37388      -40.11979
1635.50000        9.13373       65.58446      -40.11979
1636.00000        9.16707       95.07233      -39.82039
1636.50000        9.19461       96.42657      -40.11979
1637.00000        9.19960       96.76487      -40.11979
1637.50000        9.20459       94.64801      -39.82039
1638.00000        9.20958       86.24333      -39.52099
1638.50000        9.21357       96.13072      -39.22158
1639.00000        9.21357       95.84153      -39.22158
1639.50000        9.21357       97.20473      -38.92218
1640.00000        9.21637       95.66755      -38.62278
1640.50000        9.22076       94.12937      -38.92218
1641.00000        9.22535       94.71966      -38.92218
1641.50000        9.22994       95.72828      -38.92218
1642.00000        9.23413       96.28371      -38.92218
1642.50000        9.23792       96.94904      -38.92218
1643.00000        9.24092       97.50447      -38.62278
1643.50000        9.24391       97.10971      -38.62278
1644.00000        9.24710       96.47790      -38.62278
1644.50000        9.25010       96.52437      -38.62278
1645.00000        9.25309       97.02403      -38.62278
1645.50000        9.25629       97.18205      -38.32338
1646.00000        9.25928       97.22653      -38.02398
1646.50000        9.26307       97.72619      -38.02398
1647.00000        9.26607       97.70792      -38.02398
1647.50000        9.26906       96.15612      -38.02398
1648.00000        9.27225       94.36496      -38.02398
1648.50000        9.25349       93.25108      -39.94913
1649.00000        9.22016       90.83342      -44.47009
1649.50000        9.18703       85.78430      -50.72158
1650.00000        9.15369       84.22309      -56.97308
1650.50000        9.10000       87.83030      -62.28002
1651.00000        9.05000       88.63374      -62.76002
1651.50000        9.04440       90.25391      -61.09202
1652.00000        9.05000       87.41693      -57.81902
1652.50000        9.05560       83.83294      -53.77502
1653.00000        9.07380       88.41624      -47.92503
1653.50000        9.14240       96.94706      -43.98603
1654.00000        9.21120       97.60210      -41.73303
1654.50000        9.28000       98.25713      -39.90003
1655.00000        9.26600       98.56555      -37.20003
