~Version ---------------------------------------------------
VERS. 2.0 : CWLS LOG ASCII STANDARD - VERSION 2.0
WRAP. NO  : One line per depth step
DLM . SPACE : Column Data Section Delimiter
~Well ------------------------------------------------------
STRT.F        986.5 : START DEPTH
STOP.F       1761.0 : STOP DEPTH
STEP.F          0.5 : STEP
NULL.       -999.25 : NULL VALUE
COMP.                 WALSH & WATTS, INC. : COMPANY
WELL.                       SALMON D E 6D : WELL
FLD .                             REGULAR : FIELD
CNTY.                            MONTAGUE : COUNTY
STAT.                               TEXAS : STATE
CTRY.                                 USA : COUNTRY
SEC .                                     : SECTION
TWP .                                     : TOWNSHIP
RGE .                                     : RANGE
LOC .  460 FSL 755 FEL
F. ROBERTSON A-620 : LOCATION
EKB .F                      880 : ELEVATION KELLY BUSHING
EDF .F                      878 : ELEVATION DERRICK FLOOR
EGL .F                      874 : ELEVATION GROUND LEVEL
PDAT.                        GL : PERMANENT DATUM
EPD .                       874 : ELEVATION PERMANENT DATUM
APD .                           : ABOVE PERMANENT DATUM
LMF .                        KB : LOG MEASURED FROM
DMF .                        KB : DRILLING MEASURED FROM
API .            42337016430000 : API NUMBER
UWI .            42337016430000 : UWI NUMBER
DIGC.                     NthDS : DIGITIZING COMPANY
~Params ----------------------------------------------------
SRVC.              SCHLUMBERGER : LOGGING COMPANY
LOG .                      DIFL : LOG
DATE.                2005-08-03 : RUN DATE
RUN .                         1 : RUN NUMBER
TDD .F                     1750 : TOTAL DEPTH DRILLER
TDL .F                     1750 : TOTAL DEPTH LOGGER
BOTL.F                     1750 : BOTTOM LOGGED INTERVAL
TOPL.F                      980 : TOP LOGGED INTERVAL
CSGS.IN                       7 : CASING SIZE
CSGD.F                      980 : CASING DRILLER
CSGL.F                      980 : CASING LOGGER
BS  .IN                     6.5 : BIT SIZE
MUD .                       FGM : MUD TYPE
MUDD.                       0.2 : MUD DENSITY
MUDV.                        80 : MUD VISCOSITY
PH  .                        11 : MUD PH
FL  .                         7 : FLUID LOSS
MUDS.                       PIT : SOURCE OF SAMPLE
RM  .OHMM                  1.70 : MUD RESISTIVITY
RMT .DEGF                    70 : RM TEMPERATURE
RMF .OHMM                  1.33 : MUD FILTRATE RESISTIVITY
RMFT.DEGF                    70 : RMF TEMPERATURE
RMC .OHMM                  2.67 : MUD CAKE RESISTIVITY
RMCT.DEGF                    70 : RMC TEMPERATURE
RMFS.                      MEAS : RMF SOURCE
RMCS.                       CAL : RMC SOURCE
RMBH.OHMM                  1.41 : MUD RESISTIVITY AT BHT
BHT .DEGF                    98 : BOTTOM HOLE TEMPERATURE
TIMC.                     2100  : TIME CIRCULATION STOPPED
TIML.                     0300  : TIME LOGGER ON BOTTOM
TMAX.DEGF                    98 : MAXIMUM RECORDED TEMPERATURE
UNIT.                       303 : EQUIPMENT NUMBER
BASE.                  WITCHATA : BASE LOCATION
ENG .              DAVID PARKER : RECORDED BY
WIT .              MR. BURLESON : WITNESSED BY
~Curve Information -----------------------------------------
DEPT.F          :DEPTH
GRR.API         :
ILD.OHMM        :
ILM.OHMM        :
SFL.OHMM        :
SP.MV           :
~ASCII ------------------------------------------------------
# ...
1174.50000      114.22843        2.99760        3.39618        5.31088      -75.95193
1175.00000      118.55107        2.98426        3.34994        5.25069      -76.45294
1175.50000      121.74346        3.00135        3.31995        5.19118      -77.67538
1176.00000      125.05007        3.14388        3.31404        5.38966      -79.07819
1176.50000      126.55308        3.29319        3.30784        5.66392      -82.12829
1177.00000      124.74947        3.44959        3.30165        5.95269      -85.59121
1177.50000      113.68735        3.53639        3.29547        6.11321      -88.17638
1178.00000      103.88775        3.60565        3.44719        6.27748      -91.18239
1178.50000       86.75349        3.69194        3.64816        6.44675      -94.18840
1179.00000       82.90579        3.80378        3.76982        6.62059      -95.52307
1179.50000       85.27152        3.91902        3.89553        6.79912      -94.80564
1180.00000       89.42884        3.93927        4.02544        6.82921      -93.57117
1180.50000      105.41180        3.80563        4.07893        6.63606      -92.58520
1181.00000      115.13023        3.64368        4.07959        6.31209      -92.58520
1181.50000      119.18835        3.44407        3.98516        5.97238      -92.11225
1182.00000      122.49496        3.32969        3.83219        5.87474      -90.92588
1182.50000      124.74947        3.33023        3.68510        5.83508      -89.74351
1183.00000      122.79556        3.33076        3.54365        5.79568      -88.55714
1183.50000      118.43684        3.33130        3.47896        5.75656      -87.33069
1184.00000      113.40178        3.31770        3.46283        5.71769      -87.10624
1184.50000      106.82763        3.28283        3.44709        5.67909      -87.45494
1185.00000      105.71240        3.24863        3.43111        5.64075      -88.65734
1185.50000      108.55007        3.23297        3.41520        5.60267      -89.15033
1186.00000      112.45789        3.22215        3.39937        5.56124      -88.57718
1186.50000      116.63324        3.21107        3.38048        5.51961      -89.11025
1187.00000      122.94586        3.20032        3.36076        5.47830      -89.64732
1187.50000      127.24145        3.18931        3.34085        5.44987      -90.18039
1188.00000      131.46189        3.19012        3.32137        5.47247      -90.58119
1188.50000      135.63724        3.19832        3.30597        5.49567      -89.69141
1189.00000      132.56510        3.20653        3.30650        5.51845      -88.80163
1189.50000      126.73344        3.21507        3.30704        5.54185      -87.90784
1190.00000      124.48193        3.18746        3.30757        5.49274      -87.32267
1190.50000      123.81460        3.14406        3.30811        5.39645      -87.19842
1191.00000      126.12322        3.07271        3.25794        5.30234      -87.07418
1191.50000      130.46089        3.00297        3.20883        5.17673      -87.02207
1192.00000      132.17432        2.93482        3.16016        5.05410      -87.27458
1192.50000      132.02402        2.86821        3.11224        4.93437      -87.77558
1193.00000      131.66329        2.81602        3.04639        4.81793      -88.44492
1193.50000      127.75548        2.77767        2.97725        4.74092      -89.11025
1194.00000      128.16430        2.74619        2.90968        4.72068      -89.37878
1194.50000      128.57612        2.71507        2.84365        4.70097      -89.32668
1195.00000      130.46089        2.70749        2.79190        4.68090      -89.07818
1195.50000      132.13524        2.71519        2.76383        4.67517      -88.97798
1196.00000      133.20838        2.72292        2.78919        4.72548      -88.97798
1196.50000      133.42482        2.73599        2.81477        4.77633      -88.82568
1197.00000      129.47191        2.77029        2.84085        4.82817      -88.07618
1197.50000      123.24646        2.80476        2.87205        4.88013      -87.32267
1198.00000      120.54105        2.83993        2.89839        4.93264      -86.57317
1198.50000      123.33364        2.88229        2.92525        4.98618      -86.57317
1199.00000      124.62923        2.91843        2.94963        5.03704      -86.57317
1199.50000      123.71841        2.95475        2.97064        5.07808      -86.54913
1200.00000      121.83063        2.97239        2.98755        5.11077      -86.42087
1200.50000      119.37773        2.92774        2.95111        5.04403      -87.06545
1201.00000      117.63822        2.93341        2.97081        5.09057      -86.95629
1201.50000      118.42245        2.93883        2.99064        5.12929      -86.41857
1202.00000      120.04685        2.94453        3.01061        5.16879      -86.03560
1202.50000      117.80438        2.95597        3.03070        5.20858      -85.78636
1203.00000      115.71071        2.96883        3.05093        5.23608      -16.23963
1203.50000      112.29861        2.98175        3.07130        5.25595      -15.69000
1204.00000      110.62845        2.99732        3.09592        5.27540      -17.44190
1204.50000      111.40078        3.03636        3.11658        5.29541      -17.92400
1205.00000      116.78312        3.07591        3.13739        5.31501      -17.17200
1205.50000      122.50175        3.10763        3.15599        5.34919      -16.18864
1206.00000      124.27703        3.10675        3.17442        5.37793      -15.01205
1206.50000      124.11784        3.10587        3.19324        5.40683      -13.83545
1207.00000      122.39411        3.10500        3.21218        5.43588      -12.65886
1207.50000      120.80340        3.12457        3.23093        5.46508      -11.79575
1208.00000      119.21269        3.14455        3.25009        5.49444      -12.25680
1208.50000      118.30054        3.16858        3.27312        5.52396      -12.64366
1209.00000      117.75237        3.18856        3.29253        5.55364      -13.22099
1209.50000      119.01279        3.20095        3.30869        5.55207      -14.55624
1210.00000      120.88330        3.21368        3.31296        5.55019      -15.89149
1210.50000      123.02167        3.22617        3.31723        5.54862      -16.83666
1211.00000      124.31780        3.23901        3.32121        5.54706      -16.90209
1211.50000      124.10503        3.21007        3.32549        5.54549      -18.18576
1212.00000      122.14321        3.15386        3.32978        5.54393      -18.28294
1212.50000      122.09413        3.21182        3.33377        5.54236      -18.81145
1213.00000      124.42297        3.27157        3.33807        5.55619      -19.24990
1213.50000      124.14175        3.27549        3.34312        5.58036      -19.63279
1214.00000      123.86054        3.27911        3.34743        5.60464      -19.97600
1214.50000      118.83332        3.28304        3.35144        5.62902      -20.32317
1215.00000      115.51051        3.28697        3.35577        5.62607      -20.73661
1215.50000      116.07451        3.29061        3.35792        5.60994      -21.07982
1216.00000      117.73670        3.29455        3.35698        5.59385      -20.10163
1216.50000      119.73311        3.28449        3.35603        5.57781      -19.52026
1217.00000      121.22864        3.27084        3.35508        5.56233      -19.53411
1217.50000      122.04263        3.25465        3.35413        5.54638      -18.36029
1218.00000      122.52926        3.24111        3.35300        5.53048      -17.91780
1218.50000      122.51887        3.21751        3.35205        5.52329      -17.83245
1219.00000      122.90222        3.15357        3.35110        5.52173      -17.74710
1219.50000      125.47213        3.14656        3.34242        5.51986      -17.66174
1220.00000      127.39622        3.15383        3.32852        5.51830      -16.77363
1220.50000      126.88584        3.16111        3.31499        5.51675      -15.70417
1221.00000      125.79215        3.16666        3.30121        5.51519      -14.88868
