~Version ---------------------------------------------------
VERS. 2.0 : CWLS LOG ASCII STANDARD - VERSION 2.0
WRAP. NO  : One line per depth step
DLM . SPACE : Column Data Section Delimiter
~Well ------------------------------------------------------
STRT.F          780 : START DEPTH
STOP.F       1761.5 : STOP DEPTH
STEP.F          0.5 : STEP
NULL.       -999.25 : NULL VALUE
COMP.                 WALSH & WATTS, INC. : COMPANY
WELL.                         SALMON E 42 : WELL
FLD .                        NORTH NOCONA : FIELD
CNTY.                            MONTAGUE : COUNTY
STAT.                               TEXAS : STATE
CTRY.                                 USA : COUNTRY
SEC .                                     : SECTION
TWP .                                     : TOWNSHIP
RGE .                                     : RANGE
LOC . 150' FSL & 300' W OF WELL NO. 1, 407' E OF WELL NO. 5, F. ROBERTSON SURVEY : LOCATION
EKB .F                      880 : ELEVATION KELLY BUSHING
EDF .F                          : ELEVATION DERRICK FLOOR
EGL .F                      874 : ELEVATION GROUND LEVEL
PDAT.              GROUND LEVEL : PERMANENT DATUM
EPD .                       874 : ELEVATION PERMANENT DATUM
APD .                         6 : ABOVE PERMANENT DATUM
LMF .                        KB : LOG MEASURED FROM
DMF .                        KB : DRILLING MEASURED FROM
API .            42337037780000 : API NUMBER
UWI .            42337037780000 : UWI NUMBER
DIGC.                     NthDS : DIGITIZING COMPANY
~Params ----------------------------------------------------
SRVC.                LANE WELLS : LOGGING COMPANY
LOG .                        AC : LOG
DATE.                1965-11-21 : RUN DATE
RUN .                         1 : RUN NUMBER
TDD .F                     1766 : TOTAL DEPTH DRILLER
TDL .F                     1768 : TOTAL DEPTH LOGGER
BOTL.F                     1762 : BOTTOM LOGGED INTERVAL
TOPL.F                      790 : TOP LOGGED INTERVAL
CSGS.IN                         : CASING SIZE
CSGD.F                          : CASING DRILLER
CSGL.F                          : CASING LOGGER
BS  .IN                   7.875 : BIT SIZE
MUD .              CHEMICAL GEL : MUD TYPE
MUDD.                       9.8 : MUD DENSITY
MUDV.                       123 : MUD VISCOSITY
PH  .                           : MUD PH
FL  .                           : FLUID LOSS
MUDS.                CIRCULATED : SOURCE OF SAMPLE
RM  .OHMM                   2.1 : MUD RESISTIVITY
RMT .DEGF                    70 : RM TEMPERATURE
RMF .OHMM                  1.81 : MUD FILTRATE RESISTIVITY
RMFT.DEGF                    70 : RMF TEMPERATURE
RMC .OHMM                  2.34 : MUD CAKE RESISTIVITY
RMCT.DEGF                    70 : RMC TEMPERATURE
RMFS.                  MEASURED : RMF SOURCE
RMCS.                           : RMC SOURCE
RMBH.OHMM                   1.5 : MUD RESISTIVITY AT BHT
BHT .DEGF                    98 : BOTTOM HOLE TEMPERATURE
TIMC.                           : TIME CIRCULATION STOPPED
TIML.                           : TIME LOGGER ON BOTTOM
TMAX.DEGF                    98 : MAXIMUM RECORDED TEMPERATURE
UNIT.                    L-4553 : EQUIPMENT NUMBER
BASE.                      W.F. : BASE LOCATION
ENG .                     ADAMS : RECORDED BY
WIT .   MR. HARRELSON & MR. NIX : WITNESSED BY
~Curve Information -----------------------------------------
DEPT.F          :DEPTH
CALI.IN         :
DT.US/F         :
SP.MV           :
~ASCII ------------------------------------------------------
# ...
1714.00000        7.99615       94.07555      -54.36487
1714.50000        7.99366       92.16999      -54.07676
1715.00000        7.99117       91.68987      -53.78865
1715.50000        7.98868       92.93241      -53.20469
1716.00000        7.98619       90.78629      -51.73317
1716.50000        7.98320       88.39166      -50.85335
1717.00000        7.98072       87.41551      -50.56524
1717.50000        7.97823       88.32704      -50.87039
1718.00000        7.97574       89.23758      -51.76570
1718.50000        7.97325       90.86979      -52.66101
1719.00000        7.88319       93.18092      -53.55631
1719.50000        7.73474       93.63420      -53.85991
1720.00000        7.79330       91.92148      -53.86766
1720.50000        7.94071       91.16005      -52.10183
1721.00000        8.02855       91.41651      -49.74274
1721.50000        8.02744       91.10736      -47.97537
1722.00000        8.02614       91.74653      -47.68726
1722.50000        8.02483       88.55170      -47.39915
1723.00000        8.02353       86.63122      -47.99860
1723.50000        8.02212       85.02983      -48.89391
1724.00000        8.02081       89.09643      -50.08507
1724.50000        8.01951       93.16303      -51.86949
1725.00000        8.01820       92.93241      -53.06065
1725.50000        8.01690       91.36681      -53.95596
1726.00000        8.01579       90.06263      -53.66785
1726.50000        8.01448       90.49702      -52.49218
1727.00000        8.01288       91.36681      -51.02065
1727.50000        8.01157       92.23659      -50.43669
1728.00000        8.01047       93.10637      -50.44599
1728.50000        8.00916       92.59643      -51.04544
1729.00000        8.00785       92.66402      -51.05319
1729.50000        8.00655       93.85686      -51.35679
1730.00000        8.00524       94.37376      -51.66038
1730.50000        8.00384       93.87675      -51.66813
1731.00000        8.00253       94.73857      -51.08417
1731.50000        8.00123       96.17993      -49.61419
1732.00000        7.99992       95.79523      -49.03023
1732.50000        7.99881       94.35388      -49.03798
1733.00000        7.99751       93.93539      -49.34158
1733.50000        7.99620       94.19881      -50.23688
1734.00000        7.99490       94.46124      -50.24463
1734.50000        7.99349       93.42943      -50.54823
1735.00000        7.99218       90.58351      -50.85338
1735.50000        7.99088       87.91253      -50.26941
1736.00000        7.98957       91.33003      -49.38960
1736.50000        7.98827       93.01492      -47.62222
1737.00000        7.98716       92.62724      -45.55899
1737.50000        7.98585       94.33102      -44.97503
1738.00000        7.98425       94.60140      -44.98277
1738.50000        7.98294       93.72764      -44.99052
1739.00000        7.98183       92.31909      -45.29567
1739.50000        7.98053       91.50796      -46.19097
1740.00000        7.97922       93.08152      -46.19872
1740.50000        7.97792       92.00001      -45.91061
1741.00000        7.97661       93.26740      -45.32665
1741.50000        7.97520       92.81611      -45.03854
1742.00000        7.97390       91.98808      -45.04629
1742.50000        7.97259       91.16005      -45.05558
1743.00000        7.97129       89.56263      -45.06333
1743.50000        7.97018       90.67595      -45.36692
1744.00000        7.96887       92.88271      -45.37467
1744.50000        7.96757       93.79424      -45.67827
1745.00000        7.96596       92.78331      -45.98187
1745.50000        7.96485       91.29225      -46.28547
1746.00000        7.96355       92.12028      -47.47818
1746.50000        7.96224       94.49504      -46.59836
1747.00000        7.96094       93.64513      -47.49367
1747.50000        7.95963       92.85388      -47.20556
1748.00000        7.95853       94.20378      -46.62160
1748.50000        7.95692       93.38867      -46.92520
1749.00000        7.95561       92.03281      -47.52465
1749.50000        7.95431       92.02088      -47.82980
1750.00000        7.97072       92.90458      -46.83783
1750.50000        7.96942       92.31052      -46.25272
1751.00000        7.96811       90.94682      -45.96404
1751.50000        7.96650       89.85621      -45.97180
1752.00000        7.96539       92.45077      -45.97956
1752.50000        7.96408       94.22906      -45.98732
1753.00000        7.96277       92.74123      -45.69864
1753.50000        7.96146       91.53145      -45.11353
1754.00000        7.96005       91.83110      -44.82485
1754.50000        7.95875       93.71961      -43.64685
1755.00000        7.95744       95.25560      -42.46886
1755.50000        7.95613       95.19973      -41.88375
1756.00000        7.95482       94.47257      -41.59507
1756.50000        7.95341       92.15754      -41.89927
1757.00000        7.95210       89.27945      -43.38922
1757.50000        7.95079       90.89487      -44.87917
1758.00000        7.94949       92.51030      -45.18337
1758.50000        7.94838       92.02048      -44.30182
1759.00000        7.94677       90.12550      -43.12383
1759.50000        7.94625       88.65952      -42.53871
1760.00000        -999.25       87.99889      -43.73222
1760.50000        -999.25       90.30250      -44.33286
1761.00000        -999.25       92.60610      -44.63706
1761.50000        -999.25       94.40921      -43.75551
