~Version ---------------------------------------------------
VERS. 2.0 : CWLS LOG ASCII STANDARD - VERSION 2.0
WRAP. NO  : One line per depth step
DLM . SPACE : Column Data Section Delimiter
~Well ------------------------------------------------------
STRT.F         98.5 : START DEPTH
STOP.F       1003.5 : STOP DEPTH
STEP.F          0.5 : STEP
NULL.       -999.25 : NULL VALUE
COMP.                       WALSH & WATTS : COMPANY
WELL.                          SALMON D 8 : WELL
FLD .                          OLD NOCOMA : FIELD
CNTY.                            MONTAGUE : COUNTY
STAT.                               TEXAS : STATE
CTRY.                                 USA : COUNTRY
SEC .                                     : SECTION
TWP .                                     : TOWNSHIP
RGE .                                     : RANGE
LOC .                          OLD NOCOMA : LOCATION
EKB .F                          : ELEVATION KELLY BUSHING
EDF .F                      855 : ELEVATION DERRICK FLOOR
EGL .F                          : ELEVATION GROUND LEVEL
PDAT.                        RT : PERMANENT DATUM
EPD .                           : ELEVATION PERMANENT DATUM
APD .                         4 : ABOVE PERMANENT DATUM
LMF .                           : LOG MEASURED FROM
DMF .                           : DRILLING MEASURED FROM
API .            42337016420000 : API NUMBER
UWI .            42337016420000 : UWI NUMBER
DIGC.                     NthDS : DIGITIZING COMPANY
~Params ----------------------------------------------------
SRVC.              SCHLUMBERGER : LOGGING COMPANY
LOG .                        EL : LOG
DATE.                1948-12-15 : RUN DATE
RUN .                         1 : RUN NUMBER
TDD .F                          : TOTAL DEPTH DRILLER
TDL .F                          : TOTAL DEPTH LOGGER
BOTL.F                     1005 : BOTTOM LOGGED INTERVAL
TOPL.F                     1004 : TOP LOGGED INTERVAL
CSGS.IN                         : CASING SIZE
CSGD.F                          : CASING DRILLER
CSGL.F                          : CASING LOGGER
BS  .IN                       9 : BIT SIZE
MUD .                   AQUAGEL : MUD TYPE
MUDD.                      10.2 : MUD DENSITY
MUDV.                        40 : MUD VISCOSITY
PH  .                           : MUD PH
FL  .                           : FLUID LOSS
MUDS.                           : SOURCE OF SAMPLE
RM  .OHMM                    .8 : MUD RESISTIVITY
RMT .DEGF                    65 : RM TEMPERATURE
RMF .OHMM                       : MUD FILTRATE RESISTIVITY
RMFT.DEGF                       : RMF TEMPERATURE
RMC .OHMM                       : MUD CAKE RESISTIVITY
RMCT.DEGF                       : RMC TEMPERATURE
RMFS.                           : RMF SOURCE
RMCS.                           : RMC SOURCE
RMBH.OHMM                       : MUD RESISTIVITY AT BHT
BHT .DEGF                       : BOTTOM HOLE TEMPERATURE
TIMC.                           : TIME CIRCULATION STOPPED
TIML.                           : TIME LOGGER ON BOTTOM
TMAX.DEGF                       : MAXIMUM RECORDED TEMPERATURE
UNIT.                       201 : EQUIPMENT NUMBER
BASE.                           : BASE LOCATION
ENG .                    LITTLE : RECORDED BY
WIT .                 MR. WATTS : WITNESSED BY
~Curve Information -----------------------------------------
DEPT.F          :DEPTH
ILD.OHMM        :
LAT.OHMM        :
SN.OHMM         :
SP.MV           :
~ASCII ------------------------------------------------------
# ...
731.00000        3.34077        3.17223        3.89503      -54.91223
731.50000        3.27893        3.12243        3.82163      -56.03664
732.00000        3.21798        3.07352        3.68594      -56.06468
732.50000        3.15615        3.02371        3.55026      -54.85707
733.00000        3.09431        2.97391        3.41369      -53.64946
733.50000        3.03336        2.92055        3.27801      -53.39180
734.00000        2.97152        2.84852        3.14233      -53.37341
734.50000        2.90968        2.77648        3.05647      -53.35502
735.00000        2.90478        2.70445        3.04712      -53.33663
735.50000        2.93724        2.63152        3.03777      -52.42544
736.00000        2.97059        2.55949        3.02753      -51.02498
736.50000        3.00306        2.48745        3.01818      -48.54958
737.00000        3.03552        2.41541        3.00883      -46.07775
737.50000        3.06888        2.38873        2.99948      -43.60235
738.00000        3.10134        2.37362        2.96878      -43.76252
738.50000        3.13380        2.35850        2.90605      -43.92270
739.00000        3.16716        2.34249        2.84421      -41.75789
739.50000        3.19962        2.32737        2.78148      -39.95388
740.00000        3.23209        2.31225        2.71875      -38.14988
740.50000        3.26544        2.33804        2.65692      -38.24934
741.00000        3.25965        2.36472        2.59419      -38.82735
741.50000        3.22806        2.39051        2.60085      -40.05889
742.00000        3.19736        2.46077        2.65378      -41.29044
742.50000        3.16666        2.55949        2.77432      -41.40776
743.00000        3.13506        2.65820        2.91265      -41.52865
743.50000        3.07145        2.75692        3.05009      -42.11737
744.00000        2.95979        2.85563        3.18843      -43.40606
744.50000        2.84724        2.95435        3.32587      -44.69831
745.00000        2.73469        3.05306        3.46421      -45.19775
745.50000        2.62303        3.13666        3.58030      -44.51154
746.00000        2.51048        3.19713        3.60742      -43.82176
746.50000        2.48778        3.25672        3.63544      -43.42125
747.00000        2.56918        3.31719        3.66346      -44.18139
747.50000        2.65057        3.37678        3.69147      -44.93797
748.00000        2.66257        3.43725        3.71860      -45.69811
748.50000        2.57049        3.49684        3.74661      -46.45468
749.00000        2.47840        3.55731        3.77463      -46.42558
749.50000        2.38631        3.77964        3.84090      -45.87150
750.00000        1.99062        4.00198        3.61024      -47.63297
750.50000        1.89653        4.28571        3.67597      -49.37486
751.00000        1.85601        4.58214        3.74259      -52.05083
751.50000        1.82888        4.92678        3.88153      -54.72680
752.00000        1.80176        5.27232        4.03923      -55.84716
752.50000        1.87731        5.61696        4.19692      -54.51017
753.00000        1.97875        5.87768        4.35461      -52.69536
753.50000        1.95162        5.80357        4.57748      -52.89242
754.00000        1.92361        5.58036        5.06374      -53.73245
754.50000        1.89648        5.16339        6.07100      -52.68646
755.00000        2.34524        4.69821        7.30099      -53.47271
755.50000        3.22214        4.23393        9.04438      -55.47327
756.00000        4.46732        3.76875       11.68061      -60.54552
756.50000        5.71339        3.30357       15.03111      -64.60116
757.00000        7.47373        2.98482       21.10526      -68.27588
757.50000        8.60731        2.85714       24.85755      -69.85250
758.00000        8.98196        2.97232       26.53397      -71.43272
758.50000        9.35572        3.54553       25.72560      -73.00935
759.00000        9.23931        4.12500       23.57619      -73.42915
759.50000        8.43855        4.70536       20.78928      -73.56154
760.00000        7.50341        4.91875       17.81576      -72.12026
760.50000        6.38969        5.04018       12.98781      -69.58693
761.00000        5.75810        5.18928       10.26697      -67.17574
761.50000        4.82296        5.35714        7.73363      -64.39092
762.00000        3.97352        5.38928        5.95028      -59.78465
762.50000        3.46515        5.42053        4.74102      -55.98312
763.00000        2.80410        5.40625        4.04784      -53.39948
763.50000        2.34127        5.20268        3.88768      -52.48283
764.00000        2.23200        5.00000        3.72752      -54.07731
764.50000        2.12273        4.79732        3.74682      -56.30420
765.00000        2.01346        4.59375        3.76523      -58.32642
765.50000        1.90420        4.39107        3.78453      -60.85150
766.00000        1.79493        4.18839        3.80294      -58.67373
766.50000        1.88030        4.04375        3.82224      -55.59073
767.00000        2.01389        3.91786        3.70940      -52.19157
767.50000        2.14747        3.81339        3.46846      -48.79241
768.00000        2.16188        3.77678        3.40740      -45.73815
768.50000        2.05262        3.84375        3.44099      -44.21075
769.00000        1.95049        3.91071        3.47368      -44.55151
769.50000        1.87872        3.97768        3.50638      -46.32933
770.00000        1.80695        4.06071        3.53907      -48.75381
770.50000        1.73429        4.16696        3.57177      -51.33997
771.00000        1.66252        4.27321        3.60446      -53.92612
771.50000        1.77914        4.37946        3.63715      -56.51227
772.00000        2.17790        4.44643        3.66985      -59.64810
772.50000        2.60702        4.35714        3.72933      -62.02588
773.00000        3.00489        4.16428        3.79595      -61.06611
773.50000        3.41526        3.55536        3.86168      -58.28489
774.00000        3.95377        2.94643        3.94127      -55.50366
774.50000        4.40253        2.80893        4.00700      -53.68515
775.00000        6.86019        2.67143        3.99237      -56.23179
775.50000        8.87143        2.58929        3.85810      -58.78202
776.00000        9.84072        2.58929        3.72294      -60.69635
776.50000        8.51896        2.58929        3.84671      -60.07788
777.00000        5.93205        2.58929        4.03476      -58.57204
777.50000        5.28261        2.58929        4.01477      -55.72974
778.00000        4.79389        2.85714        3.68229      -52.83714
778.50000        4.42926        3.22411        3.34981      -49.94455
779.00000        4.14768        3.72053        3.27805      -53.15941
779.50000        3.89020        3.98214        3.44377      -56.79820
780.00000        3.62515        3.89286        3.71443      -60.69926
780.50000        3.54624        3.80357        3.80605      -64.60031
781.00000        3.56197        3.71428        3.80839      -65.05963
781.50000        3.57770        3.62500        3.73395      -62.04848
782.00000        3.59432        3.52857        3.60861      -56.04108
782.50000        3.61005        3.42143        3.48416      -53.38919
783.00000        3.62578        3.31428        3.35882      -52.06657
783.50000        3.64151        3.18571        3.28437      -52.70911
784.00000        3.64385        3.07857        3.28671      -53.48088
784.50000        3.64619        3.06161        3.28905      -54.12343
785.00000        3.64852        3.10536        3.29139      -55.35516
785.50000        3.65086        3.14911        3.29372      -56.97490
786.00000        3.65320        3.19286        3.29606      -58.59823
786.50000        3.65600        3.23661        3.29887      -60.21797
787.00000        3.64406        3.28125        3.30120      -61.84130
787.50000        3.62943        3.32500        3.30354      -62.06351
788.00000        3.61391        3.36875        3.27641      -61.84382
