~Version ---------------------------------------------------
VERS. 2.0 : CWLS LOG ASCII STANDARD - VERSION 2.0
WRAP. NO  : One line per depth step
DLM . SPACE : Column Data Section Delimiter
~Well ------------------------------------------------------
STRT.F          100 : START DEPTH
STOP.F       2271.5 : STOP DEPTH
STEP.F          0.5 : STEP
NULL.       -999.25 : NULL VALUE
COMP.                       WALSH & WATTS : COMPANY
WELL.                        SALMON E 24  : WELL
FLD .                               NORTH : FIELD
CNTY.                            MONTAGUE : COUNTY
STAT.                               TEXAS : STATE
CTRY.                                 USA : COUNTRY
SEC .                                     : SECTION
TWP .                                     : TOWNSHIP
RGE .                                     : RANGE
LOC .                 SW CORNER OF LEAGUE : LOCATION
EKB .F                          : ELEVATION KELLY BUSHING
EDF .F                          : ELEVATION DERRICK FLOOR
EGL .F                      850 : ELEVATION GROUND LEVEL
PDAT.                        GL : PERMANENT DATUM
EPD .                       850 : ELEVATION PERMANENT DATUM
APD .                         5 : ABOVE PERMANENT DATUM
LMF .                        RT : LOG MEASURED FROM
DMF .                        RT : DRILLING MEASURED FROM
API .            42337038630000 : API NUMBER
UWI .                           : UWI NUMBER
DIGC.                     NthDS : DIGITIZING COMPANY
~Params ----------------------------------------------------
SRVC.               HALLIBURTON : LOGGING COMPANY
LOG .                        EL : LOG
DATE.                1950-09-25 : RUN DATE
RUN .                         1 : RUN NUMBER
TDD .F                     2272 : TOTAL DEPTH DRILLER
TDL .F                     2272 : TOTAL DEPTH LOGGER
BOTL.F                     2272 : BOTTOM LOGGED INTERVAL
TOPL.F                          : TOP LOGGED INTERVAL
CSGS.IN                         : CASING SIZE
CSGD.F                          : CASING DRILLER
CSGL.F                          : CASING LOGGER
BS  .IN                       9 : BIT SIZE
MUD .        WATER BASE AQUAGEL : MUD TYPE
MUDD.                       9.8 : MUD DENSITY
MUDV.                        39 : MUD VISCOSITY
PH  .                           : MUD PH
FL  .                           : FLUID LOSS
MUDS.                           : SOURCE OF SAMPLE
RM  .OHMM                   2.3 : MUD RESISTIVITY
RMT .DEGF                    70 : RM TEMPERATURE
RMF .OHMM                       : MUD FILTRATE RESISTIVITY
RMFT.DEGF                       : RMF TEMPERATURE
RMC .OHMM                       : MUD CAKE RESISTIVITY
RMCT.DEGF                       : RMC TEMPERATURE
RMFS.                           : RMF SOURCE
RMCS.                           : RMC SOURCE
RMBH.OHMM                       : MUD RESISTIVITY AT BHT
BHT .DEGF                       : BOTTOM HOLE TEMPERATURE
TIMC.                           : TIME CIRCULATION STOPPED
TIML.                           : TIME LOGGER ON BOTTOM
TMAX.DEGF                       : MAXIMUM RECORDED TEMPERATURE
UNIT.                           : EQUIPMENT NUMBER
BASE.                           : BASE LOCATION
ENG .                  HARRISON : RECORDED BY
WIT .                    DAWSON : WITNESSED BY
~Curve Information -----------------------------------------
DEPT.F          :DEPTH
ILD.OHMM        :
SN.OHMM         :
SP.MV           :
~ASCII ------------------------------------------------------
# ...
1191.00000        4.96171        6.32147      -40.58896
1191.50000        4.26784        5.18937      -38.90533
1192.00000        3.79602        4.16329      -37.22170
1192.50000        3.38011        3.63053      -36.20504
1193.00000        2.96421        3.21463      -36.86336
1193.50000        2.82627        3.21608      -37.85626
1194.00000        2.69083        3.24675      -40.85654
1194.50000        2.50949        3.39596      -44.19140
1195.00000        2.32814        3.54432      -45.85342
1195.50000        2.25697        3.69353      -45.50805
1196.00000        2.35192        3.94707      -44.49355
1196.50000        2.44603        4.22649      -42.47536
1197.00000        2.54014        4.36901      -40.45716
1197.50000        2.66263        4.29397      -39.10810
1198.00000        2.79264        4.23115      -38.76273
1198.50000        2.90624        4.17668      -41.42845
1199.00000        2.93107        4.35426      -43.09047
1199.50000        2.95590        4.12450      -43.07967
1200.00000        3.00051        3.91451      -42.48712
1200.50000        3.00843        3.68538      -40.13436
1201.00000        3.01134        3.58312      -37.44704
1201.50000        3.01426        3.55348      -34.42514
1202.00000        3.16992        3.52467      -33.07392
1202.50000        3.42826        3.43744      -32.39399
1203.00000        3.68575        3.33601      -32.04862
1203.50000        3.94409        3.23459      -32.03781
1204.00000        4.03965        3.15153      -32.36158
1204.50000        4.11018        3.08099      -31.34708
1205.00000        4.08137        3.01045      -30.33258
1205.50000        4.05173        2.95994      -29.65265
1206.00000        3.96700        2.99040      -28.97271
1206.50000        3.84471        3.02086      -27.95821
1207.00000        3.59446        3.08387      -27.61284
1207.50000        3.34195        3.31524      -27.93661
1208.00000        3.08945        3.58943      -29.26407
1208.50000        2.94963        4.18833      -31.59522
1209.00000        3.25554        4.78722      -33.59181
1209.50000        3.56228        5.39863      -35.25384
1210.00000        4.57853        6.02757      -36.24673
1210.50000        5.70746        6.65652      -37.57419
1211.00000        6.99331        7.11017      -38.23252
1211.50000        8.09803        6.99622      -38.22171
1212.00000        7.89311        6.22036      -36.87265
1212.50000        6.52544        5.01379      -33.51403
1213.00000        4.69534        4.25795      -31.16127
1213.50000        3.64152        3.50212      -30.14677
1214.00000        3.18034        3.31556      -28.79771
1214.50000        2.53385        3.12816      -27.78321
1215.00000        2.21707        3.09351      -26.43414
1215.50000        2.15071        3.09643      -25.75421
1216.00000        2.08350        3.09934      -25.40884
1216.50000        2.01714        3.10225      -25.39804
1217.00000        2.04175        3.10517      -25.72180
1217.50000        2.06720        3.10866      -26.04556
1218.00000        2.09182        3.11658      -27.03846
1218.50000        2.09532        3.14370      -28.36592
1219.00000        2.05399        3.17166      -30.02794
1219.50000        2.01350        3.19878      -31.68996
1220.00000        1.97217        3.41788      -32.68286
1220.50000        2.01682        3.68373      -33.34119
1221.00000        2.11740        3.95041      -34.66865
1221.50000        2.21881        4.21709      -35.99610
1222.00000        2.30853        4.74169      -37.65813
1222.50000        2.35318        5.26630      -39.32015
1223.00000        2.70249        5.79090      -41.31674
1223.50000        4.81304        7.20613      -43.64790
1224.00000        8.01595        9.17118      -46.64818
1224.50000       11.27421       11.30510      -50.98673
1225.00000       19.70154       13.77039      -54.65615
1225.50000       22.71607       15.19647      -57.99100
1226.00000       23.79324       15.38719      -60.65672
1226.50000       21.74863       14.76408      -62.65331
1227.00000       17.85598       13.14934      -63.98077
1227.50000       14.85396       11.89602      -64.30453
1228.00000       10.99244       11.18359      -65.29527
1228.50000        7.21582       11.30336      -66.62272
1229.00000        5.01261       11.59842      -67.61562
1229.50000        3.65245       11.74908      -68.60851
1230.00000        3.16539       11.50659      -69.26684
1230.50000        2.66749       10.56045      -70.25973
1231.00000        2.22383        9.61514      -70.58350
1231.50000        1.99971        8.59804      -69.56900
1232.00000        1.77475        7.67360      -67.21624
1232.50000        1.59903        7.11977      -63.19065
1233.00000        1.51848        6.56593      -56.82310
1233.50000        1.50303        6.19824      -51.12469
1234.00000        1.48674        5.87645      -48.10279
1234.50000        1.47046        6.44279      -48.42656
1235.00000        1.46336        6.00807      -44.39881
1235.50000        1.48881        5.34263      -38.03126
1236.00000        1.51509        4.44156      -31.66372
1236.50000        1.54138        3.68740      -27.97269
1237.00000        1.60940        3.47387      -26.62363
1237.50000        1.70496        3.54941      -26.27826
1238.00000        1.92657        3.62494      -25.93289
1238.50000        2.23056        3.70047      -25.58752
1239.00000        2.39040        3.77601      -25.57672
1239.50000        2.52352        3.87241      -25.23135
1240.00000        2.61993        4.00053      -24.55142
1240.50000        2.80230        4.22881      -23.53476
1241.00000        3.09820        4.60734      -23.52396
1241.50000        3.61111        5.04180      -23.84772
1242.00000        4.30182        5.56056      -24.17148
1242.50000        5.25880        6.07848      -24.82981
1243.00000        5.33100        6.59724      -25.82270
1243.50000        6.09934        6.75708      -27.15016
1244.00000        5.85184        6.78671      -28.81219
1244.50000        5.10352        6.42736      -30.47421
1245.00000        4.35520        5.77419      -30.79797
1245.50000        3.68033        4.98414      -29.78348
1246.00000        2.94203        4.19408      -28.09985
1246.50000        2.46833        3.86312      -27.08535
1247.00000        2.24921        4.04858      -26.73998
1247.50000        2.19954        4.20341      -27.06374
1248.00000        2.15070        4.26559      -25.71468
1248.50000        2.13249        4.32860      -24.70018
1249.00000        2.15210        4.37909      -24.35481
1249.50000        2.17171        4.38200      -24.00944
1250.00000        2.23091        4.42451      -24.08386
1250.50000        2.25052        4.42743      -24.07306
1251.00000        2.28014        4.43034      -23.72769
1251.50000        2.31645        4.43326      -24.05146
1252.00000        2.35275        4.43617      -24.70978
1252.50000        2.38905        4.43908      -25.03355
1253.00000        2.42535        4.43866      -26.02644
1253.50000        2.50088        4.42321      -25.68107
1254.00000        2.60146        4.40776      -24.33201
1254.50000        2.70287        4.39231      -23.31751
1255.00000        2.85770        4.37769      -23.30670
1255.50000        3.22872        4.36224      -23.09516
1256.00000        3.60057        4.34679      -22.08066
1256.50000        3.97159        4.33134      -21.06616
1257.00000        4.20237        4.31673      -20.42972
1257.50000        4.39727        4.30128      -21.30552
1258.00000        4.47589        4.29585      -22.17797
1258.50000        4.28014        4.28933      -23.05377
1259.00000        4.08440        4.28473      -23.88941
1259.50000        3.88782        4.27929      -24.21318
1260.00000        3.72713        4.27386      -23.53324
1260.50000        3.70417        4.26843      -22.51874
1261.00000        3.68037        4.26299      -22.17337
1261.50000        3.65741        4.25840      -22.49714
1262.00000        3.62526        4.25296      -22.82090
