~Version ---------------------------------------------------
VERS. 2.0 : CWLS LOG ASCII STANDARD - VERSION 2.0
WRAP. NO  : One line per depth step
DLM . SPACE : Column Data Section Delimiter
~Well ------------------------------------------------------
STRT.F          230 : START DEPTH
STOP.F       1777.5 : STOP DEPTH
STEP.F          0.5 : STEP
NULL.       -999.25 : NULL VALUE
COMP.         WALSH & WATTS, INCORPORATED : COMPANY
WELL.                         SALMON E 44 : WELL
FLD .                             REGULAR : FIELD
CNTY.                            MONTAGUE : COUNTY
STAT.                               TEXAS : STATE
CTRY.                                 USA : COUNTRY
SEC .                                     : SECTION
TWP .                                     : TOWNSHIP
RGE .                                     : RANGE
LOC . 300' WEST OF NO 23, 300' SOUTH OF D-9, F.ROBERTSON SURV. : LOCATION
EKB .F                      862 : ELEVATION KELLY BUSHING
EDF .F                          : ELEVATION DERRICK FLOOR
EGL .F                      856 : ELEVATION GROUND LEVEL
PDAT.                        GL : PERMANENT DATUM
EPD .                       856 : ELEVATION PERMANENT DATUM
APD .                         6 : ABOVE PERMANENT DATUM
LMF .                        KB : LOG MEASURED FROM
DMF .                        KB : DRILLING MEASURED FROM
API .            42337038720000 : API NUMBER
UWI .                           : UWI NUMBER
DIGC.                     NthDS : DIGITIZING COMPANY
~Params ----------------------------------------------------
SRVC.              SCHLUMBERGER : LOGGING COMPANY
LOG .                       IEL : LOG
DATE.                1965-11-28 : RUN DATE
RUN .                         1 : RUN NUMBER
TDD .F                     1779 : TOTAL DEPTH DRILLER
TDL .F                     1779 : TOTAL DEPTH LOGGER
BOTL.F                     1778 : BOTTOM LOGGED INTERVAL
TOPL.F                          : TOP LOGGED INTERVAL
CSGS.IN                         : CASING SIZE
CSGD.F                          : CASING DRILLER
CSGL.F                          : CASING LOGGER
BS  .IN                   7.875 : BIT SIZE
MUD .                       GEL : MUD TYPE
MUDD.                        10 : MUD DENSITY
MUDV.                       9.8 : MUD VISCOSITY
PH  .                           : MUD PH
FL  .                           : FLUID LOSS
MUDS.                CIRCULATED : SOURCE OF SAMPLE
RM  .OHMM                   2.0 : MUD RESISTIVITY
RMT .DEGF                    81 : RM TEMPERATURE
RMF .OHMM                   1.5 : MUD FILTRATE RESISTIVITY
RMFT.DEGF                    81 : RMF TEMPERATURE
RMC .OHMM                       : MUD CAKE RESISTIVITY
RMCT.DEGF                       : RMC TEMPERATURE
RMFS.                         M : RMF SOURCE
RMCS.                           : RMC SOURCE
RMBH.OHMM                   1.6 : MUD RESISTIVITY AT BHT
BHT .DEGF                   100 : BOTTOM HOLE TEMPERATURE
TIMC.                           : TIME CIRCULATION STOPPED
TIML.                           : TIME LOGGER ON BOTTOM
TMAX.DEGF                   100 : MAXIMUM RECORDED TEMPERATURE
UNIT.                      4559 : EQUIPMENT NUMBER
BASE.                       WFS : BASE LOCATION
ENG .                      FINK : RECORDED BY
WIT .                       NIX : WITNESSED BY
~Curve Information -----------------------------------------
DEPT.F          :DEPTH
CILD.MMHO       :
ILD.OHMM        :
SN.OHMM         :
SP.MV           :
~ASCII ------------------------------------------------------
# ...
920.00000     1086.29359        0.69974        2.81306      -97.68901
920.50000     1054.77973        0.72787        2.80066      -97.53301
921.00000      998.74149        0.78641        2.79080      -97.34101
921.50000      986.58112        0.84495        2.78053      -97.14001
922.00000      925.70808        0.90348        2.77027      -96.93901
922.50000      851.48177        0.96202        2.94601      -95.96101
923.00000      756.57490        1.04895        3.12174      -94.56001
923.50000      673.17948        1.24829        3.29788      -92.46001
924.00000      621.22181        1.44763        3.33322      -89.06701
924.50000      570.56892        1.61136        3.23535      -83.73302
925.00000      544.43040        1.63310        2.97789      -78.09902
925.50000      555.60245        1.63404        2.85083      -72.26702
926.00000      581.36550        1.58804        2.75697      -68.35802
926.50000      612.80420        1.50298        2.64417      -65.40002
927.00000      645.66431        1.41831        2.61511      -68.77502
927.50000      678.52442        1.33325        2.69884      -77.34602
928.00000      711.70834        1.27659        2.85818      -88.96502
928.50000      717.23128        1.26153        2.94272      -93.09901
929.00000      700.73234        1.24646        2.97725      -93.97501
929.50000      672.89213        1.30700        3.01179      -92.87101
930.00000      623.69068        1.41713        2.99593      -90.30001
930.50000      570.08486        1.52767        2.77686      -85.80002
931.00000      523.95298        1.63821        2.55820      -78.05102
931.50000      467.25409        1.81394        2.51314      -69.16802
932.00000      430.56508        1.98968        2.46808      -60.00002
932.50000      411.27336        2.20088        2.42301      -56.40002
933.00000      398.76839        2.31542        2.43542      -54.75002
933.50000      390.77790        2.41475        2.50155      -53.10002
934.00000      387.42202        2.41009        2.65129      -53.10002
934.50000      387.11265        2.37943        2.82183      -53.10002
935.00000      386.84985        2.34876        2.99276      -54.00002
935.50000      388.14859        2.31810        2.92530      -55.12502
936.00000      395.67352        2.29064        2.85824      -56.12702
936.50000      402.99825        2.26438        2.79077      -56.94602
937.00000      409.52219        2.23771        2.68251      -57.60002
937.50000      415.10519        2.21145        2.57425      -57.60002
938.00000      416.94447        2.18479        2.50878      -57.60002
938.50000      418.78376        2.15852        2.54812      -59.21402
939.00000      414.79725        2.16733        2.84052      -61.15502
939.50000      409.68311        2.19186        2.97986      -60.90002
940.00000      404.02494        2.21600        2.96160      -59.58902
940.50000      398.36677        2.24054        2.94373      -58.32602
941.00000      393.70959        2.26467        2.92547      -57.06302
941.50000      393.00635        2.28921        2.90761      -55.80002
942.00000      395.94672        2.29695        2.90334      -54.94202
942.50000      399.78799        2.28028        2.90268      -53.70002
943.00000      403.63928        2.26362        2.90202      -52.20002
943.50000      405.14823        2.24696        2.90135      -50.70002
944.00000      401.46202        2.23029        2.88989      -50.27102
944.50000      391.46954        2.25843        2.83603      -51.30002
945.00000      378.97458        2.37243        2.78217      -52.15802
945.50000      364.97812        2.46737        2.73857      -53.01302
946.00000      346.98118        2.56231        2.93791      -54.41402
946.50000      337.60932        2.65724        3.21244      -57.97502
947.00000      332.00120        2.69658        3.48658      -60.75002
947.50000      332.01867        2.73592        3.76111      -63.00002
948.00000      332.03614        2.77525        3.76205      -65.25002
948.50000      332.05361        2.75779        3.69458      -67.20002
949.00000      335.93492        2.74073        3.62232      -67.74002
949.50000      345.43181        2.66566        3.55046      -66.43802
950.00000      366.36332        2.57999        3.47758      -64.53602
950.50000      380.94526        2.46692        3.26532      -62.55002
951.00000      395.51720        2.38546        3.05266      -60.64502
951.50000      400.04915        2.35120        2.84039      -58.74302
952.00000      395.46205        2.32320        2.79000      -57.80102
952.50000      389.47355        2.35254        2.95293      -58.29902
953.00000      384.48605        2.38187        3.11587      -58.80002
953.50000      379.49854        2.41121        3.04841      -58.82402
954.00000      374.51104        2.44455        2.98134      -58.13102
954.50000      367.02105        2.49388        2.91388      -57.43802
955.00000      361.20272        2.54322        3.00402      -59.06102
955.50000      357.87687        2.59256        3.09455      -61.26002
956.00000      360.97089        2.62229        3.11949      -63.45902
956.50000      366.49383        2.57483        3.12843      -63.90002
957.00000      371.82658        2.52697        3.13736      -63.90002
957.50000      377.10929        2.47950        3.14590      -63.35102
958.00000      382.40200        2.44124        3.08924      -61.97402
958.50000      387.68470        2.40578        2.98858      -60.60002
959.00000      393.08753        2.37072        3.02111      -61.96502
959.50000      398.50036        2.33525        3.01645      -63.32702
960.00000      401.75104        2.29966        3.00259      -63.20102
960.50000      399.09586        2.28259        2.98579      -62.60102
961.00000      385.77007        2.26513        3.10993      -62.97302
961.50000      368.88074        2.37887        3.23446      -63.92702
962.00000      344.43389        2.55700        3.35860      -65.15402
962.50000      313.75086        2.77874        3.56593      -66.79202
963.00000      273.72853        3.20847        3.95847      -68.73302
963.50000      242.51147        3.69021        4.59780      -71.90102
964.00000      213.09970        4.17154        5.58113      -75.86702
964.50000      186.09031        4.82847        7.08046      -81.03302
965.00000      159.08092        5.74780        8.57979      -85.28702
965.50000      139.27870        6.66714        9.67912      -88.65002
966.00000      129.68662        7.35567       10.77845      -90.90001
966.50000      127.70210        7.69780       11.29218      -93.15001
967.00000      131.83366        7.49714       11.46272      -94.52401
967.50000      139.63887        7.13648       11.46446      -95.67601
968.00000      152.20881        6.59822       11.08259      -96.60001
968.50000      167.95191        6.07516       10.54593      -96.42901
969.00000      183.70502        5.55210        9.96367      -95.57101
969.50000      199.23791        5.06384        9.51781      -94.71301
970.00000      217.82733        4.64305        9.27715      -93.42001
970.50000      227.61451        4.29239        9.00169      -91.08001
971.00000      235.97026        4.15172        8.67383      -88.69202
971.50000      240.28200        4.01106        8.34717      -86.01302
972.00000      239.50869        4.01040        8.02651      -83.33702
972.50000      232.61929        4.00973        7.78131      -81.60002
973.00000      217.42164        4.28187        7.80905      -82.45802
973.50000      195.91773        4.55400        8.37998      -83.86802
974.00000      174.10350        5.50374        8.99772      -85.65002
974.50000      151.82882        6.43107        9.64705      -87.43202
975.00000      134.00507        7.31040       10.56078      -89.17501
975.50000      116.00463        8.42813       12.53131      -90.86101
976.00000       98.00420        9.60506       14.50516      -93.12001
976.50000       88.46217       11.08999       16.98449      -95.52001
977.00000       78.93015       12.41892       18.51061      -97.20001
