~Version ---------------------------------------------------
VERS. 2.0 : CWLS LOG ASCII STANDARD - VERSION 2.0
WRAP. NO  : One line per depth step
DLM . SPACE : Column Data Section Delimiter
~Well ------------------------------------------------------
STRT.F          800 : START DEPTH
STOP.F       1756.5 : STOP DEPTH
STEP.F          0.5 : STEP
NULL.       -999.25 : NULL VALUE
COMP.                 WALSH & WATTS, INC. : COMPANY
WELL.                       SALMON D E 6D : WELL
FLD .                             REGULAR : FIELD
CNTY.                            MONTAGUE : COUNTY
STAT.                               TEXAS : STATE
CTRY.                                 USA : COUNTRY
SEC .                                     : SECTION
TWP .                                     : TOWNSHIP
RGE .                                     : RANGE
LOC .  460 FSL 755 FEL
F. ROBERTSON A-620 : LOCATION
EKB .F                      880 : ELEVATION KELLY BUSHING
EDF .F                      878 : ELEVATION DERRICK FLOOR
EGL .F                      874 : ELEVATION GROUND LEVEL
PDAT.                        GL : PERMANENT DATUM
EPD .                       874 : ELEVATION PERMANENT DATUM
APD .                           : ABOVE PERMANENT DATUM
LMF .                        KB : LOG MEASURED FROM
DMF .                        KB : DRILLING MEASURED FROM
API .            42337016430000 : API NUMBER
UWI .            42337016430000 : UWI NUMBER
DIGC.                     NthDS : DIGITIZING COMPANY
~Params ----------------------------------------------------
SRVC.              SCHLUMBERGER : LOGGING COMPANY
LOG .                   CNFD/ML : LOG
DATE.                2005-08-03 : RUN DATE
RUN .                         1 : RUN NUMBER
TDD .F                     1750 : TOTAL DEPTH DRILLER
TDL .F                     1750 : TOTAL DEPTH LOGGER
BOTL.F                     1750 : BOTTOM LOGGED INTERVAL
TOPL.F                      980 : TOP LOGGED INTERVAL
CSGS.IN                       7 : CASING SIZE
CSGD.F                      880 : CASING DRILLER
CSGL.F                      880 : CASING LOGGER
BS  .IN                     6.5 : BIT SIZE
MUD .                       FGM : MUD TYPE
MUDD.                       0.2 : MUD DENSITY
MUDV.                        80 : MUD VISCOSITY
PH  .                        11 : MUD PH
FL  .                         7 : FLUID LOSS
MUDS.                       PIT : SOURCE OF SAMPLE
RM  .OHMM                  1.70 : MUD RESISTIVITY
RMT .DEGF                    70 : RM TEMPERATURE
RMF .OHMM                  1.33 : MUD FILTRATE RESISTIVITY
RMFT.DEGF                    70 : RMF TEMPERATURE
RMC .OHMM                  2.67 : MUD CAKE RESISTIVITY
RMCT.DEGF                    70 : RMC TEMPERATURE
RMFS.                      MEAS : RMF SOURCE
RMCS.                       CAL : RMC SOURCE
RMBH.OHMM                  1.47 : MUD RESISTIVITY AT BHT
BHT .DEGF                    98 : BOTTOM HOLE TEMPERATURE
TIMC.                     2100  : TIME CIRCULATION STOPPED
TIML.                     0300  : TIME LOGGER ON BOTTOM
TMAX.DEGF                    98 : MAXIMUM RECORDED TEMPERATURE
UNIT.                       303 : EQUIPMENT NUMBER
BASE.                   WICHITA : BASE LOCATION
ENG .              DAVID PARKER : RECORDED BY
WIT .              MR. BURLESON : WITNESSED BY
~Curve Information -----------------------------------------
DEPT.F          :DEPTH
CALD.IN         :
DPHI.%          :
GRD.GAPI        :
MINV.OHMM       :
MNOR.OHMM       :
NPHI.%          :
~ASCII ------------------------------------------------------
# ...
1480.00000        6.05847       12.30545       94.25502        4.40985        4.98326       25.44566
1480.50000        6.04637       12.36792       92.31349        4.37943        5.00900       25.09677
1481.00000        6.03629       12.70169       90.42336        4.48085        5.06517       24.72930
1481.50000        6.02621       12.89981       88.99292        4.63687        5.12056       24.33458
1482.00000        6.01613       12.90019       88.44252        4.71957        5.17595       23.16267
1482.50000        6.00605       12.20452       87.39917        4.69148        5.12836       22.43882
1483.00000        5.99597       12.07044       85.38204        4.66340        5.01134       20.93779
1483.50000        6.02117       12.69568       85.61792        4.77730        5.19155       20.01954
1484.00000        6.04637       13.11922       87.29937        4.93333        5.47553       20.16809
1484.50000        6.07157       13.06028       88.10381        4.83113        5.51843       20.22773
1485.00000        6.09597       12.64936       89.06248        4.76170        5.40141       20.26209
1485.50000        6.12016       12.56669       92.84272        4.79290        5.28439       20.43158
1486.00000        6.14435       12.42873       94.35482        4.75390        5.16737       20.88080
1486.50000        6.16855       11.83589       95.74594        4.76638        5.18531       21.46080
1487.00000        6.19274       11.96796       97.83264        4.85687        5.29375       22.28419
1487.50000        6.21613       11.67845       97.37901        4.94659        5.40219       23.69392
1488.00000        6.23952       11.09550       95.04131        4.83425        5.51063       24.79388
1488.50000        6.24960       10.84871       92.70663        4.96453        5.44588       25.28814
1489.00000        6.20766       11.26434       92.50703        4.91616        5.38035       25.76265
1489.50000        6.16573       12.05845       92.84272        4.86702        4.91226       26.25020
1490.00000        6.13992       12.56623       92.23788        4.81865        4.17581       26.90930
1490.50000        6.11411       12.58480       93.03022        4.73049        4.06113       26.66827
1491.00000        6.08064       12.59665       90.95260        5.43262        4.10248       26.38772
1491.50000        6.01814       12.42974       88.30643        5.35460        4.14304       25.94914
1492.00000        6.02823       12.26283       86.49191        5.09482        4.18439       25.64647
1492.50000        6.02117       12.32688       88.40623        4.88652        4.33106       25.57573
1493.00000        5.94556       12.54477       88.91127        4.88652        4.47695       25.63063
1493.50000        5.91532       12.34741       88.96268        4.88652        4.62361       25.74639
1494.00000        5.91532       12.55344       88.33062        4.88652        4.76950       25.86214
1494.50000        5.91532       12.93625       87.70159        4.85219        5.00354       25.68788
1495.00000        5.91532       13.12567       90.39010        4.80851        5.58865       25.73053
1495.50000        5.91532       13.48594       93.10582        5.35460        5.73531       25.77319
1496.00000        5.91532       13.71174       95.94252        5.32340        5.76418       25.85140
1496.50000        5.91532       13.73664       96.97679        5.21574        5.61829       26.07146
1497.00000        5.91532       13.38623       96.80744        5.30233        5.66666       26.20341
1497.50000        5.91532       12.82147       97.37901        5.26099        6.18702       26.23540
1498.00000        5.91532       12.29942       97.29131        5.19858        6.13475       26.75732
1498.50000        5.91532       12.28564       93.83768        5.39361        5.92645       27.28715
1499.00000        5.91532       12.65223       90.42336        5.24538        5.66666       27.28752
1499.50000        5.91532       12.99272       83.11389        4.73049        5.38581       26.97577
1500.00000        5.91532       13.53500       75.60482        4.14538        5.07375       26.75401
1500.50000        5.90763       14.69532       69.07256        4.42936        4.63687       26.45750
1501.00000        5.90763       16.30926       67.74192        4.67198        4.73673       25.81027
1501.50000        5.90763       17.26670       67.74192        4.74141        5.00666       24.69672
1502.00000        5.90763       16.63431       65.32256        4.76950        5.27659       22.55950
1502.50000        5.89960       14.50899       65.92740        4.79758        5.25631       22.09792
1503.00000        5.85944       13.93434       66.53224        4.80851        5.23524       21.73887
1503.50000        5.81928       14.49986       68.64918        4.80851        5.21496       21.58407
1504.00000        5.79137       14.53307       67.43950        4.80851        5.11354       21.12289
1504.50000        5.81225       14.50062       67.13708        4.87092        4.68758       20.81965
1505.00000        5.83313       15.33151       64.11289        4.79134        4.26241       20.70127
1505.50000        5.85402       17.54657       58.85684        4.35758        3.56028       20.81487
1506.00000        5.87510       19.59040       53.62196        4.09624        3.33716       21.38052
1506.50000        5.87149       21.17427       48.38708        3.95035        3.16007       21.07174
1507.00000        5.83132       20.75110       47.47983        4.00262        3.01418       20.50487
1507.50000        5.79538       19.68368       48.23588        4.05411        3.19127       19.91147
1508.00000        5.76566       18.04678       50.67337        4.10638        3.36914       20.04367
1508.50000        5.73574       14.99405       53.52821        4.26865        3.65390       20.35558
1509.00000        5.70602       12.48709       55.04031        4.43170        3.96595       20.52618
1509.50000        5.67630       12.60612       56.55241        4.43794        3.99716       20.68886
1510.00000        5.64659       15.54293       58.21571        4.63687        3.95815       20.98217
1510.50000        5.68012       18.14359       60.78628        4.60333        4.07517       21.09339
1511.00000        5.70964       18.97448       63.81047        4.74999        4.23120       20.80203
1511.50000        5.72410       17.94661       65.47377        5.12056        4.23432       20.29334
1512.00000        5.82229       15.27750       65.44353        4.98092        4.19843       20.14330
1512.50000        5.79719       14.26941       65.92740        4.84205        4.31234       20.08271
1513.00000        5.75944       13.67657       69.63204        4.78276        4.56744       20.01857
1513.50000        5.71305       13.00463       76.63305        4.91226        4.67744       19.93978
1514.00000        5.66667       13.05247       84.49595        5.04255        4.71801       19.86099
1514.50000        5.66667       13.04494       90.25099        5.15489        4.75936       19.82178
1515.00000        5.66667       13.24306       92.84272        5.24226        4.79992       20.07076
1515.50000        5.69920       13.77457       91.93546        5.40687        4.95049       20.80426
1516.00000        5.75321       13.91613       91.93546        5.62297        5.12758       21.41425
1516.50000        5.80723       13.71877       92.69151        5.66666        5.08155       21.69173
1517.00000        5.81827       13.52141       95.56449        5.64092        5.12056       21.96920
1517.50000        5.82731       13.40315       98.08365        5.59177        5.27659       22.00917
1518.00000        5.83634       13.37703       98.58869        5.60737        5.27659       21.81162
1518.50000        5.84558       13.45928       94.80844        5.62297        5.27659       21.79221
1519.00000        5.84558       13.68112       93.96469        5.63858        5.27659       21.92916
1519.50000        5.84337       13.56286       93.85885        5.65418        5.27659       22.30045
