~Version ---------------------------------------------------
VERS. 2.0 : CWLS LOG ASCII STANDARD - VERSION 2.0
WRAP. NO  : One line per depth step
DLM . SPACE : Column Data Section Delimiter
~Well ------------------------------------------------------
STRT.F          100 : START DEPTH
STOP.F       1218.0 : STOP DEPTH
STEP.F          0.5 : STEP
NULL.       -999.25 : NULL VALUE
COMP.                       WALSH & WATTS : COMPANY
WELL.                          SALMON A 6 : WELL
FLD .                          OLD NOCONA : FIELD
CNTY.                            MONTAGUE : COUNTY
STAT.                               TEXAS : STATE
CTRY.                                 USA : COUNTRY
SEC .                                     : SECTION
TWP .                                     : TOWNSHIP
RGE .                                     : RANGE
LOC .                                     : LOCATION
EKB .F                          : ELEVATION KELLY BUSHING
EDF .F                      884 : ELEVATION DERRICK FLOOR
EGL .F                      878 : ELEVATION GROUND LEVEL
PDAT.                           : PERMANENT DATUM
EPD .                           : ELEVATION PERMANENT DATUM
APD .                       5.5 : ABOVE PERMANENT DATUM
LMF .                       KDB : LOG MEASURED FROM
DMF .                       KDB : DRILLING MEASURED FROM
API .            42337039770000 : API NUMBER
UWI .                           : UWI NUMBER
DIGC.                     NthDS : DIGITIZING COMPANY
~Params ----------------------------------------------------
SRVC.     THE ELGEN CORPORATION : LOGGING COMPANY
LOG .                        EL : LOG
DATE.                1954-12-19 : RUN DATE
RUN .                         1 : RUN NUMBER
TDD .F                     1217 : TOTAL DEPTH DRILLER
TDL .F                     1219 : TOTAL DEPTH LOGGER
BOTL.F                     1218 : BOTTOM LOGGED INTERVAL
TOPL.F                      100 : TOP LOGGED INTERVAL
CSGS.IN                         : CASING SIZE
CSGD.F                          : CASING DRILLER
CSGL.F                          : CASING LOGGER
BS  .IN                    8.75 : BIT SIZE
MUD .                       GEL : MUD TYPE
MUDD.                        10 : MUD DENSITY
MUDV.                        60 : MUD VISCOSITY
PH  .                           : MUD PH
FL  .                           : FLUID LOSS
MUDS.                           : SOURCE OF SAMPLE
RM  .OHMM                   2.4 : MUD RESISTIVITY
RMT .DEGF                    58 : RM TEMPERATURE
RMF .OHMM                       : MUD FILTRATE RESISTIVITY
RMFT.DEGF                       : RMF TEMPERATURE
RMC .OHMM                       : MUD CAKE RESISTIVITY
RMCT.DEGF                       : RMC TEMPERATURE
RMFS.                           : RMF SOURCE
RMCS.                           : RMC SOURCE
RMBH.OHMM                       : MUD RESISTIVITY AT BHT
BHT .DEGF                       : BOTTOM HOLE TEMPERATURE
TIMC.                           : TIME CIRCULATION STOPPED
TIML.                           : TIME LOGGER ON BOTTOM
TMAX.DEGF                       : MAXIMUM RECORDED TEMPERATURE
UNIT.                           : EQUIPMENT NUMBER
BASE.                           : BASE LOCATION
ENG .                 STONE-302 : RECORDED BY
WIT .                      TODD : WITNESSED BY
~Curve Information -----------------------------------------
DEPT.F          :DEPTH
LAT.OHMM        :
LN.OHMM         :
SN.OHMM         :
SP.MV           :
~ASCII ------------------------------------------------------
100.00000        -999.25       19.86995        -999.25      -42.90784
100.50000       21.11360       20.02688       15.52277      -46.45393
101.00000       19.89520       20.26309       15.30229      -46.80854
101.50000       18.37242       20.45925       15.08180      -46.80854
102.00000       16.85053       20.58890       14.86132      -46.45393
102.50000       15.04332       20.67423       14.64083      -46.80854
103.00000       13.92841       20.71029       14.60191      -46.80854
103.50000       13.92258       20.90152       14.83580      -46.80854
104.00000       14.19404       21.21919       15.06968      -46.45393
104.50000       12.46196       21.53603       15.30357      -46.45393
105.00000       11.87297       21.87832       15.53746      -46.09932
105.50000       12.37876       22.32160       15.77224      -45.74471
106.00000       11.04023       22.76488       16.08036      -45.74471
106.50000       10.13103       23.33623       16.68722      -45.74471
107.00000       10.93915       24.10215       17.29409      -45.74471
107.50000       11.37786       24.86808       17.90095      -45.74471
108.00000       10.33718       26.16173       19.20520      -45.74471
108.50000       10.00489       27.19119       21.25300      -45.39010
109.00000       10.73518       28.22066       23.15679      -45.03549
109.50000       10.28662       30.52266       25.44161      -44.68088
110.00000        9.54468       32.82466       28.87014      -44.32628
110.50000       11.11306       35.53845       31.72650      -43.61706
111.00000       11.48916       38.38741       34.58375      -43.26245
111.50000       11.56652       41.94800       36.94281      -42.90784
112.00000       11.93636       44.08451       38.55591      -42.55323
112.50000       12.74447        -999.25       39.92814      -42.19862
113.00000       12.96288        -999.25       40.60209      -41.84401
113.50000       12.51878        -999.25       41.27603      -41.48940
114.00000       13.22493        -999.25       41.69417      -41.48940
114.50000       14.21819        -999.25       42.04881      -41.48940
115.00000       15.21145        -999.25       42.40344      -41.13479
115.50000       15.57234        -999.25       42.75807      -40.78018
116.00000       16.26149        -999.25       43.11271      -40.07096
116.50000       17.45689        -999.25       43.43514      -39.36174
117.00000       18.11564       13.21873       43.62967      -39.00713
117.50000       18.77527       22.48714       43.82420      -39.00713
118.00000       19.43401       30.88529       44.16184      -39.00713
118.50000       19.69893       35.81065       44.71415      -38.65252
119.00000       19.92030       40.74422       45.37620      -38.65252
119.50000       20.14077       45.66957       45.92850      -38.65252
120.00000       20.36213       51.57836       46.60066      -38.65252
120.50000       20.58349       56.03575       47.75402      -38.65252
121.00000       20.80396       58.58844       48.90738      -37.94330
121.50000       21.02533       61.14934       49.59886      -37.23408
122.00000       21.38264       63.42289       51.36559      -36.87947
122.50000       21.94479       65.50761       52.70944      -36.52486
123.00000       22.50693       67.59233       54.05329      -36.17025
123.50000       23.06907       69.67705       55.39714      -36.52486
124.00000       23.63121       71.76178       56.74099      -36.52486
124.50000       24.80515       73.84650       58.08484      -37.23408
125.00000       26.70241       75.93122       59.42869      -37.58869
125.50000       28.28420       78.01594       60.96559      -39.00713
126.00000       30.46885       80.10067       62.61574      -39.36174
126.50000       33.55776       82.26749       64.25694      -39.71635
127.00000       39.03543       84.45073       65.90708      -40.42557
127.50000       44.18154       87.08375       67.54828      -40.78018
128.00000       48.29843       89.26700       69.19843      -41.13479
128.50000       59.04831       91.45845       70.83963      -41.48940
129.00000       62.49896       93.64169       72.48977      -41.48940
129.50000       66.80557       95.83314       72.96821      -41.84401
130.00000       71.11218       98.01638       73.44665      -41.48940
130.50000       76.28369       97.36720       74.02078      -41.48940
131.00000       79.80320       96.70981       74.49921      -41.13479
131.50000       82.14206       96.06062       74.97765      -40.78018
132.00000       84.48091       95.43607       75.17882      -40.42557
132.50000       86.81977       94.84436       74.27983      -40.78018
133.00000       89.15863       94.25264       73.38084      -40.78018
133.50000       91.50643       93.66093       72.48185      -40.42557
134.00000       94.05101       93.07743       71.58287      -40.42557
134.50000       97.43635       92.48571       70.67493      -40.78018
135.00000      100.82169       91.89400       69.77595      -41.48940
135.50000      104.20704       91.11346       68.87696      -42.19862
136.00000      107.59238       90.28366       67.97797      -43.26245
136.50000      110.97773       89.44565       67.07898      -43.97167
137.00000      113.30764       88.61584       66.08161      -44.68088
137.50000      114.93989       83.36910       65.03057      -45.03549
138.00000      116.56321       78.12236       63.97953      -45.03549
138.50000      118.19546       72.87562       62.92849      -44.68088
139.00000      120.14701       67.63709       61.86850      -43.97167
139.50000      122.07443       50.74046       60.81746      -43.26245
140.00000      125.20039       35.71570       59.76642      -42.55323
140.50000      128.33529       38.44182       57.29767      -42.55323
141.00000      133.95672        5.68259       54.64844      -42.55323
141.50000      141.25968       27.93892       51.99921      -42.55323
142.00000      148.55369       23.75508       48.16680      -42.90784
142.50000      155.85665       21.62372       42.99232      -42.90784
143.00000      163.15066       19.73867       36.52333      -43.26245
143.50000      170.45362       17.93571       31.34885      -43.26245
144.00000      176.19132       16.37904       24.94695      -43.97167
144.50000      175.65905       15.64337       18.64432      -44.32628
145.00000      159.59049       14.90771       14.61740      -45.03549
145.50000      133.16440       14.41833       13.39068      -45.74471
146.00000      107.55224       14.01106       12.16396      -46.80854
146.50000       85.22266       13.76799       11.60806      -48.22698
147.00000       62.89307       13.36072       11.22031      -49.29081
147.50000       42.60826       12.95344       10.83167      -50.00003
148.00000       36.15295       12.71037       10.44393      -50.35464
148.50000       32.04169       12.38520       10.05529      -51.41847
149.00000       28.28819       11.81373       10.05841      -51.77308
149.50000       25.96579       11.57065       10.06153      -52.48230
150.00000       24.10460       11.24889       10.03622      -52.48230
150.50000       21.77804       10.84162       10.11641      -51.59014
151.00000       21.66916       10.68000       10.19570      -51.23678
151.50000       21.56028       10.60112       10.27589      -51.23678
152.00000       21.87640       10.60435       10.35607      -51.23678
152.50000       22.00201       10.44337       10.43626      -51.23678
153.00000       22.98271       10.36450       10.51555      -50.88342
153.50000       23.57633       10.53192       10.59574      -50.53007
154.00000       22.61891       10.37094       10.38202      -50.53007
154.50000       22.43028       10.12787       10.16831      -50.53007
155.00000       22.43341       10.04900        9.95460      -50.17671
155.50000       20.19645        9.97012        9.74089      -50.53007
156.00000       18.52668        9.72769        9.52717      -50.53007
156.50000       19.12746        9.64817        9.31346      -50.17671
157.00000       18.57057        9.65140        9.03882      -50.17671
