~Version ---------------------------------------------------
VERS. 2.0 : CWLS LOG ASCII STANDARD - VERSION 2.0
WRAP. NO  : One line per depth step
DLM . SPACE : Column Data Section Delimiter
~Well ------------------------------------------------------
STRT.F         98.5 : START DEPTH
STOP.F       1003.5 : STOP DEPTH
STEP.F          0.5 : STEP
NULL.       -999.25 : NULL VALUE
COMP.                       WALSH & WATTS : COMPANY
WELL.                          SALMON D 8 : WELL
FLD .                          OLD NOCOMA : FIELD
CNTY.                            MONTAGUE : COUNTY
STAT.                               TEXAS : STATE
CTRY.                                 USA : COUNTRY
SEC .                                     : SECTION
TWP .                                     : TOWNSHIP
RGE .                                     : RANGE
LOC .                          OLD NOCOMA : LOCATION
EKB .F                          : ELEVATION KELLY BUSHING
EDF .F                      855 : ELEVATION DERRICK FLOOR
EGL .F                          : ELEVATION GROUND LEVEL
PDAT.                        RT : PERMANENT DATUM
EPD .                           : ELEVATION PERMANENT DATUM
APD .                         4 : ABOVE PERMANENT DATUM
LMF .                           : LOG MEASURED FROM
DMF .                           : DRILLING MEASURED FROM
API .            42337016420000 : API NUMBER
UWI .            42337016420000 : UWI NUMBER
DIGC.                     NthDS : DIGITIZING COMPANY
~Params ----------------------------------------------------
SRVC.              SCHLUMBERGER : LOGGING COMPANY
LOG .                        EL : LOG
DATE.                1948-12-15 : RUN DATE
RUN .                         1 : RUN NUMBER
TDD .F                          : TOTAL DEPTH DRILLER
TDL .F                          : TOTAL DEPTH LOGGER
BOTL.F                     1005 : BOTTOM LOGGED INTERVAL
TOPL.F                     1004 : TOP LOGGED INTERVAL
CSGS.IN                         : CASING SIZE
CSGD.F                          : CASING DRILLER
CSGL.F                          : CASING LOGGER
BS  .IN                       9 : BIT SIZE
MUD .                   AQUAGEL : MUD TYPE
MUDD.                      10.2 : MUD DENSITY
MUDV.                        40 : MUD VISCOSITY
PH  .                           : MUD PH
FL  .                           : FLUID LOSS
MUDS.                           : SOURCE OF SAMPLE
RM  .OHMM                    .8 : MUD RESISTIVITY
RMT .DEGF                    65 : RM TEMPERATURE
RMF .OHMM                       : MUD FILTRATE RESISTIVITY
RMFT.DEGF                       : RMF TEMPERATURE
RMC .OHMM                       : MUD CAKE RESISTIVITY
RMCT.DEGF                       : RMC TEMPERATURE
RMFS.                           : RMF SOURCE
RMCS.                           : RMC SOURCE
RMBH.OHMM                       : MUD RESISTIVITY AT BHT
BHT .DEGF                       : BOTTOM HOLE TEMPERATURE
TIMC.                           : TIME CIRCULATION STOPPED
TIML.                           : TIME LOGGER ON BOTTOM
TMAX.DEGF                       : MAXIMUM RECORDED TEMPERATURE
UNIT.                       201 : EQUIPMENT NUMBER
BASE.                           : BASE LOCATION
ENG .                    LITTLE : RECORDED BY
WIT .                 MR. WATTS : WITNESSED BY
~Curve Information -----------------------------------------
DEPT.F          :DEPTH
ILD.OHMM        :
LAT.OHMM        :
SN.OHMM         :
SP.MV           :
~ASCII ------------------------------------------------------
# ...
443.50000        8.66071        7.51624        7.43393      -43.43134
444.00000        8.03571        7.74212        7.35625      -42.38406
444.50000        7.47768        8.00787        7.27857      -41.33320
445.00000        7.14286        8.27362        7.29196      -41.32727
445.50000        6.80803        8.53937        7.44018      -41.32133
446.00000        6.47321        8.80512        7.50000      -41.91301
446.50000        6.38393        8.74931        7.50000      -42.78023
447.00000        6.60714        8.61289        7.55178      -44.74964
447.50000        7.24464        8.46762        7.81071      -46.72262
448.00000        7.64553        8.28779        8.07053      -48.69202
448.50000        7.88661        8.10797        8.32946      -50.48489
449.00000        8.12857        7.92815        8.58839      -51.09446
449.50000        8.37053        7.74832        8.84821      -50.07223
450.00000        8.61250        7.56850        9.10714      -50.72729
450.50000        8.85294        7.23214        9.06506      -49.70194
451.00000        9.22460        7.23214        9.00624      -48.67660
451.50000        9.59625        7.23214        8.86542      -47.65125
452.00000        9.92781        7.23214        8.72460      -46.62949
452.50000       10.10249        7.32143        8.58467      -45.60414
453.00000       10.27629        7.43303        8.66043      -46.43603
453.50000       10.45098        7.43750        8.78966      -47.73670
454.00000       10.62567        7.28303        8.91978      -49.03379
454.50000       10.71034        7.12768        9.04991      -50.33088
455.00000       10.73440        6.97232        9.18003      -51.63155
455.50000       10.75936        6.81696        9.18003      -52.50280
456.00000       10.78431        6.63303        9.08467      -52.74781
456.50000       11.00713        6.44107        8.92513      -52.48468
457.00000       11.22994        6.25000        8.76649      -52.22155
457.50000       10.59358        6.05893        8.44296      -51.95485
458.00000       10.09982        5.86696        8.07843      -52.14976
458.50000        9.70053        5.67589        7.96346      -54.18760
459.00000        9.30214        5.48482        8.01604      -56.27196
459.50000        8.90285        5.29375        8.06863      -58.37420
460.00000        8.39572        5.17857        8.11052      -60.47287
460.50000        7.57576        5.17857        8.11052      -62.57154
461.00000        6.68449        5.17857        7.85918      -64.67379
461.50000        6.06060        5.20000        7.54456      -66.85119
462.00000        5.61497        5.25357        7.22994      -69.34707
462.50000        5.15686        5.30714        6.97326      -71.56741
463.00000        4.64706        5.36071        6.80303      -72.67484
463.50000        4.46791        5.41428        6.63369      -73.11309
464.00000        4.37077        5.42500        6.46346      -72.65673
464.50000        4.27451        5.37321        6.31016      -71.90334
465.00000        4.17736        5.32053        6.22103      -71.37541
465.50000        4.13815        5.26786        6.13191      -71.76356
466.00000        4.32888        4.94196        6.06060      -71.63642
466.50000        4.51961        4.61518        6.06060      -70.73274
467.00000        4.87255        4.28928        6.06060      -70.11534
467.50000        5.58556        3.96250        6.06060      -69.92736
468.00000        6.77362        3.63661        5.91978      -69.04158
468.50000        7.28253        3.52678        5.77896      -67.10372
469.00000        7.15240        3.47143        5.63814      -64.78115
469.50000        6.59536        3.41518        5.55526      -66.16413
470.00000        6.05347        3.44018        5.70410      -67.26979
470.50000        5.57041        3.51875        5.77362      -69.28973
471.00000        5.08734        3.59732        5.72371      -71.30610
471.50000        4.90196        3.67678        5.85294      -73.32604
472.00000        4.79055        3.75536        6.09982      -72.29354
472.50000        4.83066        3.83393        5.95187      -72.08051
473.00000        5.09804        3.91250        5.70410      -72.41141
473.50000        5.21925        3.84375        5.83155      -72.74589
474.00000        5.11943        3.73750        5.95900      -73.07679
474.50000        4.99554        3.63125        6.08645      -73.57230
475.00000        4.85472        3.52500        6.21301      -74.31830
475.50000        4.71390        3.51071        6.18449      -75.06072
476.00000        4.57397        3.54643        6.11765      -75.80673
476.50000        4.43315        3.58214        6.04991      -76.27719
477.00000        4.29233        3.61786        5.98217      -76.56515
477.50000        4.15151        3.65357        5.91444      -76.55428
478.00000        4.01069        3.66071        5.84759      -75.95119
478.50000        3.96346        3.66071        5.79590      -75.34453
479.00000        3.91711        3.66071        5.80927      -74.73787
479.50000        3.86987        3.60714        5.82264      -74.43180
480.00000        3.85918        3.55357        5.83601      -74.15436
480.50000        3.99287        3.50000        5.85027      -73.69799
481.00000        4.09982        3.44643        5.86364      -73.24162
481.50000        4.09982        3.39286        5.87700      -72.78526
482.00000        4.06863        3.43036        5.97148      -73.86406
482.50000        4.03030        3.46696        6.12032      -74.94644
483.00000        3.99109        3.50446        6.26827      -76.02524
483.50000        3.95276        3.54196        6.28342      -77.10404
484.00000        3.91355        3.57857        6.20945      -77.57093
484.50000        3.87522        3.61607        6.13458      -77.11456
485.00000        3.83601        3.65357        6.06060      -76.65819
485.50000        3.79768        3.63482        6.12388      -75.72589
486.00000        3.75847        3.60357        6.18806      -74.79716
486.50000        3.89216        3.57143        6.25134      -73.86486
487.00000        4.13904        3.53928        6.31551      -72.93613
487.50000        3.99109        3.50803        6.30392      -72.00383
488.00000        3.74331        3.48928        6.27451      -71.07510
488.50000        3.96613        3.52321        6.24510      -70.60800
489.00000        4.11497        3.55803        6.33601      -70.83512
489.50000        4.15151        3.59196        6.45722      -71.06582
490.00000        4.18895        3.62678        6.48217      -71.08897
490.50000        4.18895        3.66071        6.44118      -70.80437
491.00000        4.08645        3.75803        6.36185      -70.51978
491.50000        3.91444        3.85625        6.22192      -70.86141
492.00000        3.74331        3.95357        6.08289      -71.35334
492.50000        3.66221        4.05178        5.98217      -71.84885
493.00000        3.58110        4.14911        6.03476      -72.34078
493.50000        3.50000        4.24643        6.08645      -72.83629
494.00000        3.41889        4.26071        6.13904      -73.33180
494.50000        3.41087        4.21964        6.19162      -73.38358
495.00000        3.45187        4.17768        6.24421      -72.78050
495.50000        3.60339        4.13661        6.29679      -71.99491
496.00000        3.92157        4.09464        6.40196      -71.09123
496.50000        4.01693        4.05357        6.58823      -70.18756
497.00000        4.11230        4.01161        6.77362      -69.94948
497.50000        4.20945        3.97053        7.14082      -70.70622
498.00000        4.31194        3.92857        7.50802      -72.07487
498.50000        4.41533        4.05000        7.87433      -73.43996
499.00000        4.25579        4.17232        8.14260      -74.46150
499.50000        4.27807        4.32411        8.34581      -74.96417
500.00000        4.35561        4.48303        8.48039      -76.11917
500.50000        4.12254        4.64763        8.37388      -75.80656
