~Version ---------------------------------------------------
VERS. 2.0 : CWLS LOG ASCII STANDARD - VERSION 2.0
WRAP. NO  : One line per depth step
DLM . SPACE : Column Data Section Delimiter
~Well ------------------------------------------------------
STRT.F          642 : START DEPTH
STOP.F       1779.0 : STOP DEPTH
STEP.F          0.5 : STEP
NULL.       -999.25 : NULL VALUE
COMP.                       WALSH & WATTS : COMPANY
WELL.                        SALMON E 24  : WELL
FLD .                               NORTH : FIELD
CNTY.                            MONTAGUE : COUNTY
STAT.                               TEXAS : STATE
CTRY.                                 USA : COUNTRY
SEC .                                     : SECTION
TWP .                                     : TOWNSHIP
RGE .                                     : RANGE
LOC .                 SW CORNER OF LEAGUE : LOCATION
EKB .F                          : ELEVATION KELLY BUSHING
EDF .F                          : ELEVATION DERRICK FLOOR
EGL .F                      850 : ELEVATION GROUND LEVEL
PDAT.                        GL : PERMANENT DATUM
EPD .                       850 : ELEVATION PERMANENT DATUM
APD .                         5 : ABOVE PERMANENT DATUM
LMF .                        RT : LOG MEASURED FROM
DMF .                        RT : DRILLING MEASURED FROM
API .            42337038630000 : API NUMBER
UWI .                           : UWI NUMBER
DIGC.                     NthDS : DIGITIZING COMPANY
~Params ----------------------------------------------------
SRVC.              SCHLUMBERGER : LOGGING COMPANY
LOG .                       GRN : LOG
DATE.                1964-03-24 : RUN DATE
RUN .                         1 : RUN NUMBER
TDD .F                     1783 : TOTAL DEPTH DRILLER
TDL .F                     1782 : TOTAL DEPTH LOGGER
BOTL.F                     1780 : BOTTOM LOGGED INTERVAL
TOPL.F                      650 : TOP LOGGED INTERVAL
CSGS.IN                     4.5 : CASING SIZE
CSGD.F                     1802 : CASING DRILLER
CSGL.F                          : CASING LOGGER
BS  .IN                       9 : BIT SIZE
MUD .                     WATER : MUD TYPE
MUDD.                           : MUD DENSITY
MUDV.                           : MUD VISCOSITY
PH  .                           : MUD PH
FL  .                           : FLUID LOSS
MUDS.                           : SOURCE OF SAMPLE
RM  .OHMM                       : MUD RESISTIVITY
RMT .DEGF                       : RM TEMPERATURE
RMF .OHMM                       : MUD FILTRATE RESISTIVITY
RMFT.DEGF                       : RMF TEMPERATURE
RMC .OHMM                       : MUD CAKE RESISTIVITY
RMCT.DEGF                       : RMC TEMPERATURE
RMFS.                           : RMF SOURCE
RMCS.                           : RMC SOURCE
RMBH.OHMM                       : MUD RESISTIVITY AT BHT
BHT .DEGF                       : BOTTOM HOLE TEMPERATURE
TIMC.                           : TIME CIRCULATION STOPPED
TIML.                           : TIME LOGGER ON BOTTOM
TMAX.DEGF                   107 : MAXIMUM RECORDED TEMPERATURE
UNIT.                           : EQUIPMENT NUMBER
BASE.                           : BASE LOCATION
ENG .                    MCCUNE : RECORDED BY
WIT .                       NIX : WITNESSED BY
~Curve Information -----------------------------------------
DEPT.F          :DEPTH
GRN.GAPI        :
NEUT.API        :
~ASCII ------------------------------------------------------
# ...
742.00000       83.17433      438.54742
742.50000       81.57113      429.21875
743.00000       81.73145      419.89008
743.50000       82.85369      413.22675
744.00000       82.21241      406.56341
744.50000       79.64728      401.23274
745.00000       75.79958      398.56741
745.50000       73.87574      399.90008
746.00000       70.82965      401.23274
746.50000       68.42484      406.56341
747.00000       67.30259      414.55941
747.50000       67.62323      422.55542
748.00000       68.74548      425.22075
748.50000       69.86772      434.54942
749.00000       70.02804      450.54143
749.50000       69.22644      462.53543
750.00000       68.74548      473.52994
750.50000       68.26452      494.51944
751.00000       68.58516      514.50945
751.50000       66.66131      522.50545
752.00000       63.45490      525.17079
752.50000       61.53105      517.17479
753.00000       58.96592      498.51745
753.50000       58.00400      475.86210
754.00000       58.80560      455.87210
754.50000       60.40881      433.21675
755.00000       63.29458      409.82845
755.50000       70.18836      392.26389
756.00000       73.71542      394.56941
756.50000       76.60119      382.57540
757.00000       78.04407      393.99636
757.50000       76.60119      405.41732
758.00000       73.71542      413.55991
758.50000       71.47093      408.56241
759.00000       70.18836      403.56491
759.50000       69.86772      402.56541
760.00000       69.54708      411.89408
760.50000       69.22644      423.88808
761.00000       68.74548      419.89008
761.50000       66.98195      423.88808
762.00000       64.89778      429.21875
762.50000       63.45490      430.55142
763.00000       63.61522      430.55142
763.50000       66.02003      426.55342
764.00000       69.70740      423.88808
764.50000       73.23445      423.88808
765.00000       73.39478      419.89008
765.50000       71.31061      423.88808
766.00000       68.58516      429.21875
766.50000       66.98195      438.54742
767.00000       65.53907      446.54343
767.50000       63.93586      444.03801
768.00000       62.81362      445.54393
768.50000       61.85169      431.88409
769.00000       60.56913      414.55941
769.50000       60.56913      402.56541
770.00000       62.49297      389.67852
770.50000       65.85971      380.80295
771.00000       70.02804      377.91107
771.50000       72.59317      381.24273
772.00000       72.75349      373.47329
772.50000       70.50900      382.57540
773.00000       67.30259      389.23874
773.50000       64.73746      394.23624
774.00000       63.77554      401.23274
774.50000       63.29458      407.45630
775.00000       63.13426      398.56741
775.50000       65.37875      411.32103
776.00000       69.22644      408.46913
776.50000       71.63125      401.23274
777.00000       71.79157      395.90207
777.50000       71.15029      402.56541
778.00000       70.66933      398.39416
778.50000       70.50900      399.46030
779.00000       70.50900      407.89608
779.50000       69.70740      407.89608
780.00000       68.74548      413.22675
780.50000       67.46291      415.89208
781.00000       67.78355      409.22875
781.50000       68.10420      403.89808
782.00000       68.58516      401.23274
782.50000       70.18836      394.56941
783.00000       71.95189      389.23874
783.50000       73.55510      374.57940
784.00000       75.63926      363.91806
784.50000       77.24247      355.92206
785.00000       78.84568      347.92606
785.50000       78.04407      351.92406
786.00000       75.15830      357.25473
786.50000       72.75349      365.25073
787.00000       70.18836      379.91007
787.50000       68.74548      402.56541
788.00000       68.90580      433.21675
788.50000       67.62323      462.53543
789.00000       65.37875      487.85611
789.50000       63.93586      498.22426
790.00000       60.40881      503.66154
790.50000       55.75951      486.52344
791.00000       52.23246      445.21076
791.50000       53.35470      415.89208
792.00000       56.08015      405.23074
792.50000       59.28656      411.89408
793.00000       61.53105      417.22475
793.50000       62.60680      431.88409
794.00000       63.34748      455.87210
794.50000       62.01201      471.86410
795.00000       59.92784      486.68336
795.50000       55.11823      500.84961
796.00000       48.06412      495.51894
796.50000       45.65931      495.05251
797.00000       45.97995      492.65371
797.50000       46.94188      488.65571
798.00000       49.66733      478.52744
798.50000       52.87374      466.53343
799.00000       55.11823      458.53743
799.50000       57.68336      450.54143
800.00000       62.01201      443.87809
800.50000       64.73746      439.88009
801.00000       67.46291      434.54942
801.50000       70.02804      430.55142
802.00000       71.47093      433.21675
802.50000       72.11221      441.21276
803.00000       72.11221      443.87809
803.50000       71.31061      441.21276
804.00000       69.70740      431.88409
804.50000       67.94387      421.22275
805.00000       66.82163      410.56141
805.50000       67.78355      402.56541
806.00000       69.22644      391.90407
806.50000       69.54708      383.90807
807.00000       70.82965      375.91207
807.50000       71.31061      379.91007
808.00000       69.06612      385.24074
808.50000       67.14227      391.90407
809.00000       67.94387      394.56941
809.50000       69.86772      401.23274
810.00000       70.50900      414.55941
810.50000       69.70740      429.21875
811.00000       68.58516      442.54542
811.50000       66.34067      455.87210
812.00000       64.09618      470.53144
812.50000       64.89778      486.52344
813.00000       65.69939      501.18278
813.50000       63.29458      515.84212
814.00000       57.04207      525.17079
814.50000       47.10220      530.50146
815.00000       39.56713      525.17079
815.50000       37.32264      521.17279
816.00000       37.96392      513.17678
816.50000       38.60520      501.18278
817.00000       38.92585      491.85411
817.50000       38.60520      473.19677
818.00000       40.04809      450.54143
818.50000       44.37675      430.55142
819.00000       50.62925      410.56141
819.50000       56.72143      397.23474
820.00000       62.33265      387.90607
820.50000       65.37875      385.24074
821.00000       65.05810      383.90807
821.50000       63.45490      381.24273
822.00000       63.77554      373.24673
822.50000       65.37875      374.57940
823.00000       68.10420      379.91007
823.50000       71.63125      385.24074
824.00000       75.47894      395.90207
824.50000       77.24247      409.22875
825.00000       76.60119      419.89008
825.50000       74.03606      425.22075
826.00000       70.82965      427.88609
826.50000       67.78355      426.55342
827.00000       65.85971      417.22475
827.50000       65.37875      418.55742
828.00000       65.37875      422.55542
828.50000       65.53907      434.54942
829.00000       66.02003      449.20876
829.50000       66.34067      458.53743
830.00000       66.66131      471.86410
830.50000       67.78355      490.52144
831.00000       68.42484      502.36885
831.50000       66.34067      512.04402
832.00000       62.65330      513.07017
832.50000       58.96592      514.09633
833.00000       56.24047      511.24442
833.50000       55.91983      504.70102
834.00000       57.04207      500.51645
834.50000       58.48496      497.18478
835.00000       59.76752      493.85311
835.50000       59.92784      485.19077
836.00000       58.16432      467.86610
836.50000       58.48496      449.20876
837.00000       62.49297      437.21476
837.50000       68.10420      422.55542
838.00000       72.59317      410.56141
838.50000       75.63926      399.90008
839.00000       72.91381      393.23674
839.50000       67.94387      382.57540
840.00000       65.21842      377.24473
840.50000       66.02003      366.58340
841.00000       67.78355      351.92406
841.50000       69.22644      355.92206
