~Version ---------------------------------------------------
VERS. 2.0 : CWLS LOG ASCII STANDARD - VERSION 2.0
WRAP. NO  : One line per depth step
DLM . SPACE : Column Data Section Delimiter
~Well ------------------------------------------------------
STRT.F        490.5 : START DEPTH
STOP.F       1005.0 : STOP DEPTH
STEP.F          0.5 : STEP
NULL.       -999.25 : NULL VALUE
COMP.                       WALSH & WATTS : COMPANY
WELL.                           HYNDS B 6 : WELL
FLD .                           N. NOCONA : FIELD
CNTY.                            MONTAGUE : COUNTY
STAT.                               TEXAS : STATE
CTRY.                                 USA : COUNTRY
SEC .                                     : SECTION
TWP .                                     : TOWNSHIP
RGE .                                     : RANGE
LOC . 550' FR W/L OF LEASE, 150' FR S/L OF LEASE, 400' FR NO 4 WELL, 300' FR NO 3 WELL : LOCATION
EKB .F                          : ELEVATION KELLY BUSHING
EDF .F                          : ELEVATION DERRICK FLOOR
EGL .F                          : ELEVATION GROUND LEVEL
PDAT.                        GL : PERMANENT DATUM
EPD .                           : ELEVATION PERMANENT DATUM
APD .                         6 : ABOVE PERMANENT DATUM
LMF .                        KB : LOG MEASURED FROM
DMF .                        KB : DRILLING MEASURED FROM
API .            42337038650000 : API NUMBER
UWI .                           : UWI NUMBER
DIGC.                     NthDS : DIGITIZING COMPANY
~Params ----------------------------------------------------
SRVC.              SCHLUMBERGER : LOGGING COMPANY
LOG .                        ML : LOG
DATE.                1957-10-13 : RUN DATE
RUN .                         1 : RUN NUMBER
TDD .F                     1015 : TOTAL DEPTH DRILLER
TDL .F                     1008 : TOTAL DEPTH LOGGER
BOTL.F                     1005 : BOTTOM LOGGED INTERVAL
TOPL.F                      500 : TOP LOGGED INTERVAL
CSGS.IN                         : CASING SIZE
CSGD.F                          : CASING DRILLER
CSGL.F                          : CASING LOGGER
BS  .IN                         : BIT SIZE
MUD .                       GEL : MUD TYPE
MUDD.                        10 : MUD DENSITY
MUDV.                        53 : MUD VISCOSITY
PH  .                           : MUD PH
FL  .                           : FLUID LOSS
MUDS.                   MUD PIT : SOURCE OF SAMPLE
RM  .OHMM                   1.7 : MUD RESISTIVITY
RMT .DEGF                    68 : RM TEMPERATURE
RMF .OHMM                   1.1 : MUD FILTRATE RESISTIVITY
RMFT.DEGF                    90 : RMF TEMPERATURE
RMC .OHMM                   1.5 : MUD CAKE RESISTIVITY
RMCT.DEGF                    90 : RMC TEMPERATURE
RMFS.                           : RMF SOURCE
RMCS.                           : RMC SOURCE
RMBH.OHMM                   1.3 : MUD RESISTIVITY AT BHT
BHT .DEGF                    90 : BOTTOM HOLE TEMPERATURE
TIMC.                           : TIME CIRCULATION STOPPED
TIML.                           : TIME LOGGER ON BOTTOM
TMAX.DEGF                    90 : MAXIMUM RECORDED TEMPERATURE
UNIT.                       785 : EQUIPMENT NUMBER
BASE.                        WF : BASE LOCATION
ENG .                     JONES : RECORDED BY
WIT .                       NIX : WITNESSED BY
~Curve Information -----------------------------------------
DEPT.F          :DEPTH
CALM.IN         :
MINV.OHMM       :
MNOR.OHMM       :
SP.MV           :
~ASCII ------------------------------------------------------
# ...
778.00000        7.88073        4.49789        5.32554      -93.31486
778.50000        7.80372        3.86879        5.62317      -97.02429
779.00000        7.79996        3.36131        5.31253     -100.53121
779.50000        7.79639        3.29586        5.02168     -102.21565
780.00000        7.79263        3.24107        4.75242     -103.76508
780.50000        7.78888        3.57168        4.99307     -105.11201
781.00000        7.76514        3.33229        4.81521     -107.32294
781.50000        7.71134        3.06303        4.57438     -109.53387
782.00000        7.65755        2.82976        4.37458     -111.74480
782.50000        7.62769        2.77641        4.30396     -113.95574
783.00000        7.63348        2.77704        4.43557     -116.16667
783.50000        7.63926        2.77766        4.49305     -119.63579
784.00000        7.63191        2.77829        4.39760     -121.56052
784.50000        7.57217        2.87500        4.39823     -121.67896
785.00000        7.64437        5.65233        6.13020     -121.80010
785.50000        8.02060        8.03406        8.07004     -122.90133
786.00000        8.15076        8.13220        9.33013     -124.24826
786.50000        8.20299        8.98135       10.32394     -125.27120
787.00000        8.20319        8.26732       10.62683     -126.21313
787.50000        8.20339        7.77280        9.97974     -126.59077
788.00000        7.97860        6.27395        6.66978     -126.82531
788.50000        7.89060        4.96114        6.01081     -127.05984
789.00000        7.73601        4.37702        6.02332     -127.24578
789.50000        7.73621        4.62054        6.00379     -127.35341
790.00000        7.73642        4.83708        5.68488     -127.46375
790.50000        7.73662        4.69377        6.09729     -126.68849
791.00000        7.73682        4.94641        6.54161     -125.85383
791.50000        7.73703        4.96503        6.47639     -124.97597
792.00000        7.73723        4.96206        6.53099     -124.10081
792.50000        7.75256        5.98681        6.74753     -123.21755
793.00000        7.77166        7.71075        8.06771     -123.75448
793.50000        7.79095        8.60811        9.01582     -125.25262
794.00000        7.81005        8.60262        9.46985     -127.52835
794.50000        7.94525        8.28299        9.24498     -130.13618
795.00000        8.22446        8.04624        7.76556     -130.35721
795.50000        8.11666        5.46485        5.49184     -128.24006
796.00000        7.95937        4.46942        5.32442     -126.34700
796.50000        7.97091        4.70143        6.12655     -124.45394
797.00000        8.13333        7.07717        8.55254     -124.64258
797.50000        8.26098        7.90544        9.70468     -124.09412
798.00000        8.25848        7.99963       10.06515     -122.84574
798.50000        8.25617        8.47058        9.99381     -121.66008
799.00000        8.25367        8.63602       10.21034     -119.90203
799.50000        8.25118        8.19583       10.29482     -118.08997
800.00000        8.31049        7.52091        7.63930     -115.13861
800.50000        8.30801        5.02061        4.71474     -113.12265
801.00000        8.30661        8.27785        7.77406     -112.36007
801.50000        8.30681        8.45840       10.72555     -113.47352
802.00000        8.30701        8.81887       10.96008     -114.58966
802.50000        8.30721        8.40568       10.90673     -114.50878
803.00000        8.30742        8.12454       10.14125     -114.42522
803.50000        8.30762        8.82088        9.55101     -114.34434
804.00000        8.30782        8.92946        9.64916     -114.51038
804.50000        8.30803        8.81314        9.62279     -114.84282
805.00000        8.27763        8.22902        8.80837     -115.45707
805.50000        8.20108        8.68557        9.47112     -117.19855
806.00000        8.36235        8.89599       10.15545     -118.51330
806.50000        8.33268        8.93260        9.95565     -118.05070
807.00000        8.30318        8.86126        9.72489     -116.70571
807.50000        8.29139        8.35811        9.17136     -114.82394
808.00000        8.29160        8.23279        8.29396     -111.08224
808.50000        8.29180        5.52557        6.68967     -105.08339
809.00000        8.30005        1.39072        1.30688      -99.08722
809.50000        8.34105        3.46658        2.92681      -97.09810
810.00000        8.38187        9.22991       10.22057     -101.72476
810.50000        8.37742        8.56878        9.66452     -104.26067
811.00000        8.37279        7.62482        8.50032     -106.02363
811.50000        8.36834        7.81976        7.57147     -107.55308
812.00000        8.35048        8.77398        8.26624     -104.41794
812.50000        8.29342        7.17689        6.34925      -99.09213
813.00000        8.29363        5.88207        4.12782      -94.48085
813.50000        8.29387        6.72834        4.83915      -91.05317
814.00000        8.29461        6.13522        4.30001      -91.81771
814.50000        8.29732        5.68604        3.76087      -91.43087
815.00000        8.30002        5.30883        4.48119      -91.42783
815.50000        8.30273        8.00831        6.78483      -97.46353
816.00000        8.30544        8.62067        7.82901     -104.90828
816.50000        8.30815        9.01713        7.99373     -108.14737
817.00000        8.31086        7.39845        7.59421     -109.33061
817.50000        8.31356        8.80248        8.20442     -109.66305
818.00000        8.31627        9.59490        9.48682     -107.93426
818.50000        8.31916        8.53817        7.33736     -107.12605
819.00000        8.32187        7.79680        6.81801     -107.05323
819.50000        8.32458        8.03132        6.77798     -107.46350
820.00000        8.32728        7.87902        6.74730     -107.95368
820.50000        8.33057        9.20940        9.14211     -107.43801
821.00000        8.33668        9.25681        8.96893     -106.68885
821.50000        8.35674        8.91559        8.26786     -106.98372
822.00000        8.36893       10.42757        9.40812     -107.36715
822.50000        8.36913       10.30837       10.17630     -108.09412
823.00000        8.36934       10.68072       10.61774     -108.82378
823.50000        8.36954        9.44887        9.42188     -108.75632
824.00000        8.36974        9.61683        9.74637     -108.68886
824.50000        8.36995        8.86898        8.63759     -108.62409
825.00000        8.37015        9.28703        9.08191     -108.55663
825.50000        8.37035        7.89757        7.73312     -108.65826
826.00000        8.37055        8.72080        8.63336     -108.80551
826.50000        8.37076        8.56202        8.52604     -108.95276
827.00000        8.37096        9.15388        8.91638     -109.12149
827.50000        8.37120        8.90513        8.82704     -109.43990
828.00000        8.35351        9.58695        9.29907     -109.70525
828.50000        8.32312        9.76390        9.81500     -109.97059
829.00000        8.34873        8.62525        8.69111     -110.23593
829.50000        8.33033        9.24950        9.42942     -109.97524
830.00000        8.31854       10.58659       11.00150     -108.93084
830.50000        8.31874       10.07336       11.77867     -107.01418
831.00000        8.31895       10.54683       11.28451     -104.21184
831.50000        8.21949       10.14695        9.98969     -100.51040
832.00000        8.11538        9.00074        8.49696      -98.12138
832.50000        8.19073       10.08091       10.66291      -93.13167
833.00000        8.07821        8.37227        8.67202      -82.45955
833.50000        8.36774        3.60493        4.36061      -73.28566
834.00000        8.69144        1.77035        1.80633      -62.59269
834.50000        8.65804        2.82820        2.30175      -56.88638
835.00000        8.53532        3.59242        2.54167      -56.33582
