~Version ---------------------------------------------------
VERS. 2.0 : CWLS LOG ASCII STANDARD - VERSION 2.0
WRAP. NO  : One line per depth step
DLM . SPACE : Column Data Section Delimiter
~Well ------------------------------------------------------
STRT.F          100 : START DEPTH
STOP.F       1786.5 : STOP DEPTH
STEP.F          0.5 : STEP
NULL.       -999.25 : NULL VALUE
COMP.                 WALSH & WATTS, INC. : COMPANY
WELL.                         SALMON E 41 : WELL
FLD .                        NORTH NOCONA : FIELD
CNTY.                            MONTAGUE : COUNTY
STAT.                               TEXAS : STATE
CTRY.                                 USA : COUNTRY
SEC .                                     : SECTION
TWP .                                     : TOWNSHIP
RGE .                                     : RANGE
LOC . 300' N OF NO. 40
150' W OF EL & 385' E OF NO. 87
F. ROBERTSON SURVEY : LOCATION
EKB .F                          : ELEVATION KELLY BUSHING
EDF .F                          : ELEVATION DERRICK FLOOR
EGL .F                      878 : ELEVATION GROUND LEVEL
PDAT.              GROUND LEVEL : PERMANENT DATUM
EPD .                       878 : ELEVATION PERMANENT DATUM
APD .                           : ABOVE PERMANENT DATUM
LMF .                        KB : LOG MEASURED FROM
DMF .                        KB : DRILLING MEASURED FROM
API .            42337037790000 : API NUMBER
UWI .            42337037790000 : UWI NUMBER
DIGC.                     NthDS : DIGITIZING COMPANY
~Params ----------------------------------------------------
SRVC.                LANE WELLS : LOGGING COMPANY
LOG .                       IEL : LOG
DATE.                1965-12-01 : RUN DATE
RUN .                         1 : RUN NUMBER
TDD .F                     1790 : TOTAL DEPTH DRILLER
TDL .F                     1791 : TOTAL DEPTH LOGGER
BOTL.F                     1787 : BOTTOM LOGGED INTERVAL
TOPL.F                      100 : TOP LOGGED INTERVAL
CSGS.IN                         : CASING SIZE
CSGD.F                          : CASING DRILLER
CSGL.F                          : CASING LOGGER
BS  .IN                       9 : BIT SIZE
MUD .                       GEL : MUD TYPE
MUDD.                        10 : MUD DENSITY
MUDV.                        80 : MUD VISCOSITY
PH  .                       9.0 : MUD PH
FL  .                       6.8 : FLUID LOSS
MUDS.                       PIT : SOURCE OF SAMPLE
RM  .OHMM                  1.95 : MUD RESISTIVITY
RMT .DEGF                    74 : RM TEMPERATURE
RMF .OHMM                   1.5 : MUD FILTRATE RESISTIVITY
RMFT.DEGF                    74 : RMF TEMPERATURE
RMC .OHMM                   2.3 : MUD CAKE RESISTIVITY
RMCT.DEGF                    74 : RMC TEMPERATURE
RMFS.                  MEASURED : RMF SOURCE
RMCS.                           : RMC SOURCE
RMBH.OHMM                   1.5 : MUD RESISTIVITY AT BHT
BHT .DEGF                    97 : BOTTOM HOLE TEMPERATURE
TIMC.                           : TIME CIRCULATION STOPPED
TIML.                           : TIME LOGGER ON BOTTOM
TMAX.DEGF                    97 : MAXIMUM RECORDED TEMPERATURE
UNIT.                    L-5172 : EQUIPMENT NUMBER
BASE.                      W.F. : BASE LOCATION
ENG .             ADAMS & BAKER : RECORDED BY
WIT .                   MR. NIX : WITNESSED BY
~Curve Information -----------------------------------------
DEPT.F          :DEPTH
CILD.MMHO       :
ILD.OHMM        :
ROP.FT/HR       :
SN.OHMM         :
SP.MV           :
~ASCII ------------------------------------------------------
# ...
527.50000      206.08050        4.98672        -999.25        5.56434      -49.36729
528.00000      203.06895        5.10694        -999.25        5.72488      -48.75666
528.50000      199.05749        5.18748        -999.25        5.84559      -48.74721
529.00000      197.03996        5.26802        -999.25        6.00613      -47.83599
529.50000      194.02841        5.34856        -999.25        6.12683      -47.52595
530.00000      194.99293        5.38942        -999.25        6.28737      -46.61472
530.50000      194.96344        5.35092        -999.25        6.36823      -46.60527
531.00000      197.91600        5.27273        -999.25        6.36942      -46.89643
531.50000      199.87454        5.23423        -999.25        6.37060      -47.18758
532.00000      201.83309        5.15604        -999.25        6.29234      -47.47873
532.50000      201.80359        5.15722        -999.25        6.25368      -47.76988
533.00000      200.77418        5.15863        -999.25        6.21502      -48.66033
533.50000      199.75067        5.19949        -999.25        6.29588      -48.65089
534.00000      197.73314        5.20067        -999.25        6.33691      -48.64145
534.50000      196.70963        5.24153        -999.25        6.41777      -48.63200
535.00000      194.69210        5.36175        -999.25        6.49863      -48.32196
535.50000      193.66859        5.36293        -999.25        6.61933      -47.71133
536.00000      192.64508        5.44347        -999.25        6.66035      -47.70189
536.50000      192.61558        5.44465        -999.25        6.70138      -47.69244
537.00000      193.58011        5.40614        -999.25        6.70256      -47.98359
537.50000      194.53873        5.36764        -999.25        6.74358      -48.27475
538.00000      194.50924        5.32913        -999.25        6.74500      -48.26530
538.50000      194.47975        5.33031        -999.25        6.70634      -48.25397
539.00000      194.45025        5.33172        -999.25        6.70752      -47.94393
539.50000      194.42076        5.37258        -999.25        6.62902      -47.63389
540.00000      194.39127        5.41344        -999.25        6.51069      -47.32385
540.50000      195.35579        5.37494        -999.25        6.43219      -47.31441
541.00000      198.30835        5.33643        -999.25        6.39353      -47.30497
541.50000      201.26091        5.25825        -999.25        6.27519      -46.69433
542.00000      205.20749        5.14038        -999.25        6.07718      -46.38429
542.50000      208.15416        5.02251        -999.25        5.99868      -45.77366
543.00000      213.09475        4.94432        -999.25        5.88034      -45.76422
543.50000      217.04133        4.86614        -999.25        5.72216      -46.05537
544.00000      220.98791        4.74827        -999.25        5.56399      -46.94582
544.50000      223.94047        4.67008        -999.25        5.48549      -47.83816
545.00000      225.89901        4.63158        -999.25        5.44707      -48.42991
545.50000      226.86354        4.59307        -999.25        5.40841      -49.02166
546.00000      225.84003        4.55480        -999.25        5.36975      -49.31281
546.50000      224.81652        4.63535        -999.25        5.45061      -49.30336
547.00000      223.79300        4.63652        -999.25        5.49163      -49.59452
547.50000      223.75761        4.63770        -999.25        5.49282      -49.58507
548.00000      222.73410        4.63888        -999.25        5.53384      -49.57563
548.50000      221.71059        4.67974        -999.25        5.49518      -49.56619
549.00000      220.68708        4.68091        -999.25        5.53620      -49.55674
549.50000      218.66955        4.68209        -999.25        5.53738      -48.94422
550.00000      217.46207        4.70135        -999.25        5.57783      -47.69639
550.50000      216.43957        4.70253        -999.25        5.57901      -47.38697
551.00000      215.41708        4.74355        -999.25        5.62027      -47.07755
551.50000      212.40262        4.78481        -999.25        5.66129      -46.46814
552.00000      211.38013        4.86567        -999.25        5.70231      -46.15872
552.50000      211.35067        4.86685        -999.25        5.70349      -46.14930
553.00000      212.31423        4.86804        -999.25        5.74451      -46.13987
553.50000      213.27780        4.82938        -999.25        5.74570      -46.43044
554.00000      214.24137        4.83056        -999.25        5.70704      -46.72101
554.50000      215.20493        4.79190        -999.25        5.62854      -47.00969
555.00000      214.18244        4.79308        -999.25        5.62972      -47.90025
555.50000      214.15297        4.79427        -999.25        5.59107      -48.19082
556.00000      211.14442        4.83529        -999.25        5.59248      -48.48139
556.50000      207.13694        4.91639        -999.25        5.63351      -48.77196
557.00000      203.13535        4.99725        -999.25        5.71437      -48.76253
557.50000      196.15467        5.07811        -999.25        5.83507      -48.75311
558.00000      192.15308        5.31833        -999.25        5.95577      -48.44369
558.50000      187.15846        5.39919        -999.25        6.15615      -47.83428
559.00000      182.16384        5.63942        -999.25        6.39638      -46.92487
559.50000      178.16225        5.76012        -999.25        6.67644      -46.91356
560.00000      175.15369        5.88082        -999.25        6.99657      -46.60414
560.50000      171.14621        6.04136        -999.25        7.27664      -46.29472
561.00000      166.15159        6.12246        -999.25        7.55670      -46.28530
561.50000      162.15000        6.32284        -999.25        7.87660      -45.97588
562.00000      160.13448        6.52322        -999.25        8.23634      -46.26645
562.50000      157.12592        6.60409        -999.25        8.67576      -45.95703
563.00000      153.12433        6.76463        -999.25        9.07534      -45.94761
563.50000      149.12274        6.84549        -999.25        9.55484      -46.23818
564.00000      145.12115        7.12555        -999.25        9.79506      -46.22875
564.50000      139.12761        7.36577        -999.25       10.23448      -45.61745
565.00000      134.13299        7.72575        -999.25       10.63407      -45.60803
565.50000      130.13140        7.96597        -999.25       11.19301      -45.89860
566.00000      126.12981        8.36555        -999.25       11.79179      -45.58918
566.50000      124.11429        8.52610        -999.25       12.51032      -45.57976
567.00000      121.10573        8.76632        -999.25       12.83023      -44.97034
567.50000      121.07627        8.88702        -999.25       12.91109      -44.36093
568.00000      121.04680        8.88820        -999.25       12.47403      -43.75152
568.50000      122.01037        8.88962        -999.25       11.79793      -43.14210
569.00000      123.96107        8.81112        -999.25       11.08200      -41.03084
569.50000      125.91767        8.69278        -999.25       10.56526      -38.92145
570.00000      128.86730        8.49477        -999.25       10.24772      -37.41206
570.50000      130.82390        8.37643        -999.25        9.93019      -36.80265
571.00000      133.77353        8.13857        -999.25        9.65249      -36.79322
571.50000      135.73013        8.06007        -999.25        9.45447      -36.78380
572.00000      136.69369        7.90190        -999.25        9.13693      -36.47438
572.50000      139.64332        7.78356        -999.25        8.81940      -35.86497
573.00000      144.57901        7.58554        -999.25        8.42218      -35.25555
573.50000      148.52167        7.38752        -999.25        8.06480      -34.64426
574.00000      153.45736        7.06999        -999.25        7.82694      -34.63483
574.50000      155.41396        6.87197        -999.25        7.66900      -34.62541
