~Version ---------------------------------------------------
VERS. 2.0 : CWLS LOG ASCII STANDARD - VERSION 2.0
WRAP. NO  : One line per depth step
DLM . SPACE : Column Data Section Delimiter
~Well ------------------------------------------------------
STRT.F          642 : START DEPTH
STOP.F       1779.0 : STOP DEPTH
STEP.F          0.5 : STEP
NULL.       -999.25 : NULL VALUE
COMP.                       WALSH & WATTS : COMPANY
WELL.                        SALMON E 24  : WELL
FLD .                               NORTH : FIELD
CNTY.                            MONTAGUE : COUNTY
STAT.                               TEXAS : STATE
CTRY.                                 USA : COUNTRY
SEC .                                     : SECTION
TWP .                                     : TOWNSHIP
RGE .                                     : RANGE
LOC .                 SW CORNER OF LEAGUE : LOCATION
EKB .F                          : ELEVATION KELLY BUSHING
EDF .F                          : ELEVATION DERRICK FLOOR
EGL .F                      850 : ELEVATION GROUND LEVEL
PDAT.                        GL : PERMANENT DATUM
EPD .                       850 : ELEVATION PERMANENT DATUM
APD .                         5 : ABOVE PERMANENT DATUM
LMF .                        RT : LOG MEASURED FROM
DMF .                        RT : DRILLING MEASURED FROM
API .            42337038630000 : API NUMBER
UWI .                           : UWI NUMBER
DIGC.                     NthDS : DIGITIZING COMPANY
~Params ----------------------------------------------------
SRVC.              SCHLUMBERGER : LOGGING COMPANY
LOG .                       GRN : LOG
DATE.                1964-03-24 : RUN DATE
RUN .                         1 : RUN NUMBER
TDD .F                     1783 : TOTAL DEPTH DRILLER
TDL .F                     1782 : TOTAL DEPTH LOGGER
BOTL.F                     1780 : BOTTOM LOGGED INTERVAL
TOPL.F                      650 : TOP LOGGED INTERVAL
CSGS.IN                     4.5 : CASING SIZE
CSGD.F                     1802 : CASING DRILLER
CSGL.F                          : CASING LOGGER
BS  .IN                       9 : BIT SIZE
MUD .                     WATER : MUD TYPE
MUDD.                           : MUD DENSITY
MUDV.                           : MUD VISCOSITY
PH  .                           : MUD PH
FL  .                           : FLUID LOSS
MUDS.                           : SOURCE OF SAMPLE
RM  .OHMM                       : MUD RESISTIVITY
RMT .DEGF                       : RM TEMPERATURE
RMF .OHMM                       : MUD FILTRATE RESISTIVITY
RMFT.DEGF                       : RMF TEMPERATURE
RMC .OHMM                       : MUD CAKE RESISTIVITY
RMCT.DEGF                       : RMC TEMPERATURE
RMFS.                           : RMF SOURCE
RMCS.                           : RMC SOURCE
RMBH.OHMM                       : MUD RESISTIVITY AT BHT
BHT .DEGF                       : BOTTOM HOLE TEMPERATURE
TIMC.                           : TIME CIRCULATION STOPPED
TIML.                           : TIME LOGGER ON BOTTOM
TMAX.DEGF                   107 : MAXIMUM RECORDED TEMPERATURE
UNIT.                           : EQUIPMENT NUMBER
BASE.                           : BASE LOCATION
ENG .                    MCCUNE : RECORDED BY
WIT .                       NIX : WITNESSED BY
~Curve Information -----------------------------------------
DEPT.F          :DEPTH
GRN.GAPI        :
NEUT.API        :
~ASCII ------------------------------------------------------
# ...
842.00000       69.86772      373.24673
842.50000       68.58516      393.23674
843.00000       64.73746      419.89008
843.50000       61.53105      446.54343
844.00000       59.44688      466.53343
844.50000       58.16432      481.19277
845.00000       58.80560      493.18678
845.50000       58.96592      501.18278
846.00000       56.56111      507.84612
846.50000       53.35470      505.18078
847.00000       51.75149      501.18278
847.50000       52.71342      502.51545
848.00000       54.47694      512.73700
848.50000       57.36272      499.85011
849.00000       59.92784      481.19277
849.50000       60.88977      465.20077
850.00000       61.21041      447.87609
850.50000       60.41245      439.88009
851.00000       59.93429      441.21276
851.50000       59.45613      437.21476
852.00000       57.37477      433.21675
852.50000       54.65214      422.55542
853.00000       54.65494      409.22875
853.50000       57.54349      403.89808
854.00000       60.27172      398.56741
854.50000       63.48091      405.23074
855.00000       66.20914      427.88609
855.50000       67.65482      450.54143
856.00000       67.17666      467.86610
856.50000       66.21754      482.52544
857.00000       66.22034      499.85011
857.50000       67.18561      511.84412
858.00000       67.66937      523.26508
858.50000       66.38961      530.11498
859.00000       64.46857      521.55926
859.50000       62.54753      513.17678
860.00000       60.94714      507.84612
860.50000       59.98802      497.18478
861.00000       60.31145      487.85611
861.50000       62.07777      483.85811
862.00000       64.80600      485.19077
862.50000       67.69455      487.85611
863.00000       66.89575      478.52744
863.50000       63.69216      463.86810
864.00000       60.48856      450.54143
864.50000       57.28497      443.87809
865.00000       55.68457      447.87609
865.50000       55.68737      461.20277
866.00000       56.81240      481.19277
866.50000       57.45648      495.31904
867.00000       57.77992      491.85411
867.50000       58.58487      483.85811
868.00000       60.19087      469.19877
868.50000       63.52831      455.87210
869.00000       65.15355      445.21076
869.50000       64.28741      438.54742
870.00000       63.42128      430.55142
870.50000       63.57157      433.21675
871.00000       64.05533      441.21276
871.50000       64.21845      451.87409
872.00000       65.02284      459.87010
872.50000       65.50660      469.19877
873.00000       65.34908      485.19077
873.50000       64.87092      511.84412
874.00000       64.55307      543.82813
874.50000       62.95268      571.81414
875.00000       57.50461      591.80415
875.50000       49.33110      598.46748
876.00000       41.95920      589.13881
876.50000       36.99209      575.81214
877.00000       34.42977      558.48747
877.50000       32.98970      542.49546
878.00000       32.35122      533.16679
878.50000       32.35401      534.49946
879.00000       32.83777      537.16479
879.50000       32.84057      539.83013
880.00000       32.52273      543.82813
880.50000       31.56361      546.49346
881.00000       30.12409      546.49346
881.50000       30.44753      542.49546
882.00000       31.09160      539.83013
882.50000       31.41504      545.16080
883.00000       32.70040      547.82613
883.50000       34.30639      543.82813
884.00000       34.95047      546.49346
884.50000       35.59454      547.82613
885.00000       37.04022      550.49147
885.50000       39.28749      554.48947
886.00000       41.05380      561.15280
886.50000       40.73596      571.81414
887.00000       39.13557      582.47548
887.50000       36.89389      589.13881
888.00000       35.13317      601.57260
888.50000       33.85397      612.68704
889.00000       34.17741      610.63473
889.50000       35.14212      599.80015
890.00000       35.46556      609.12882
890.50000       34.02548      618.45749
891.00000       32.10445      624.37453
891.50000       31.14533      628.82564
892.00000       31.14812      627.03987
892.50000       32.75412      625.12083
893.00000       34.84107      618.45749
893.50000       36.12643      610.46149
894.00000       34.52603      606.46349
894.50000       32.28435      601.13282
895.00000       30.84427      605.13082
895.50000       30.68675      615.79216
896.00000       31.33083      629.34538
896.50000       31.17331      637.11483
897.00000       29.89355      632.67705
897.50000       28.61379      635.34238
898.00000       27.33459      626.45349
898.50000       25.89451      609.56860
899.00000       24.93539      597.80115
899.50000       24.77787      601.13282
900.00000       25.29910      591.09783
900.50000       25.94317      597.49464
901.00000       26.74757      600.59975
901.50000       28.03293      599.21378
902.00000       29.31828      591.05785
902.50000       29.48140      590.65805
903.00000       28.84292      594.46948
903.50000       26.92188      601.13282
904.00000       24.51988      607.79615
904.50000       22.75917      615.79216
905.00000       21.63973      627.78616
905.50000       21.48221      647.77617
906.00000       22.60724      667.76618
906.50000       24.37356      690.42152
907.00000       24.53667      705.08086
907.50000       24.37915      713.07686
908.00000       25.50419      719.74020
908.50000       27.91178      722.40553
909.00000       30.15961      719.74020
909.50000       29.04017      710.41153
910.00000       27.27946      689.08885
910.50000       25.19810      658.43751
911.00000       23.75802      614.45949
911.50000       22.47826      566.48347
912.00000       24.88585      507.84612
912.50000       29.37760      461.20277
913.00000       39.80117      406.56341
913.50000       53.91210      374.57940
914.00000       66.42039      366.58340
914.50000       75.11251      375.91207
915.00000       75.51130      385.24074
915.50000       75.78023      387.63954
916.00000       74.44756      390.30487
916.50000       73.11490      392.97021
917.00000       72.25518      393.23674
917.50000       73.28723      391.01119
918.00000       72.85556      393.70317
918.50000       71.89644      397.62121
919.00000       70.45636      401.55258
919.50000       68.85596      402.12563
920.00000       68.85876      397.67452
920.50000       69.98380      393.23674
921.00000       70.46755      394.90257
921.50000       68.86715      396.56841
922.00000       66.30484      403.00519
922.50000       64.38380      412.64037
923.00000       63.74532      415.18577
923.50000       63.90844      415.97204
924.00000       66.95787      416.75832
924.50000       69.52578      417.22475
925.00000       69.36826      410.56141
925.50000       68.89010      399.90008
926.00000       69.53418      387.90607
926.50000       70.17825      377.24473
927.00000       69.37945      369.24873
927.50000       68.74097      361.25273
928.00000       69.54537      351.92406
928.50000       70.83072      350.59139
929.00000       71.63512      353.25672
929.50000       73.24111      350.59139
930.00000       76.45030      349.25872
930.50000       79.98013      345.26072
931.00000       83.29674      339.93005
931.50000       82.04744      342.59539
932.00000       76.46150      354.58939
932.50000       68.76895      377.24473
933.00000       63.96216      406.56341
933.50000       62.04113      443.87809
934.00000       61.08201      485.19077
934.50000       59.80225      511.84412
935.00000       58.52249      535.83213
935.50000       58.20465      553.15680
936.00000       55.16137      562.48547
936.50000       50.83554      562.48547
937.00000       47.47163      558.48747
937.50000       48.27602      549.15880
938.00000       50.52330      535.83213
938.50000       52.77057      529.16879
939.00000       53.57496      533.16679
939.50000       53.41744      535.83213
940.00000       52.61864      535.83213
940.50000       50.85848      542.49546
941.00000       49.09777      549.15880
941.50000       47.01585      541.16280
