~Version ---------------------------------------------------
VERS. 2.0 : CWLS LOG ASCII STANDARD - VERSION 2.0
WRAP. NO  : One line per depth step
DLM . SPACE : Column Data Section Delimiter
~Well ------------------------------------------------------
STRT.F          230 : START DEPTH
STOP.F       1777.5 : STOP DEPTH
STEP.F          0.5 : STEP
NULL.       -999.25 : NULL VALUE
COMP.         WALSH & WATTS, INCORPORATED : COMPANY
WELL.                         SALMON E 44 : WELL
FLD .                             REGULAR : FIELD
CNTY.                            MONTAGUE : COUNTY
STAT.                               TEXAS : STATE
CTRY.                                 USA : COUNTRY
SEC .                                     : SECTION
TWP .                                     : TOWNSHIP
RGE .                                     : RANGE
LOC . 300' WEST OF NO 23, 300' SOUTH OF D-9, F.ROBERTSON SURV. : LOCATION
EKB .F                      862 : ELEVATION KELLY BUSHING
EDF .F                          : ELEVATION DERRICK FLOOR
EGL .F                      856 : ELEVATION GROUND LEVEL
PDAT.                        GL : PERMANENT DATUM
EPD .                       856 : ELEVATION PERMANENT DATUM
APD .                         6 : ABOVE PERMANENT DATUM
LMF .                        KB : LOG MEASURED FROM
DMF .                        KB : DRILLING MEASURED FROM
API .            42337038720000 : API NUMBER
UWI .                           : UWI NUMBER
DIGC.                     NthDS : DIGITIZING COMPANY
~Params ----------------------------------------------------
SRVC.              SCHLUMBERGER : LOGGING COMPANY
LOG .                       IEL : LOG
DATE.                1965-11-28 : RUN DATE
RUN .                         1 : RUN NUMBER
TDD .F                     1779 : TOTAL DEPTH DRILLER
TDL .F                     1779 : TOTAL DEPTH LOGGER
BOTL.F                     1778 : BOTTOM LOGGED INTERVAL
TOPL.F                          : TOP LOGGED INTERVAL
CSGS.IN                         : CASING SIZE
CSGD.F                          : CASING DRILLER
CSGL.F                          : CASING LOGGER
BS  .IN                   7.875 : BIT SIZE
MUD .                       GEL : MUD TYPE
MUDD.                        10 : MUD DENSITY
MUDV.                       9.8 : MUD VISCOSITY
PH  .                           : MUD PH
FL  .                           : FLUID LOSS
MUDS.                CIRCULATED : SOURCE OF SAMPLE
RM  .OHMM                   2.0 : MUD RESISTIVITY
RMT .DEGF                    81 : RM TEMPERATURE
RMF .OHMM                   1.5 : MUD FILTRATE RESISTIVITY
RMFT.DEGF                    81 : RMF TEMPERATURE
RMC .OHMM                       : MUD CAKE RESISTIVITY
RMCT.DEGF                       : RMC TEMPERATURE
RMFS.                         M : RMF SOURCE
RMCS.                           : RMC SOURCE
RMBH.OHMM                   1.6 : MUD RESISTIVITY AT BHT
BHT .DEGF                   100 : BOTTOM HOLE TEMPERATURE
TIMC.                           : TIME CIRCULATION STOPPED
TIML.                           : TIME LOGGER ON BOTTOM
TMAX.DEGF                   100 : MAXIMUM RECORDED TEMPERATURE
UNIT.                      4559 : EQUIPMENT NUMBER
BASE.                       WFS : BASE LOCATION
ENG .                      FINK : RECORDED BY
WIT .                       NIX : WITNESSED BY
~Curve Information -----------------------------------------
DEPT.F          :DEPTH
CILD.MMHO       :
ILD.OHMM        :
SN.OHMM         :
SP.MV           :
~ASCII ------------------------------------------------------
# ...
1204.00000      397.33722        2.29988        2.93028      -43.11903
1204.50000      397.48482        2.30802        2.92761      -42.11403
1205.00000      397.32211        2.31575        2.92495      -40.38603
1205.50000      397.15940        2.32349        2.92269      -38.92503
1206.00000      396.99669        2.33123        2.92002      -38.55003
1206.50000      396.83398        2.33896        2.91736      -39.13503
1207.00000      396.68128        2.34670        2.91470      -40.36503
1207.50000      395.11718        2.35444        2.91243      -41.40003
1208.00000      393.21274        2.36217        2.90977      -42.15003
1208.50000      391.18818        2.37031        2.89871      -42.90003
1209.00000      388.70317        2.37805        2.88565      -43.89003
1209.50000      386.21815        2.38578        2.87258      -45.84003
1210.00000      385.59848        2.37339        2.87392      -48.00003
1210.50000      388.42875        2.35913        2.88486      -48.85802
1211.00000      396.78450        2.34526        2.89579      -46.50003
1211.50000      406.52163        2.28740        2.89593      -45.00003
1212.00000      416.24875        2.22954        2.84153      -43.50003
1212.50000      425.98588        2.17167        2.75367      -42.60003
1213.00000      437.97525        2.11421        2.63741      -41.94903
1213.50000      451.46611        2.05635        2.52075      -43.20003
1214.00000      464.95697        1.99849        2.40448      -44.45103
1214.50000      476.98638        1.94062        2.39742      -46.41303
1215.00000      490.62088        1.88276        2.41796      -47.10003
1215.50000      495.91359        1.87690        2.43809      -44.53203
1216.00000      490.30547        1.90623        2.45863      -41.70003
1216.50000      483.75641        1.93517        2.35797      -40.41303
1217.00000      476.57673        1.96411        2.33730      -40.02903
1217.50000      469.39705        1.99304        2.38464      -40.37103
1218.00000      462.52768        2.01838        2.44398      -41.22903
1218.50000      456.10875        2.02852        2.47011      -40.56903
1219.00000      448.03818        2.03905        2.48825      -39.53103
1219.50000      439.97763        2.04959        2.50599      -38.73003
1220.00000      433.13828        2.06013        2.52412      -38.88003
1220.50000      428.15078        2.07026        2.54186      -39.00003
1221.00000      423.16328        2.08080        2.56000      -39.00003
1221.50000      421.92950        2.09134        2.57773      -39.00003
1222.00000      420.69573        2.10187        2.59587      -41.40003
1222.50000      419.99249        2.11241        2.61081      -44.40003
1223.00000      419.63959        2.12255        2.61374      -46.40103
1223.50000      419.28669        2.13308        2.61668      -46.26003
1224.00000      418.93379        2.14362        2.61962      -44.85903
1224.50000      418.58090        2.15416        2.62255      -43.46103
1225.00000      418.22800        2.16429        2.62509      -43.35003
1225.50000      417.79852        2.17003        2.62803      -44.15703
1226.00000      417.44562        2.17417        2.63096      -44.44503
1226.50000      417.09272        2.17830        2.63390      -44.73603
1227.00000      416.73982        2.18244        2.63684      -45.02403
1227.50000      416.38693        2.18658        2.63977      -45.31203
1228.00000      415.00301        2.19071        2.64271      -45.60003
1228.50000      413.61908        2.19485        2.65045      -45.05403
1229.00000      412.23516        2.19899        2.65858      -44.50803
1229.50000      410.85124        2.20312        2.66632      -43.80003
1230.00000      409.46732        2.20726        2.67406      -43.05003
1230.50000      408.48379        2.21140        2.68220      -42.95103
1231.00000      407.50027        2.21553        2.68993      -43.82403
1231.50000      406.51675        2.21967        2.69807      -44.70003
1232.00000      405.17286        2.22381        2.70581      -44.51103
1232.50000      403.81897        2.22794        2.71354      -43.95003
1233.00000      403.34595        2.23208        2.72168      -42.82503
1233.50000      403.08315        2.23622        2.72942      -41.70003
1234.00000      402.82034        2.24076        2.73715      -41.25003
1234.50000      402.22069        2.24489        2.74529      -40.80003
1235.00000      401.23716        2.24943        2.75303      -39.72903
1235.50000      400.25364        2.25357        2.76116      -39.51603
1236.00000      399.27011        2.25810        2.76890      -39.87603
1236.50000      398.28659        2.26224        2.77664      -40.23603
1237.00000      397.40317        2.26678        2.78477      -40.59603
1237.50000      396.65988        2.27091        2.79251      -40.95603
1238.00000      395.91660        2.27545        2.80025      -40.16703
1238.50000      395.17331        2.27959        2.80838      -39.00003
1239.00000      394.44003        2.28412        2.81612      -40.59003
1239.50000      393.69675        2.28826        2.82386      -42.54003
1240.00000      392.95346        2.29280        2.81199      -44.28903
1240.50000      393.45141        2.29693        2.78613      -45.23403
1241.00000      394.25967        2.30147        2.76067      -46.17903
1241.50000      395.06793        2.30481        2.75280      -47.12103
1242.00000      395.87618        2.30414        2.77214      -48.06603
1242.50000      394.71248        2.30348        2.79148      -49.01102
1243.00000      393.32204        2.30282        2.81081      -47.70003
1243.50000      392.16835        2.30215        2.80895      -45.60003
1244.00000      392.47611        2.30149        2.77469      -43.50003
1244.50000      393.16424        2.30083        2.74082      -42.75003
1245.00000      393.85238        2.30016        2.70696      -43.80003
1245.50000      396.43240        2.29950        2.73150      -45.90003
1246.00000      399.50290        2.28564        2.77083      -47.70003
1246.50000      402.56340        2.25137        2.81017      -47.70003
1247.00000      405.63390        2.21751        2.84951      -47.70003
1247.50000      408.52423        2.18365        2.81924      -47.46003
1248.00000      410.73388        2.14939        2.77138      -45.39903
1248.50000      412.93352        2.14072        2.72392      -42.90003
1249.00000      415.14317        2.14886        2.65886      -40.89903
1249.50000      414.60008        2.15700        2.67699      -40.35003
1250.00000      412.29897        2.27119        2.80198      -42.60003
1250.50000      411.64927        2.27932        2.82012      -43.32003
1251.00000      410.18526        2.28893        2.83866      -43.47003
1251.50000      408.09064        2.29706        2.84066      -43.62003
1252.00000      406.00602        2.30520        2.84200      -43.77003
1252.50000      403.91139        2.31294        2.84373      -46.59903
1253.00000      403.50844        2.31587        2.84507      -50.10002
1253.50000      403.52591        2.31521        2.84681      -50.47502
1254.00000      403.54338        2.31455        2.84815      -50.43302
1254.50000      403.56085        2.31389        2.84988      -49.76702
1255.00000      403.57832        2.31322        2.85122      -48.47702
1255.50000      403.59580        2.31256        2.85296      -46.77303
1256.00000      403.61327        2.31176        2.85429      -44.72703
1256.50000      403.63074        2.31110        2.85630      -43.02303
1257.00000      403.65170        2.31044        2.85763      -42.65403
1257.50000      403.66917        2.30977        2.85937      -44.29203
1258.00000      405.43838        2.30911        2.86071      -45.34203
1258.50000      407.64803        2.30845        2.86244      -44.05803
1259.00000      409.84767        2.30778        2.86378      -42.17103
1259.50000      410.60588        2.30392        2.86552      -40.13703
1260.00000      410.38311        2.29926        2.85885      -38.10003
