~Version ---------------------------------------------------
VERS. 2.0 : CWLS LOG ASCII STANDARD - VERSION 2.0
WRAP. NO  : One line per depth step
DLM . SPACE : Column Data Section Delimiter
~Well ------------------------------------------------------
STRT.F          780 : START DEPTH
STOP.F       1761.5 : STOP DEPTH
STEP.F          0.5 : STEP
NULL.       -999.25 : NULL VALUE
COMP.                 WALSH & WATTS, INC. : COMPANY
WELL.                         SALMON E 42 : WELL
FLD .                        NORTH NOCONA : FIELD
CNTY.                            MONTAGUE : COUNTY
STAT.                               TEXAS : STATE
CTRY.                                 USA : COUNTRY
SEC .                                     : SECTION
TWP .                                     : TOWNSHIP
RGE .                                     : RANGE
LOC . 150' FSL & 300' W OF WELL NO. 1, 407' E OF WELL NO. 5, F. ROBERTSON SURVEY : LOCATION
EKB .F                      880 : ELEVATION KELLY BUSHING
EDF .F                          : ELEVATION DERRICK FLOOR
EGL .F                      874 : ELEVATION GROUND LEVEL
PDAT.              GROUND LEVEL : PERMANENT DATUM
EPD .                       874 : ELEVATION PERMANENT DATUM
APD .                         6 : ABOVE PERMANENT DATUM
LMF .                        KB : LOG MEASURED FROM
DMF .                        KB : DRILLING MEASURED FROM
API .            42337037780000 : API NUMBER
UWI .            42337037780000 : UWI NUMBER
DIGC.                     NthDS : DIGITIZING COMPANY
~Params ----------------------------------------------------
SRVC.                LANE WELLS : LOGGING COMPANY
LOG .                        AC : LOG
DATE.                1965-11-21 : RUN DATE
RUN .                         1 : RUN NUMBER
TDD .F                     1766 : TOTAL DEPTH DRILLER
TDL .F                     1768 : TOTAL DEPTH LOGGER
BOTL.F                     1762 : BOTTOM LOGGED INTERVAL
TOPL.F                      790 : TOP LOGGED INTERVAL
CSGS.IN                         : CASING SIZE
CSGD.F                          : CASING DRILLER
CSGL.F                          : CASING LOGGER
BS  .IN                   7.875 : BIT SIZE
MUD .              CHEMICAL GEL : MUD TYPE
MUDD.                       9.8 : MUD DENSITY
MUDV.                       123 : MUD VISCOSITY
PH  .                           : MUD PH
FL  .                           : FLUID LOSS
MUDS.                CIRCULATED : SOURCE OF SAMPLE
RM  .OHMM                   2.1 : MUD RESISTIVITY
RMT .DEGF                    70 : RM TEMPERATURE
RMF .OHMM                  1.81 : MUD FILTRATE RESISTIVITY
RMFT.DEGF                    70 : RMF TEMPERATURE
RMC .OHMM                  2.34 : MUD CAKE RESISTIVITY
RMCT.DEGF                    70 : RMC TEMPERATURE
RMFS.                  MEASURED : RMF SOURCE
RMCS.                           : RMC SOURCE
RMBH.OHMM                   1.5 : MUD RESISTIVITY AT BHT
BHT .DEGF                    98 : BOTTOM HOLE TEMPERATURE
TIMC.                           : TIME CIRCULATION STOPPED
TIML.                           : TIME LOGGER ON BOTTOM
TMAX.DEGF                    98 : MAXIMUM RECORDED TEMPERATURE
UNIT.                    L-4553 : EQUIPMENT NUMBER
BASE.                      W.F. : BASE LOCATION
ENG .                     ADAMS : RECORDED BY
WIT .   MR. HARRELSON & MR. NIX : WITNESSED BY
~Curve Information -----------------------------------------
DEPT.F          :DEPTH
CALI.IN         :
DT.US/F         :
SP.MV           :
~ASCII ------------------------------------------------------
# ...
1213.50000        8.20680      103.19940      -49.05752
1214.00000        8.40204      103.33348      -48.17337
1214.50000        8.49952      109.90234      -47.88210
1215.00000        8.34977      113.90141      -48.18372
1215.50000        8.16286      110.95889      -49.37465
1216.00000        8.36667      108.01736      -50.56559
1216.50000        8.57067      111.57231      -50.86824
1217.00000        8.77447      109.32829      -50.87341
1217.50000        8.58434      100.51018      -49.69283
1218.00000        8.42589       73.89482      -47.62291
1218.50000        8.31626       72.20502      -47.03521
1219.00000        8.40247       97.67959      -47.33682
1219.50000        8.25885      111.33830      -49.71456
1220.00000        7.90270      104.61535      -52.38770
1220.50000        8.08022       90.89877      -53.57863
1221.00000        7.99095       90.52240      -55.06601
1221.50000        7.90503       93.01168      -55.96051
1222.00000        8.21753       97.07941      -56.55856
1222.50000        8.30276      104.96966      -56.86121
1223.00000        8.38818      107.47486      -56.56995
1223.50000        8.43164       99.66570      -55.38936
1224.00000        8.22260       95.14010      -54.80165
1224.50000        8.07917      105.47048      -55.39970
1225.00000        8.03397      111.63138      -56.29420
1225.50000        8.04469      111.33461      -57.18973
1226.00000        8.27893      106.70255      -56.89847
1226.50000        8.21429       96.61181      -56.31076
1227.00000        8.47975       88.65340      -56.61237
1227.50000        8.22802       85.42132      -58.09975
1228.00000        7.97610       85.50565      -58.99425
1228.50000        8.02516       88.50935      -59.29690
1229.00000        8.05248       92.90609      -59.00563
1229.50000        8.04654       98.18177      -58.41792
1230.00000        8.04145      102.57751      -57.53377
1230.50000        8.03636      106.97424      -56.05674
1231.00000        8.10795      105.73221      -53.39395
1231.50000        8.29417      108.63676      -49.84183
1232.00000        8.27366      111.78873      -45.40143
1232.50000        8.08353      114.94169      -43.03508
1233.00000        8.20176      112.70463      -41.85449
1233.50000        8.38916      108.05068      -42.15610
1234.00000        8.57656      102.01165      -43.05060
1234.50000        8.76396      100.69101      -43.64865
1235.00000        8.74188      102.61214      -43.95027
1235.50000        8.66742      101.22085      -43.95648
1236.00000        8.61800       95.69426      -43.66521
1236.50000        8.60994       86.35476      -42.78106
1237.00000        8.60209       80.58937      -43.08268
1237.50000        8.41301       81.51349      -43.08785
1238.00000        8.22413       85.30923      -43.68591
1238.50000        8.03505       81.41348      -45.47076
1239.00000        7.80835       83.33695      -46.95814
1239.50000        7.91255       90.93665      -49.03840
1240.00000        7.83316       98.50749      -49.93289
1240.50000        7.77214      100.84090      -49.93807
1241.00000        7.78405       99.35011      -48.75748
1241.50000        7.87264      100.79960      -46.39216
1242.00000        8.04021      102.24809      -43.13649
1242.50000        8.12603      107.37219      -39.58437
1243.00000        8.13121      110.71753      -37.81090
1243.50000        8.13640      108.31431      -37.81607
1244.00000        8.14139      101.14395      -39.59989
1244.50000        8.07445       93.97260      -40.79083
1245.00000        7.97245       89.91133      -44.65077
1245.50000        7.88733       92.20195      -47.62035
1246.00000        7.80240      102.87527      -49.70061
1246.50000        7.79672      103.54864      -50.29866
1247.00000        7.81100      101.56034      -50.00740
1247.50000        7.82528      104.29873      -48.82784
1248.00000        7.84245      106.58104      -48.24014
1248.50000        7.85673      104.60070      -48.54175
1249.00000        7.85421      102.35270      -48.84337
1249.50000        7.84043      103.29374      -48.55210
1250.00000        7.88200      103.40067      -47.13400
1250.50000        7.86822      103.17324      -45.95341
1251.00000        7.85424      102.94581      -44.77283
1251.50000        7.84046      103.78022      -44.18512
1252.00000        7.82667      104.65893      -43.00453
1252.50000        7.81289      104.68447      -40.63921
1253.00000        7.79627      103.43026      -38.86574
1253.50000        7.83308      102.17505      -37.38871
1254.00000        7.92404      102.00119      -36.20812
1254.50000        8.09662      103.73937      -35.91685
1255.00000        8.04706      104.66471      -36.21847
1255.50000        7.94217      103.49383      -37.40941
1256.00000        7.83728      102.32295      -38.60034
1256.50000        7.79504      103.09650      -39.19840
1257.00000        7.84707      103.59823      -38.90713
1257.50000        7.89890      103.01365      -38.61586
1258.00000        7.95092      102.72704      -39.80680
1258.50000        7.93714      104.21686      -40.40486
1259.00000        7.92335      104.11046      -40.70647
1259.50000        7.90937      102.93958      -39.82232
1260.00000        7.89559      102.20917      -38.04885
1260.50000        7.90967      102.14046      -37.16470
1261.00000        8.00162      102.46263      -35.98411
1261.50000        8.11444      103.79307      -35.99032
1262.00000        8.03505      104.90095      -35.40261
1262.50000        7.99498      105.12391      -34.22203
1263.00000        8.01381      105.12564      -32.44855
1263.50000        8.03263      104.26726      -31.26797
1264.00000        8.05165      103.40987      -30.38382
1264.50000        8.07048      102.62624      -30.38899
1265.00000        8.08930      102.99999      -31.28349
1265.50000        8.10813      104.04338      -32.17798
1266.00000        8.10344      105.53320      -33.96180
1266.50000        8.00428      105.76608      -35.74562
1267.00000        7.90512      104.11504      -37.82588
1267.50000        7.93778      102.46301      -39.60970
1268.00000        8.09988      103.73493      -39.91131
1268.50000        7.98966      104.79518      -38.73072
1269.00000        7.94504      105.36040      -37.25369
1269.50000        7.99865      103.95044      -36.07414
1270.00000        8.06286      102.54047      -36.07931
1270.50000        8.11647      102.65827      -34.89872
1271.00000        8.15762      103.54229      -33.42169
1271.50000        8.14918      103.48152      -32.24110
1272.00000        8.14073      103.42174      -31.35696
1272.50000        8.13228      103.68141      -30.76925
1273.00000        8.12383      105.22083      -31.07086
1273.50000        8.11539      106.10946      -31.96536
1274.00000        8.10694      104.39394      -32.26697
1274.50000        8.09849      102.33552      -31.38283
1275.00000        8.09004      103.72514      -31.09156
1275.50000        8.08160      105.89154      -31.39317
1276.00000        8.07315      104.61649      -31.39835
1276.50000        8.06470      101.04682      -30.51420
1277.00000        8.05625      100.57930      -29.92649
1277.50000        8.07192      102.17924      -30.22811
1278.00000        8.08738      103.13865      -30.52972
1278.50000        8.10614      103.77828      -29.64661
1279.00000        8.12180      104.41790      -27.87314
1279.50000        8.13726      105.05653      -26.69255
1280.00000        8.15293      102.52753      -25.51196
1280.50000        8.14310      100.00050      -24.62781
1281.00000        8.13346       95.59949      -25.22586
1281.50000        8.12363       79.99318      -26.71324
1282.00000        8.11400       63.27840      -28.20062
1282.50000        8.10417       59.10754      -30.28088
1283.00000        8.09434       64.59966      -32.95402
1283.50000        8.08470       64.83552      -35.62716
1284.00000        8.07487       64.94042      -37.41098
1284.50000        8.06504       66.47587      -38.60192
