~Version ---------------------------------------------------
VERS. 2.0 : CWLS LOG ASCII STANDARD - VERSION 2.0
WRAP. NO  : One line per depth step
DLM . SPACE : Column Data Section Delimiter
~Well ------------------------------------------------------
STRT.F          780 : START DEPTH
STOP.F       1761.5 : STOP DEPTH
STEP.F          0.5 : STEP
NULL.       -999.25 : NULL VALUE
COMP.                 WALSH & WATTS, INC. : COMPANY
WELL.                         SALMON E 42 : WELL
FLD .                        NORTH NOCONA : FIELD
CNTY.                            MONTAGUE : COUNTY
STAT.                               TEXAS : STATE
CTRY.                                 USA : COUNTRY
SEC .                                     : SECTION
TWP .                                     : TOWNSHIP
RGE .                                     : RANGE
LOC . 150' FSL & 300' W OF WELL NO. 1, 407' E OF WELL NO. 5, F. ROBERTSON SURVEY : LOCATION
EKB .F                      880 : ELEVATION KELLY BUSHING
EDF .F                          : ELEVATION DERRICK FLOOR
EGL .F                      874 : ELEVATION GROUND LEVEL
PDAT.              GROUND LEVEL : PERMANENT DATUM
EPD .                       874 : ELEVATION PERMANENT DATUM
APD .                         6 : ABOVE PERMANENT DATUM
LMF .                        KB : LOG MEASURED FROM
DMF .                        KB : DRILLING MEASURED FROM
API .            42337037780000 : API NUMBER
UWI .            42337037780000 : UWI NUMBER
DIGC.                     NthDS : DIGITIZING COMPANY
~Params ----------------------------------------------------
SRVC.                LANE WELLS : LOGGING COMPANY
LOG .                        AC : LOG
DATE.                1965-11-21 : RUN DATE
RUN .                         1 : RUN NUMBER
TDD .F                     1766 : TOTAL DEPTH DRILLER
TDL .F                     1768 : TOTAL DEPTH LOGGER
BOTL.F                     1762 : BOTTOM LOGGED INTERVAL
TOPL.F                      790 : TOP LOGGED INTERVAL
CSGS.IN                         : CASING SIZE
CSGD.F                          : CASING DRILLER
CSGL.F                          : CASING LOGGER
BS  .IN                   7.875 : BIT SIZE
MUD .              CHEMICAL GEL : MUD TYPE
MUDD.                       9.8 : MUD DENSITY
MUDV.                       123 : MUD VISCOSITY
PH  .                           : MUD PH
FL  .                           : FLUID LOSS
MUDS.                CIRCULATED : SOURCE OF SAMPLE
RM  .OHMM                   2.1 : MUD RESISTIVITY
RMT .DEGF                    70 : RM TEMPERATURE
RMF .OHMM                  1.81 : MUD FILTRATE RESISTIVITY
RMFT.DEGF                    70 : RMF TEMPERATURE
RMC .OHMM                  2.34 : MUD CAKE RESISTIVITY
RMCT.DEGF                    70 : RMC TEMPERATURE
RMFS.                  MEASURED : RMF SOURCE
RMCS.                           : RMC SOURCE
RMBH.OHMM                   1.5 : MUD RESISTIVITY AT BHT
BHT .DEGF                    98 : BOTTOM HOLE TEMPERATURE
TIMC.                           : TIME CIRCULATION STOPPED
TIML.                           : TIME LOGGER ON BOTTOM
TMAX.DEGF                    98 : MAXIMUM RECORDED TEMPERATURE
UNIT.                    L-4553 : EQUIPMENT NUMBER
BASE.                      W.F. : BASE LOCATION
ENG .                     ADAMS : RECORDED BY
WIT .   MR. HARRELSON & MR. NIX : WITNESSED BY
~Curve Information -----------------------------------------
DEPT.F          :DEPTH
CALI.IN         :
DT.US/F         :
SP.MV           :
~ASCII ------------------------------------------------------
# ...
999.00000        8.40361      115.91915      -58.39201
999.50000        8.36232      114.30735      -58.98771
1000.00000        8.45493      111.49737      -59.88096
1000.50000        8.36782      110.37938      -60.48005
1001.00000        8.16451      108.38675      -60.48522
1001.50000        7.96101      112.49294      -59.89752
1002.00000        7.76455      114.76034      -59.60625
1002.50000        7.79938      116.01117      -59.90786
1003.00000        7.83441      119.45070      -60.50592
1003.50000        7.89474      124.49021      -60.80753
1004.00000        8.05032      118.82034      -61.70203
1004.50000        8.29148       99.41921      -62.30009
1005.00000        8.37058      101.28164      -62.60170
1005.50000        8.18585      108.98516      -62.60687
1006.00000        8.00112      112.45952      -62.31561
1006.50000        7.88279      107.43641      -63.80402
1007.00000        8.03066       95.34867      -64.40208
1007.50000        8.01214       87.54448      -64.11081
1008.00000        7.88254       91.29943      -63.22666
1008.50000        7.76988       95.05537      -61.74963
1009.00000        7.85412       91.80638      -60.27260
1009.50000        7.77729       88.23302      -59.09201
1010.00000        7.66015       92.37438      -58.20786
1010.50000        7.78114       97.18504      -57.91659
1011.00000        7.98337      101.78113      -57.92177
1011.50000        8.06939      101.88237      -58.81626
1012.00000        8.01529      100.37466      -59.41432
1012.50000        7.92601       99.61421      -60.01238
1013.00000        7.91539      102.43484      -61.79723
1013.50000        7.92453      103.63094      -62.39528
1014.00000        7.93347      103.82074      -62.69690
1014.50000        7.94261      106.75181      -62.40563
1015.00000        7.95346      107.98140      -62.11437
1015.50000        7.96261      107.78448      -61.23022
1016.00000        7.97155      110.06779      -60.64251
1016.50000        7.98069      113.04464      -60.05480
1017.00000        7.83924      116.77769      -59.76353
1017.50000        7.59720      111.43120      -59.76871
1018.00000        7.73638      109.80245      -60.07032
1018.50000        7.86785      109.87483      -60.07550
1019.00000        7.58747       99.71345      -60.96999
1019.50000        7.98238       98.01371      -61.27264
1020.00000        7.83045      104.76565      -61.87070
1020.50000        7.68525      119.75868      -62.17231
1021.00000        7.63542      122.16538      -61.58461
1021.50000        7.63844      115.69950      -61.29334
1022.00000        7.70390      111.47240      -61.29851
1022.50000        7.76937      112.74314      -62.19301
1023.00000        7.83503      114.85929      -63.08751
1023.50000        7.90050      112.87099      -63.68556
1024.00000        7.90015      108.14638      -64.28362
1024.50000        7.89981      111.02273      -64.28879
1025.00000        7.83029      110.53825      -64.59040
1025.50000        7.76078      104.96753      -64.30017
1026.00000        7.98276      102.52187      -63.41602
1026.50000        8.05653      103.13754      -62.53188
1027.00000        7.90796       95.46370      -61.94417
1027.50000        7.98798      100.74600      -61.35646
1028.00000        8.17005      107.76297      -62.25096
1028.50000        8.00469       99.47321      -64.92410
1029.00000        8.04940       92.84081      -69.37588
1029.50000        8.09392       98.00704      -74.71699
1030.00000        7.94535      102.31223      -85.69151
1030.50000        7.79678      107.47847      -92.51482
1031.00000        7.68636      110.73889      -93.11288
1031.50000        7.61882      110.51177      -91.04400
1032.00000        7.62204      107.40407      -88.08373
1032.50000        7.62505      104.29638      -85.71738
1033.00000        7.62807      101.92698      -82.46171
1033.50000        7.63180      102.01165      -78.90959
1034.00000        7.63482       99.58555      -74.26954
1034.50000        7.67143       98.23406      -70.48916
1035.00000        7.73037      100.69050      -72.34413
1035.50000        7.78931      104.26436      -79.52317
1036.00000        7.76328      110.57785      -91.97989
1036.50000        7.68052      111.74873      -98.80320
1037.00000        7.61437      109.94650     -102.66211
1037.50000        7.61402      112.23314     -105.03881
1038.00000        7.61368      114.87964     -105.93330
1038.50000        7.61333      117.52614     -105.64204
1039.00000        7.61299      118.97165     -104.46145
1039.50000        7.61257      115.61519     -101.79865
1040.00000        7.61223      111.58745      -98.83942
1040.50000        7.61188      110.33248      -95.58374
1041.00000        7.61154      109.07751      -92.92095
1041.50000        7.61119      107.82254      -89.96172
1042.00000        7.61085      107.14269      -87.29892
1042.50000        7.64292      108.76730      -89.97310
1043.00000        7.69632      110.71564      -94.72133
1043.50000        7.69796      112.33925     -100.06243
1044.00000        7.62172      113.96387     -106.29287
1044.50000        7.54529      113.18153     -108.96601
1045.00000        7.52973      111.51994     -109.86050
1045.50000        7.52931      109.97542     -110.45856
1046.00000        7.52897      107.78811     -111.05661
1046.50000        7.52862      106.35901     -111.95111
1047.00000        7.52828      107.96373     -113.43952
1047.50000        7.52794      109.56844     -114.63046
1048.00000        7.52759      111.49489     -114.63563
1048.50000        7.52725      111.26976     -114.34437
1049.00000        7.52690      110.80583     -113.75666
1049.50000        7.50462      111.21453     -113.46539
1050.00000        7.49822      111.18028     -113.38606
1050.50000        7.49847      109.87058     -114.57231
1051.00000        7.54274      108.56088     -115.46328
1051.50000        7.57980      109.24122     -116.35529
1052.00000        7.61685      109.92156     -117.24626
1052.50000        7.65371      108.64072     -117.25142
1053.00000        7.69077      106.87033     -116.66602
1053.50000        7.68846      105.09894     -115.49008
1054.00000        7.68615      104.39222     -113.72359
1054.50000        7.68337      102.86860     -110.18546
1055.00000        7.68106      100.32707     -106.64836
1055.50000        7.67855      101.01437     -103.70078
1056.00000        7.67624      102.80749     -107.70394
1056.50000        7.67393      104.30175     -111.22875
1057.00000        7.67162      105.79602     -114.05082
1057.50000        7.66884      107.29028     -116.12289
1058.00000        7.66653      106.29700     -118.49126
1058.50000        7.66422      105.30372     -118.79169
1059.00000        7.66191      103.54726     -119.09211
1059.50000        7.65959      101.79179     -119.98309
1060.00000        7.65728      100.03533     -119.98824
1060.50000        7.65431      102.62446     -119.69915
1061.00000        7.65200      104.78240     -119.40903
1061.50000        7.64969      106.54134     -118.82364
1062.00000        7.64737      108.05650     -118.23825
1062.50000        7.64506      110.46917     -117.35758
1063.00000        7.63684      113.01452     -116.77218
1063.50000        7.62502      112.36154     -115.89152
1064.00000        7.61522      110.82895     -115.01188
1064.50000        7.60543      109.95209     -114.72176
1065.00000        7.59564      111.69511     -115.02219
1065.50000        7.58585      111.39834     -115.02734
1066.00000        7.57586      109.74138     -115.03249
1066.50000        7.56422      108.73516     -115.03765
1067.00000        7.55443      110.64768     -114.45328
1067.50000        7.54464      112.24145     -114.16316
1068.00000        7.54567      114.19342     -113.28250
1068.50000        7.54966      116.68271     -112.10655
1069.00000        7.55365      118.59488     -110.63534
1069.50000        7.55764      118.19861     -109.45940
1070.00000        7.56234      117.72308     -108.57873
