~Version ---------------------------------------------------
VERS. 2.0 : CWLS LOG ASCII STANDARD - VERSION 2.0
WRAP. NO  : One line per depth step
DLM . SPACE : Column Data Section Delimiter
~Well ------------------------------------------------------
STRT.F          230 : START DEPTH
STOP.F       1777.5 : STOP DEPTH
STEP.F          0.5 : STEP
NULL.       -999.25 : NULL VALUE
COMP.         WALSH & WATTS, INCORPORATED : COMPANY
WELL.                         SALMON E 44 : WELL
FLD .                             REGULAR : FIELD
CNTY.                            MONTAGUE : COUNTY
STAT.                               TEXAS : STATE
CTRY.                                 USA : COUNTRY
SEC .                                     : SECTION
TWP .                                     : TOWNSHIP
RGE .                                     : RANGE
LOC . 300' WEST OF NO 23, 300' SOUTH OF D-9, F.ROBERTSON SURV. : LOCATION
EKB .F                      862 : ELEVATION KELLY BUSHING
EDF .F                          : ELEVATION DERRICK FLOOR
EGL .F                      856 : ELEVATION GROUND LEVEL
PDAT.                        GL : PERMANENT DATUM
EPD .                       856 : ELEVATION PERMANENT DATUM
APD .                         6 : ABOVE PERMANENT DATUM
LMF .                        KB : LOG MEASURED FROM
DMF .                        KB : DRILLING MEASURED FROM
API .            42337038720000 : API NUMBER
UWI .                           : UWI NUMBER
DIGC.                     NthDS : DIGITIZING COMPANY
~Params ----------------------------------------------------
SRVC.              SCHLUMBERGER : LOGGING COMPANY
LOG .                       IEL : LOG
DATE.                1965-11-28 : RUN DATE
RUN .                         1 : RUN NUMBER
TDD .F                     1779 : TOTAL DEPTH DRILLER
TDL .F                     1779 : TOTAL DEPTH LOGGER
BOTL.F                     1778 : BOTTOM LOGGED INTERVAL
TOPL.F                          : TOP LOGGED INTERVAL
CSGS.IN                         : CASING SIZE
CSGD.F                          : CASING DRILLER
CSGL.F                          : CASING LOGGER
BS  .IN                   7.875 : BIT SIZE
MUD .                       GEL : MUD TYPE
MUDD.                        10 : MUD DENSITY
MUDV.                       9.8 : MUD VISCOSITY
PH  .                           : MUD PH
FL  .                           : FLUID LOSS
MUDS.                CIRCULATED : SOURCE OF SAMPLE
RM  .OHMM                   2.0 : MUD RESISTIVITY
RMT .DEGF                    81 : RM TEMPERATURE
RMF .OHMM                   1.5 : MUD FILTRATE RESISTIVITY
RMFT.DEGF                    81 : RMF TEMPERATURE
RMC .OHMM                       : MUD CAKE RESISTIVITY
RMCT.DEGF                       : RMC TEMPERATURE
RMFS.                         M : RMF SOURCE
RMCS.                           : RMC SOURCE
RMBH.OHMM                   1.6 : MUD RESISTIVITY AT BHT
BHT .DEGF                   100 : BOTTOM HOLE TEMPERATURE
TIMC.                           : TIME CIRCULATION STOPPED
TIML.                           : TIME LOGGER ON BOTTOM
TMAX.DEGF                   100 : MAXIMUM RECORDED TEMPERATURE
UNIT.                      4559 : EQUIPMENT NUMBER
BASE.                       WFS : BASE LOCATION
ENG .                      FINK : RECORDED BY
WIT .                       NIX : WITNESSED BY
~Curve Information -----------------------------------------
DEPT.F          :DEPTH
CILD.MMHO       :
ILD.OHMM        :
SN.OHMM         :
SP.MV           :
~ASCII ------------------------------------------------------
# ...
345.00000      112.11222        8.99361        9.03952      -62.09166
345.50000      110.11022        9.16447        9.13732      -61.33568
346.00000      108.10822        9.33573        9.23473      -61.08767
346.50000      106.10622        9.35449        9.33253      -61.35361
347.00000      108.77889        9.22155        9.42116      -61.61954
347.50000      111.44155        9.08862        9.52375      -61.88548
348.00000      114.11422        8.95529        9.62634      -62.15142
348.50000      117.54766        8.82235        9.72894      -61.93926
349.00000      120.98109        8.64431        9.54092      -61.72413
349.50000      124.41452        8.46627        9.30139      -61.51197
350.00000      127.83795        8.28822        9.04191      -61.29683
350.50000      131.27138        8.10978        8.81557      -60.97711
351.00000      134.70481        7.93173        8.46307      -60.76496
351.50000      138.13824        7.75369        7.98403      -60.80679
352.00000      141.57168        7.21237        7.50499      -61.10560
352.50000      145.00511        7.02595        7.61676      -61.55381
353.00000      148.43854        6.83952        7.72854      -62.15142
353.50000      150.40051        6.71657        7.73653      -62.74903
354.00000      150.90101        6.65668        7.64072      -63.34663
354.50000      149.64975        6.70339        7.50499      -63.94424
355.00000      146.64675        6.85708        7.38523      -63.19723
355.50000      143.64375        7.01078        7.26547      -62.45022
356.00000      142.47258        7.16407        7.14571      -61.70321
356.50000      143.14325        7.31776        7.32136      -60.95620
357.00000      143.81392        7.47106        7.49700      -60.95620
357.50000      141.85196        7.62475        7.53173      -60.95620
358.00000      139.56968        7.53692        7.42515      -60.95620
358.50000      137.27738        7.44910        7.31856      -60.95620
359.00000      137.84795        7.36128        7.37205      -60.95620
359.50000      141.28139        7.27345        7.58483      -60.95620
360.00000      144.71482        7.18563        7.35848      -60.95620
360.50000      148.14825        7.03593        7.01916      -60.95620
361.00000      146.14625        6.96207        6.99920      -60.95620
361.50000      144.14425        6.91417        7.18563      -60.95620
362.00000      146.47658        6.86627        7.37205      -60.95620
362.50000      148.81892        6.84631        7.31537      -60.95620
363.00000      151.15126        6.82635        7.01597      -60.95620
363.50000      155.15526        6.57086        6.90619      -60.95620
364.00000      159.15926        6.31537        6.98603      -60.95620
364.50000      163.16327        6.13453        6.94611      -61.30580
365.00000      167.16727        6.02794        6.78643      -61.65241
365.50000      171.17127        5.92136        6.62674      -62.00201
366.00000      167.56767        5.90140        6.55130      -62.35162
366.50000      163.96407        5.96806        6.56008      -62.69823
367.00000      159.91001        6.03473        6.56926      -62.91636
367.50000      155.40551        6.21756        6.57804      -62.65042
368.00000      150.90101        6.73852        6.58682      -62.38448
368.50000      146.39650        6.88223        6.78084      -62.11855
369.00000      141.89200        7.02595        6.97445      -61.85261
369.50000      137.38749        7.16966        7.16846      -61.58668
370.00000      134.46457        7.31337        7.36247      -61.32074
370.50000      133.13324        7.45708        7.55649      -61.05480
371.00000      131.80191        7.60080        7.75010      -60.78887
371.50000      132.80291        7.74451        7.94411      -61.07572
372.00000      134.46457        7.65030        7.92575      -61.91237
372.50000      136.13624        7.55569        7.90738      -62.74903
373.00000      137.80791        7.46148        7.88902      -63.58568
373.50000      139.46958        7.36726        7.87026      -64.42233
374.00000      141.14125        7.27265        7.85189      -64.82871
374.50000      136.80691        7.31696        7.83353      -64.80480
375.00000      132.46257        7.49940        7.87944      -64.78090
375.50000      128.12824        7.68183        7.98922      -64.75699
376.00000      125.76587        7.86427        8.09900      -64.73309
376.50000      123.39350        7.99321        8.20878      -64.70918
377.00000      121.03114        8.12215        8.52295      -64.68528
377.50000      118.66878        8.25110        8.85748      -64.66138
378.00000      116.29641        8.38004        9.00718      -64.63747
378.50000      117.44756        8.50898        9.15688      -64.61357
379.00000      122.12223        8.63792        9.30658      -64.58966
379.50000      125.94605        8.55289        9.25589      -64.56576
380.00000      129.76988        8.25349        9.00479      -64.54185
380.50000      133.58369        7.77126        8.62834      -64.08169
381.00000      137.40751        7.43832        8.43513      -63.62154
381.50000      141.23134        7.10579        8.29940      -63.16138
382.00000      141.34145        7.19720        8.16367      -62.70420
382.50000      137.73784        7.28822        8.02794      -62.24405
383.00000      134.13424        7.37964        7.89221      -61.78389
383.50000      135.46557        7.41357        7.95209      -62.35162
384.00000      136.80691        7.39082        8.20758      -63.30779
384.50000      138.13824        7.36806        8.46307      -64.42233
385.00000      136.93704        7.34531        8.91537      -65.53687
385.50000      135.73584        7.36527        9.19321      -66.65440
386.00000      136.98709        7.38523        9.29581      -67.76894
386.50000      138.82893        7.29221        9.39840      -68.88349
387.00000      140.68079        7.19880        9.50100      -70.00102
387.50000      142.52263        7.10579        9.35728      -71.11556
388.00000      144.37448        7.01277        9.21357      -71.01695
388.50000      146.22633        6.91936        9.24830      -70.91536
389.00000      146.64675        6.82635        9.46108      -70.81675
389.50000      145.64575        6.88623        9.30139      -70.71815
390.00000      144.64475        6.94611        9.14171      -70.61655
390.50000      143.64375        7.00599        9.15169      -70.51795
391.00000      144.47458        7.06587        9.33134      -70.51795
391.50000      147.14725        6.98603        9.26147      -70.51795
392.00000      149.81992        6.90619        8.94211      -70.51795
392.50000      152.48259        6.75968        8.69461      -70.51795
393.00000      155.15526        6.54690        8.51896      -70.51795
393.50000      151.15126        6.54690        8.34331      -70.51795
394.00000      141.89200        6.76647        8.43912      -70.51795
394.50000      132.63274        7.17764        8.53493      -70.51795
395.00000      123.37348        7.56088        8.72934      -70.51795
395.50000      114.11422        7.94411        9.02195      -70.51795
396.00000      105.60572        8.60279       10.31537      -70.51795
396.50000       97.09721        9.26147       11.60878      -69.80082
397.00000       92.09220       10.59201       13.38123      -69.08369
397.50000       94.09421       11.01796       15.63273      -68.36655
398.00000       96.09621       10.90618       17.88423      -67.64942
398.50000       98.09821       10.79441       15.92016      -66.93229
399.00000      102.77288       10.28223       13.95608      -66.21516
399.50000      113.51362        9.36966       12.37525      -65.49803
400.00000      130.33044        8.45748       11.17764      -64.99006
400.50000      148.47858        7.36527        9.42116      -64.43625
401.00000      153.15326        6.92615        8.46307      -64.14009
401.50000      157.82793        6.63832        7.74451      -63.84393
402.00000      160.09019        6.50140        7.66467      -63.54776
