~Version ---------------------------------------------------
VERS. 2.0 : CWLS LOG ASCII STANDARD - VERSION 2.0
WRAP. NO  : One line per depth step
DLM . SPACE : Column Data Section Delimiter
~Well ------------------------------------------------------
STRT.F          500 : START DEPTH
STOP.F       2022.5 : STOP DEPTH
STEP.F          0.5 : STEP
NULL.       -999.25 : NULL VALUE
COMP.                 WALSH & WATTS, INC. : COMPANY
WELL.                          HYNDS A 10 : WELL
FLD .                           N. NOCONA : FIELD
CNTY.                            MONTAGUE : COUNTY
STAT.                               TEXAS : STATE
CTRY.                                 USA : COUNTRY
SEC .                                     : SECTION
TWP .                                     : TOWNSHIP
RGE .                                     : RANGE
LOC .  244' SE OF NO. 5A J.J. WALL SURVEY : LOCATION
EKB .F                    903.5 : ELEVATION KELLY BUSHING
EDF .F                          : ELEVATION DERRICK FLOOR
EGL .F                      897 : ELEVATION GROUND LEVEL
PDAT.                        GL : PERMANENT DATUM
EPD .                           : ELEVATION PERMANENT DATUM
APD .                         6 : ABOVE PERMANENT DATUM
LMF .                           : LOG MEASURED FROM
DMF .                           : DRILLING MEASURED FROM
API .            42337037830000 : API NUMBER
UWI .            42337037830000 : UWI NUMBER
DIGC.                     NthDS : DIGITIZING COMPANY
~Params ----------------------------------------------------
SRVC.                LANE WELLS : LOGGING COMPANY
LOG .                       GRN : LOG
DATE.                1957-11-30 : RUN DATE
RUN .                         1 : RUN NUMBER
TDD .F                     2039 : TOTAL DEPTH DRILLER
TDL .F                     2015 : TOTAL DEPTH LOGGER
BOTL.F                     2023 : BOTTOM LOGGED INTERVAL
TOPL.F                      500 : TOP LOGGED INTERVAL
CSGS.IN                     5.5 : CASING SIZE
CSGD.F                     2038 : CASING DRILLER
CSGL.F                          : CASING LOGGER
BS  .IN                    8.75 : BIT SIZE
MUD .                     WATER : MUD TYPE
MUDD.                           : MUD DENSITY
MUDV.                           : MUD VISCOSITY
PH  .                           : MUD PH
FL  .                           : FLUID LOSS
MUDS.                           : SOURCE OF SAMPLE
RM  .OHMM                       : MUD RESISTIVITY
RMT .DEGF                       : RM TEMPERATURE
RMF .OHMM                       : MUD FILTRATE RESISTIVITY
RMFT.DEGF                       : RMF TEMPERATURE
RMC .OHMM                       : MUD CAKE RESISTIVITY
RMCT.DEGF                       : RMC TEMPERATURE
RMFS.                           : RMF SOURCE
RMCS.                           : RMC SOURCE
RMBH.OHMM                       : MUD RESISTIVITY AT BHT
BHT .DEGF                       : BOTTOM HOLE TEMPERATURE
TIMC.                           : TIME CIRCULATION STOPPED
TIML.                           : TIME LOGGER ON BOTTOM
TMAX.DEGF                       : MAXIMUM RECORDED TEMPERATURE
UNIT.                           : EQUIPMENT NUMBER
BASE.                           : BASE LOCATION
ENG .                   ROBERTS : RECORDED BY
WIT .                       NIX : WITNESSED BY
~Curve Information -----------------------------------------
DEPT.F          :DEPTH
GRN.GAPI        :
NEUT.API        :
~ASCII ------------------------------------------------------
500.00000       41.04909     1801.55531
500.50000       40.28667     1775.73560
501.00000       39.33275     1755.06895
501.50000       40.23795     1770.37336
502.00000       40.32923     1802.25073
502.50000       39.42594     1788.37674
503.00000       39.28215     1787.74284
503.50000       39.15643     1810.84415
504.00000       38.97647     1804.02712
504.50000       39.88149     1828.03505
505.00000       40.78652     1811.20898
505.50000       40.01885     1778.22699
506.00000       39.25119     1759.07998
506.50000       39.01697     1777.19491
507.00000       38.02327     1788.51021
507.50000       38.60280     1797.93974
508.00000       40.23115     1774.91241
508.50000       39.71501     1751.88508
509.00000       38.25476     1764.41524
509.50000       36.87679     1813.34817
510.00000       35.82251     1848.87709
510.50000       37.63169     1906.51702
511.00000       40.88752     1912.66809
511.50000       39.87121     1866.95721
512.00000       39.52489     1777.91006
512.50000       40.18308     1787.41213
513.00000       40.59353     1794.73831
513.50000       40.01393     1769.69481
514.00000       40.32040     1784.18675
514.50000       39.78601     1775.09622
515.00000       40.56264     1760.57643
515.50000       40.19207     1746.05316
516.00000       39.08806     1754.73927
516.50000       39.39634     1769.59038
517.00000       40.39178     1745.99746
517.50000       40.98940     1751.41975
518.00000       39.40166     1756.84553
518.50000       36.92242     1784.02662
519.00000       35.82655     1825.71357
519.50000       37.57967     1798.49419
520.00000       38.20351     1788.68881
520.50000       38.53349     1788.38128
521.00000       40.69439     1765.20889
521.50000       41.53883     1769.41632
522.00000       41.29106     1774.83861
522.50000       40.04419     1750.21563
523.00000       38.07326     1751.22829
523.50000       38.95026     1776.59615
524.00000       39.82545     1759.66127
524.50000       40.36881     1762.05547
525.00000       39.91760     1759.31821
525.50000       41.09387     1760.20742
526.00000       40.86870     1754.75032
526.50000       43.38584     1779.21504
527.00000       44.21582     1752.17698
527.50000       42.99607     1754.69810
528.00000       41.05300     1752.50482
528.50000       42.06382     1760.10299
529.00000       42.18494     1761.37298
529.50000       40.21926     1748.28216
530.00000       37.54563     1693.99469
530.50000       35.94903     1635.82690
531.00000       39.38569     1686.70695
531.50000       39.01224     1813.18068
532.00000       37.13970     1852.76429
532.50000       37.44436     1845.18570
533.00000       37.96512     1873.38220
533.50000       36.94881     1891.46086
534.00000       36.27156     1864.65852
534.50000       37.32396     1842.32021
535.00000       38.85014     1820.83413
535.50000       37.49478     1853.69064
536.00000       37.11861     1842.34053
536.50000       40.66106     1785.20628
537.00000       40.87910     1781.56241
537.50000       39.12590     1783.35823
538.00000       37.31846     1792.40699
538.50000       37.40974     1776.07049
539.00000       36.32562     1817.75744
539.50000       34.76320     1850.37823
540.00000       35.99191     1861.24023
540.50000       35.96656     1882.38325
541.00000       35.22150     1868.45835
541.50000       36.19434     1841.76828
542.00000       35.47188     1827.93404
542.50000       35.56949     1829.42162
543.00000       37.50797     1833.33893
543.50000       39.54319     1836.63974
544.00000       41.38238     1851.72308
544.50000       40.40405     1813.93603
545.00000       40.52517     1779.15895
545.50000       41.32983     1809.91211
546.00000       40.76832     1848.33524
546.50000       42.31891     1859.65055
547.00000       42.44274     1839.23427
547.50000       42.30799     1823.80438
548.00000       43.21301     1848.26562
548.50000       41.58640     1871.82025
549.00000       41.58726     1870.35225
549.50000       41.49772     1839.40109
550.00000       40.62938     1802.21961
550.50000       39.75774     1763.85827
551.00000       39.35988     1776.57963
551.50000       41.15115     1819.32822
552.00000       42.77046     1822.04050
552.50000       42.46120     1855.16219
553.00000       42.28395     1888.30207
553.50000       42.41140     1912.06981
554.00000       40.44301     1896.58377
554.50000       41.44840     1889.28347
555.00000       41.78109     1882.16866
555.50000       40.24489     1861.22311
556.00000       40.78825     1870.12282
556.50000       39.82800     1871.68861
557.00000       39.16251     1845.52014
557.50000       40.33895     1880.88022
558.00000       39.88774     1926.92272
558.50000       38.58843     1956.47753
559.00000       37.80992     1953.42094
559.50000       37.20048     1925.90580
560.00000       37.96265     1889.09131
560.50000       39.71125     1850.85736
561.00000       41.82152     1829.00190
561.50000       43.31153     1847.17577
562.00000       42.84857     1865.36361
562.50000       44.50676     1852.60731
563.00000       43.22643     1824.14586
563.50000       42.51952     1801.61007
564.00000       39.80792     1785.21760
564.50000       40.22470     1739.70432
565.00000       40.98506     1780.08713
565.50000       38.27345     1859.77833
566.00000       30.67940     1938.01367
566.50000       30.04736     2005.33001
567.00000       30.92797     2018.30614
567.50000       33.51744     1992.30147
568.00000       36.10781     1879.70915
568.50000       34.48120     1778.87295
569.00000       34.39165     1818.70982
569.50000       32.13213     1932.43189
570.00000       28.72161     2045.24404
570.50000       25.02357     2144.58944
571.00000       23.88430     2188.06597
571.50000       21.46654     2223.36796
572.00000       20.38242     2257.76702
572.50000       22.07152     2285.97515
573.00000       25.83911     2237.25896
573.50000       29.60760     2204.17513
574.00000       33.37609     2128.81659
574.50000       37.14368     2035.98766
575.00000       40.91217     1903.11891
575.50000       39.91847     1815.74947
576.00000       38.45008     1744.75853
576.50000       37.67807     1750.20056
577.00000       38.14277     1704.15952
577.50000       38.79734     1728.85538
578.00000       39.34161     1720.66686
578.50000       39.47177     1738.17438
579.00000       37.93557     1742.37893
579.50000       37.16791     1713.93567
580.00000       36.18053     1744.61878
580.50000       35.58737     1779.17813
581.00000       36.38841     1792.50003
581.50000       37.18856     1766.40436
582.00000       37.48870     1746.36873
582.50000       37.03749     1731.78911
583.00000       37.77451     1704.47415
583.50000       38.12439     1739.76143
584.00000       35.02852     1786.33168
584.50000       33.78617     1819.07120
585.00000       33.87745     1857.27022
585.50000       33.24541     1908.20806
586.00000       31.95062     1968.24507
586.50000       31.16758     2011.90359
587.00000       32.67568     2008.24645
587.50000       34.12863     1911.77785
588.00000       35.56801     1809.48579
588.50000       36.41517     1783.44471
589.00000       36.14496     1803.99135
589.50000       37.04999     1834.67446
590.00000       37.35827     1826.15837
590.50000       36.12496     1807.94257
591.00000       35.60594     1817.02427
591.50000       34.61223     1810.32801
592.00000       36.42142     1793.13132
592.50000       38.32102     1820.61153
593.00000       35.73871     1871.54937
593.50000       34.18352     1918.24701
594.00000       35.13918     1960.68623
594.50000       35.15994     1895.15129
595.00000       35.07039     1839.62893
595.50000       36.29204     1813.22389
596.00000       37.98821     1845.70863
596.50000       38.36430     1840.94140
597.00000       37.24401     1835.61002
597.50000       36.68430     1785.85652
598.00000       34.36510     1733.51886
598.50000       32.14717     1685.73079
599.00000       32.13899     1749.40746
599.50000       31.82341     1878.59811
