~Version ---------------------------------------------------
VERS. 2.0 : CWLS LOG ASCII STANDARD - VERSION 2.0
WRAP. NO  : One line per depth step
DLM . SPACE : Column Data Section Delimiter
~Well ------------------------------------------------------
STRT.F          100 : START DEPTH
STOP.F       1218.0 : STOP DEPTH
STEP.F          0.5 : STEP
NULL.       -999.25 : NULL VALUE
COMP.                       WALSH & WATTS : COMPANY
WELL.                          SALMON A 6 : WELL
FLD .                          OLD NOCONA : FIELD
CNTY.                            MONTAGUE : COUNTY
STAT.                               TEXAS : STATE
CTRY.                                 USA : COUNTRY
SEC .                                     : SECTION
TWP .                                     : TOWNSHIP
RGE .                                     : RANGE
LOC .                                     : LOCATION
EKB .F                          : ELEVATION KELLY BUSHING
EDF .F                      884 : ELEVATION DERRICK FLOOR
EGL .F                      878 : ELEVATION GROUND LEVEL
PDAT.                           : PERMANENT DATUM
EPD .                           : ELEVATION PERMANENT DATUM
APD .                       5.5 : ABOVE PERMANENT DATUM
LMF .                       KDB : LOG MEASURED FROM
DMF .                       KDB : DRILLING MEASURED FROM
API .            42337039770000 : API NUMBER
UWI .                           : UWI NUMBER
DIGC.                     NthDS : DIGITIZING COMPANY
~Params ----------------------------------------------------
SRVC.     THE ELGEN CORPORATION : LOGGING COMPANY
LOG .                        EL : LOG
DATE.                1954-12-19 : RUN DATE
RUN .                         1 : RUN NUMBER
TDD .F                     1217 : TOTAL DEPTH DRILLER
TDL .F                     1219 : TOTAL DEPTH LOGGER
BOTL.F                     1218 : BOTTOM LOGGED INTERVAL
TOPL.F                      100 : TOP LOGGED INTERVAL
CSGS.IN                         : CASING SIZE
CSGD.F                          : CASING DRILLER
CSGL.F                          : CASING LOGGER
BS  .IN                    8.75 : BIT SIZE
MUD .                       GEL : MUD TYPE
MUDD.                        10 : MUD DENSITY
MUDV.                        60 : MUD VISCOSITY
PH  .                           : MUD PH
FL  .                           : FLUID LOSS
MUDS.                           : SOURCE OF SAMPLE
RM  .OHMM                   2.4 : MUD RESISTIVITY
RMT .DEGF                    58 : RM TEMPERATURE
RMF .OHMM                       : MUD FILTRATE RESISTIVITY
RMFT.DEGF                       : RMF TEMPERATURE
RMC .OHMM                       : MUD CAKE RESISTIVITY
RMCT.DEGF                       : RMC TEMPERATURE
RMFS.                           : RMF SOURCE
RMCS.                           : RMC SOURCE
RMBH.OHMM                       : MUD RESISTIVITY AT BHT
BHT .DEGF                       : BOTTOM HOLE TEMPERATURE
TIMC.                           : TIME CIRCULATION STOPPED
TIML.                           : TIME LOGGER ON BOTTOM
TMAX.DEGF                       : MAXIMUM RECORDED TEMPERATURE
UNIT.                           : EQUIPMENT NUMBER
BASE.                           : BASE LOCATION
ENG .                 STONE-302 : RECORDED BY
WIT .                      TODD : WITNESSED BY
~Curve Information -----------------------------------------
DEPT.F          :DEPTH
LAT.OHMM        :
LN.OHMM         :
SN.OHMM         :
SP.MV           :
~ASCII ------------------------------------------------------
# ...
962.50000        2.45374        2.41119        3.78047      -56.79605
963.00000        2.67580        2.40867        3.79428      -57.51004
963.50000        2.89786        2.48866        3.83502      -58.92576
964.00000        3.11993        2.48614        3.88293      -60.34148
964.50000        3.23607        2.56612        3.93085      -62.10807
965.00000        3.19422        2.56360        3.97787      -64.57640
965.50000        3.15237        2.64359        4.02579      -67.39560
966.00000        3.10198        2.72358        4.04721      -70.21724
966.50000        3.06013        2.72106        4.03588      -71.63296
967.00000        3.01829        2.80104        4.02366      -69.89087
967.50000        2.97644        2.71602        4.01233      -69.20138
968.00000        3.00910        2.79600        4.00100      -70.26623
968.50000        3.05971        2.71098        3.98968      -72.03282
969.00000        3.11032        2.79096        3.97835      -73.44855
969.50000        3.16183        2.78844        3.96613      -73.46079
970.00000        3.21244        2.86843        3.95480      -71.71870
970.50000        3.26395        2.86591        3.94347      -70.67834
971.00000        3.31456        2.78088        3.93215      -68.93625
971.50000        3.36517        2.77836        3.92082      -67.54502
972.00000        3.41668        2.77584        3.90860      -65.80293
972.50000        3.46729        2.69031        3.89727      -64.76257
973.00000        3.52821        2.77030        3.88594      -64.42395
973.50000        3.57972        2.68527        3.87235      -63.73446
974.00000        3.63033        2.68275        3.86102      -63.04497
974.50000        3.68184        2.59773        3.84880      -62.70635
975.00000        3.73245        2.59521        3.83747      -63.77120
975.50000        3.78306        2.59269        3.85218      -64.83605
976.00000        3.83457        2.67267        3.97281      -66.60264
976.50000        3.88518        2.58765        4.09254      -68.72010
977.00000        3.93669        2.58513        4.21227      -71.89017
977.50000        3.98730        2.58261        4.33290      -74.70937
978.00000        4.01457        2.58009        4.32426      -77.17769
978.50000        4.03466        2.57757        4.28421      -76.13734
979.00000        4.05565        2.57505        4.24326      -72.64090
979.50000        4.07574        2.57253        4.20321      -69.84620
980.00000        4.09673        2.65251        4.16316      -65.99889
980.50000        4.12174        2.73250        4.11456      -64.25680
981.00000        4.14183        2.64747        4.07361      -63.91817
981.50000        4.14936        2.56245        4.03356      -64.28129
982.00000        4.10033        2.64243        3.99351      -66.39875
982.50000        4.05220        2.55690        3.95256      -68.16534
983.00000        4.00407        2.55438        3.91251      -70.63367
983.50000        3.95594        2.55186        3.87964      -72.40026
984.00000        3.90691        2.46683        3.87729      -73.81598
984.50000        3.85878        2.46431        3.87494      -72.77562
985.00000        3.81065        2.46179        3.87259      -70.33179
985.50000        3.76701        2.45927        3.87024      -67.88796
986.00000        3.73144        2.37425        3.86789      -66.84760
986.50000        3.69678        2.45423        3.86554      -64.40377
987.00000        3.66121        2.45171        3.86319      -61.60907
987.50000        3.61890        2.53170        3.84870      -59.86697
988.00000        3.58333        2.52918        3.82750      -59.17748
988.50000        3.54777        2.52666        3.80629      -60.24234
989.00000        3.51221        2.52414        3.78509      -62.00893
989.50000        3.47664        2.52162        3.76389      -63.07378
990.00000        3.44108        2.51910        3.74269      -63.78777
990.50000        3.40552        2.59909        3.72149      -63.80001
991.00000        3.37085        2.59657        3.69939      -63.11053
991.50000        3.33529        2.59405        3.67819      -62.77190
992.00000        3.29973        2.67353        3.65699      -63.13502
992.50000        3.26416        2.58850        3.63579      -63.84901
993.00000        3.22860        2.58598        3.61459      -65.26718
993.50000        3.19304        2.58346        3.59339      -66.33203
994.00000        3.15837        2.58094        3.57219      -67.04602
994.50000        3.11516        2.57842        3.57924      -68.11087
995.00000        3.13704        2.57590        3.61280      -68.12312
995.50000        3.17329        2.65589        3.64635      -68.13537
996.00000        3.20864        2.65337        3.67991      -67.09501
996.50000        3.24489        2.65085        3.71347      -65.35291
997.00000        3.28024        2.64833        3.74702      -64.31255
997.50000        3.31649        2.72832        3.78058      -65.02654
998.00000        3.35184        2.72580        3.81413      -67.84574
998.50000        3.38809        2.80578        3.84769      -70.31406
999.00000        3.42344        2.80326        3.88125      -71.02805
999.50000        3.44892        2.80074        3.91480      -71.39116
1000.00000        3.67768        3.05275        4.16428      -69.47371
1000.50000        3.69196        3.05023        4.20714      -68.42108
1001.00000        3.70357        3.13021        4.24286      -66.66670
1001.50000        3.71518        3.04519        4.27857      -65.26319
1002.00000        3.72768        3.04267        4.30803      -63.50880
1002.50000        3.73928        3.12265        4.33482      -61.75442
1003.00000        3.75089        3.20214        4.36250      -61.05266
1003.50000        3.76339        3.11711        4.39018      -60.70178
1004.00000        3.77500        3.11459        4.41786      -61.40354
1004.50000        3.78661        3.19458        4.44464      -62.10529
1005.00000        3.79911        3.27456        4.47232      -62.80705
1005.50000        3.81071        3.35455        4.50000      -63.15792
1006.00000        3.82232        3.43454        4.52768      -63.15792
1006.50000        3.83482        3.51452        4.55536      -64.21056
1007.00000        3.77678        3.51200        4.58214      -65.96494
1007.50000        3.67232        3.67450        4.60982      -67.71933
1008.00000        3.56786        3.83699        4.63750      -69.47371
1008.50000        3.46339        3.83447        4.78303      -71.92985
1009.00000        3.35893        3.91446        4.95714      -73.68424
1009.50000        3.25446        4.07695        5.13214      -75.78950
1010.00000        3.15000        4.15694        5.30625      -77.19301
1010.50000        3.04554        4.23692        5.54732      -78.94739
1011.00000        2.94107        4.31691        6.05268      -81.05266
1011.50000        2.87411        4.47940        6.55803      -84.56143
1012.00000        2.95714        4.55939        7.06339      -89.47371
1012.50000        3.04018        4.63938        7.56786      -94.73686
1013.00000        3.13929        4.80187        8.17411      -98.24564
1013.50000        3.22232        5.04586        8.67946     -101.05265
1014.00000        3.30536        5.18544        9.18482     -102.45616
1014.50000        3.38839        5.41889        9.72857     -103.50879
1015.00000        3.47143        5.65233       10.28214     -104.56142
1015.50000        3.55446        5.88578       10.83571     -105.61406
1016.00000        3.77589        6.02435       11.38928     -106.31581
1016.50000        4.03036        6.02183       11.94285     -106.66669
1017.00000        4.28571        6.01931       12.91696     -107.01756
1017.50000        4.54107        6.01679       13.99553     -107.36844
1018.00000        4.79553        6.01427       15.07410     -107.71932
1018.50000        5.12232        6.01074       16.15357     -108.42107
1019.00000        5.73214        6.09123       17.23214     -109.82458
