~Version ---------------------------------------------------
VERS. 2.0 : CWLS LOG ASCII STANDARD - VERSION 2.0
WRAP. NO  : One line per depth step
DLM . SPACE : Column Data Section Delimiter
~Well ------------------------------------------------------
STRT.F          642 : START DEPTH
STOP.F       1779.0 : STOP DEPTH
STEP.F          0.5 : STEP
NULL.       -999.25 : NULL VALUE
COMP.                       WALSH & WATTS : COMPANY
WELL.                        SALMON E 24  : WELL
FLD .                               NORTH : FIELD
CNTY.                            MONTAGUE : COUNTY
STAT.                               TEXAS : STATE
CTRY.                                 USA : COUNTRY
SEC .                                     : SECTION
TWP .                                     : TOWNSHIP
RGE .                                     : RANGE
LOC .                 SW CORNER OF LEAGUE : LOCATION
EKB .F                          : ELEVATION KELLY BUSHING
EDF .F                          : ELEVATION DERRICK FLOOR
EGL .F                      850 : ELEVATION GROUND LEVEL
PDAT.                        GL : PERMANENT DATUM
EPD .                       850 : ELEVATION PERMANENT DATUM
APD .                         5 : ABOVE PERMANENT DATUM
LMF .                        RT : LOG MEASURED FROM
DMF .                        RT : DRILLING MEASURED FROM
API .            42337038630000 : API NUMBER
UWI .                           : UWI NUMBER
DIGC.                     NthDS : DIGITIZING COMPANY
~Params ----------------------------------------------------
SRVC.              SCHLUMBERGER : LOGGING COMPANY
LOG .                       GRN : LOG
DATE.                1964-03-24 : RUN DATE
RUN .                         1 : RUN NUMBER
TDD .F                     1783 : TOTAL DEPTH DRILLER
TDL .F                     1782 : TOTAL DEPTH LOGGER
BOTL.F                     1780 : BOTTOM LOGGED INTERVAL
TOPL.F                      650 : TOP LOGGED INTERVAL
CSGS.IN                     4.5 : CASING SIZE
CSGD.F                     1802 : CASING DRILLER
CSGL.F                          : CASING LOGGER
BS  .IN                       9 : BIT SIZE
MUD .                     WATER : MUD TYPE
MUDD.                           : MUD DENSITY
MUDV.                           : MUD VISCOSITY
PH  .                           : MUD PH
FL  .                           : FLUID LOSS
MUDS.                           : SOURCE OF SAMPLE
RM  .OHMM                       : MUD RESISTIVITY
RMT .DEGF                       : RM TEMPERATURE
RMF .OHMM                       : MUD FILTRATE RESISTIVITY
RMFT.DEGF                       : RMF TEMPERATURE
RMC .OHMM                       : MUD CAKE RESISTIVITY
RMCT.DEGF                       : RMC TEMPERATURE
RMFS.                           : RMF SOURCE
RMCS.                           : RMC SOURCE
RMBH.OHMM                       : MUD RESISTIVITY AT BHT
BHT .DEGF                       : BOTTOM HOLE TEMPERATURE
TIMC.                           : TIME CIRCULATION STOPPED
TIML.                           : TIME LOGGER ON BOTTOM
TMAX.DEGF                   107 : MAXIMUM RECORDED TEMPERATURE
UNIT.                           : EQUIPMENT NUMBER
BASE.                           : BASE LOCATION
ENG .                    MCCUNE : RECORDED BY
WIT .                       NIX : WITNESSED BY
~Curve Information -----------------------------------------
DEPT.F          :DEPTH
GRN.GAPI        :
NEUT.API        :
~ASCII ------------------------------------------------------
# ...
1629.00000       59.60720      493.18678
1629.50000       57.68336      490.52144
1630.00000       56.24047      490.52144
1630.50000       54.47694      503.84811
1631.00000       53.67534      521.17279
1631.50000       55.75951      538.49746
1632.00000       58.64528      561.15280
1632.50000       61.53105      597.13482
1633.00000       61.85169      646.44350
1633.50000       57.20239      710.41153
1634.00000       50.46893      767.71621
1634.50000       45.17835      823.68824
1635.00000       41.01001      866.33358
1635.50000       36.52104      896.98493
1636.00000       32.67334      908.97893
1636.50000       31.23046      922.30561
1637.00000       30.90982      935.63228
1637.50000       29.78757      955.62228
1638.00000       28.34469      982.27563
1638.50000       27.54308      996.93497
1639.00000       28.18437     1000.93297
1639.50000       29.78757     1007.59630
1640.00000       32.51302     1023.58831
1640.50000       34.27655     1038.24765
1641.00000       33.47495     1056.90499
1641.50000       32.83366     1076.89500
1642.00000       33.15430     1106.21367
1642.50000       33.63527     1134.19969
1643.00000       34.27655     1158.18769
1643.50000       34.43687     1178.17770
1644.00000       33.15430     1159.52036
1644.50000       31.55110     1126.20368
1645.00000       30.10821     1092.88700
1645.50000       29.94789     1063.56833
1646.00000       30.42885     1050.24165
1646.50000       30.10821     1040.91298
1647.00000       29.30661     1015.59231
1647.50000       28.82565      983.60830
1648.00000       29.46693      948.95895
1648.50000       32.51302      898.31760
1649.00000       35.07815      866.33358
1649.50000       36.20040      837.01491
1650.00000       37.96392      818.35757
1650.50000       39.72745      809.02890
1651.00000       39.40681      798.36756
1651.50000       39.56713      798.36756
1652.00000       40.04809      809.02890
1652.50000       40.68937      809.02890
1653.00000       41.01001      801.03289
1653.50000       41.33066      794.36956
1654.00000       41.17033      787.70622
1654.50000       40.84969      793.03689
1655.00000       40.36873      797.03489
1655.50000       39.88777      799.70023
1656.00000       38.12424      813.02690
1656.50000       36.68136      829.68524
1657.00000       35.55911      832.12402
1657.50000       37.32264      810.36156
1658.00000       42.13226      783.70822
1658.50000       49.66733      757.05488
1659.00000       58.16432      734.39953
1659.50000       63.93586      719.74020
1660.00000       68.10420      713.07686
1660.50000       66.30059      722.40553
1661.00000       63.61522      737.06487
1661.50000       60.40881      741.06287
1662.00000       56.72143      741.06287
1662.50000       54.63727      733.06687
1663.00000       53.51502      729.06887
1663.50000       52.39278      718.40753
1664.00000       51.43085      707.74619
1664.50000       51.43085      690.42152
1665.00000       51.43085      678.42751
1665.50000       53.99598      651.77417
1666.00000       56.88175      627.78616
1666.50000       58.80560      606.46349
1667.00000       60.24849      601.13282
1667.50000       61.85169      598.46748
1668.00000       64.09618      603.79815
1668.50000       66.98195      611.79416
1669.00000       63.93586      609.12882
1669.50000       59.92784      595.80215
1670.00000       56.24047      574.47947
1670.50000       54.95791      547.82613
1671.00000       55.91983      535.83213
1671.50000       59.60720      530.50146
1672.00000       62.97394      530.50146
1672.50000       64.25650      538.49746
1673.00000       65.21842      549.15880
1673.50000       66.58115      542.49546
1674.00000       67.78355      537.16479
1674.50000       65.91261      534.49946
1675.00000       64.09618      537.16479
1675.50000       63.77554      539.83013
1676.00000       66.18035      545.16080
1676.50000       70.50900      546.49346
1677.00000       73.61922      551.82413
1677.50000       72.47293      550.49147
1678.00000       70.50900      561.15280
1678.50000       68.10420      561.15280
1679.00000       68.10420      557.15480
1679.50000       69.38676      569.14881
1680.00000       71.47093      601.13282
1680.50000       74.35670      649.10884
1681.00000       76.28055      710.41153
1681.50000       74.19638      773.04688
1682.00000       67.78355      854.33958
1682.50000       56.08015      914.30960
1683.00000       43.89578      955.18250
1683.50000       37.32264      968.94896
1684.00000       35.07815      948.95895
1684.50000       35.71943      911.64427
1685.00000       36.68136      866.33358
1685.50000       38.28456      833.01691
1686.00000       40.04809      799.70023
1686.50000       39.88777      775.71222
1687.00000       40.36873      753.05688
1687.50000       42.77354      734.39953
1688.00000       46.30059      735.73220
1688.50000       49.98797      755.72221
1689.00000       51.59117      806.36356
1689.50000       50.62925      862.33558
1690.00000       49.18636      918.30760
1690.50000       48.06412      980.94296
1691.00000       48.06412     1018.25764
1691.50000       47.42284     1030.25165
1692.00000       46.78156     1019.59031
1692.50000       47.58316      996.93497
1693.00000       48.06412      966.28362
1693.50000       47.10220      931.63428
1694.00000       48.22444      891.65426
1694.50000       50.94989      858.33758
1695.00000       55.75951      825.02090
1695.50000       58.96592      814.35956
1696.00000       58.96592      819.69023
1696.50000       56.24047      819.69023
1697.00000       51.11021      810.36156
1697.50000       43.89578      805.03089
1698.00000       40.36873      821.02290
1698.50000       41.49098      835.68224
1699.00000       44.85771      846.34358
1699.50000       47.90380      844.34458
1700.00000       54.15630      835.68224
1700.50000       59.60720      835.68224
1701.00000       65.16552      830.35157
1701.50000       67.50299      811.69423
1702.00000       62.49297      789.03889
1702.50000       53.83566      765.05088
1703.00000       49.66733      730.40153
1703.50000       49.50701      693.08685
1704.00000       50.62925      646.44350
1704.50000       52.07214      606.46349
1705.00000       56.08015      579.81014
1705.50000       62.33265      565.15080
1706.00000       70.66933      567.81614
1706.50000       76.60119      575.81214
1707.00000       79.80760      579.81014
1707.50000       81.57113      587.80615
1708.00000       82.69337      609.12882
1708.50000       81.25048      637.11483
1709.00000       76.12023      651.77417
1709.50000       69.22644      650.44150
1710.00000       63.13426      638.44750
1710.50000       59.92784      621.12283
1711.00000       59.60720      598.46748
1711.50000       59.60720      593.13681
1712.00000       60.56913      598.46748
1712.50000       60.56913      601.13282
1713.00000       57.84368      587.80615
1713.50000       55.27855      574.47947
1714.00000       55.91983      566.48347
1714.50000       57.20239      565.15080
1715.00000       59.28656      565.15080
1715.50000       62.65330      566.48347
1716.00000       64.73746      566.48347
1716.50000       65.69939      569.14881
1717.00000       66.66131      571.81414
1717.50000       66.66131      569.14881
1718.00000       67.30259      567.81614
1718.50000       68.74548      559.82014
1719.00000       70.82965      547.82613
1719.50000       71.31061      543.82813
1720.00000       71.15029      547.82613
1720.50000       72.11221      555.82213
1721.00000       73.71542      563.81814
1721.50000       74.51702      571.81414
1722.00000       74.03606      577.14481
1722.50000       70.34868      586.47348
1723.00000       66.18035      593.13681
1723.50000       64.25650      593.13681
1724.00000       65.21842      589.13881
1724.50000       65.53907      586.47348
1725.00000       64.25650      582.47548
1725.50000       64.41682      577.14481
1726.00000       64.41682      570.48147
1726.50000       62.81362      569.14881
