~Version ---------------------------------------------------
VERS. 2.0 : CWLS LOG ASCII STANDARD - VERSION 2.0
WRAP. NO  : One line per depth step
DLM . SPACE : Column Data Section Delimiter
~Well ------------------------------------------------------
STRT.F          780 : START DEPTH
STOP.F       1761.5 : STOP DEPTH
STEP.F          0.5 : STEP
NULL.       -999.25 : NULL VALUE
COMP.                 WALSH & WATTS, INC. : COMPANY
WELL.                         SALMON E 42 : WELL
FLD .                        NORTH NOCONA : FIELD
CNTY.                            MONTAGUE : COUNTY
STAT.                               TEXAS : STATE
CTRY.                                 USA : COUNTRY
SEC .                                     : SECTION
TWP .                                     : TOWNSHIP
RGE .                                     : RANGE
LOC . 150' FSL & 300' W OF WELL NO. 1, 407' E OF WELL NO. 5, F. ROBERTSON SURVEY : LOCATION
EKB .F                      880 : ELEVATION KELLY BUSHING
EDF .F                          : ELEVATION DERRICK FLOOR
EGL .F                      874 : ELEVATION GROUND LEVEL
PDAT.              GROUND LEVEL : PERMANENT DATUM
EPD .                       874 : ELEVATION PERMANENT DATUM
APD .                         6 : ABOVE PERMANENT DATUM
LMF .                        KB : LOG MEASURED FROM
DMF .                        KB : DRILLING MEASURED FROM
API .            42337037780000 : API NUMBER
UWI .            42337037780000 : UWI NUMBER
DIGC.                     NthDS : DIGITIZING COMPANY
~Params ----------------------------------------------------
SRVC.                LANE WELLS : LOGGING COMPANY
LOG .                        AC : LOG
DATE.                1965-11-21 : RUN DATE
RUN .                         1 : RUN NUMBER
TDD .F                     1766 : TOTAL DEPTH DRILLER
TDL .F                     1768 : TOTAL DEPTH LOGGER
BOTL.F                     1762 : BOTTOM LOGGED INTERVAL
TOPL.F                      790 : TOP LOGGED INTERVAL
CSGS.IN                         : CASING SIZE
CSGD.F                          : CASING DRILLER
CSGL.F                          : CASING LOGGER
BS  .IN                   7.875 : BIT SIZE
MUD .              CHEMICAL GEL : MUD TYPE
MUDD.                       9.8 : MUD DENSITY
MUDV.                       123 : MUD VISCOSITY
PH  .                           : MUD PH
FL  .                           : FLUID LOSS
MUDS.                CIRCULATED : SOURCE OF SAMPLE
RM  .OHMM                   2.1 : MUD RESISTIVITY
RMT .DEGF                    70 : RM TEMPERATURE
RMF .OHMM                  1.81 : MUD FILTRATE RESISTIVITY
RMFT.DEGF                    70 : RMF TEMPERATURE
RMC .OHMM                  2.34 : MUD CAKE RESISTIVITY
RMCT.DEGF                    70 : RMC TEMPERATURE
RMFS.                  MEASURED : RMF SOURCE
RMCS.                           : RMC SOURCE
RMBH.OHMM                   1.5 : MUD RESISTIVITY AT BHT
BHT .DEGF                    98 : BOTTOM HOLE TEMPERATURE
TIMC.                           : TIME CIRCULATION STOPPED
TIML.                           : TIME LOGGER ON BOTTOM
TMAX.DEGF                    98 : MAXIMUM RECORDED TEMPERATURE
UNIT.                    L-4553 : EQUIPMENT NUMBER
BASE.                      W.F. : BASE LOCATION
ENG .                     ADAMS : RECORDED BY
WIT .   MR. HARRELSON & MR. NIX : WITNESSED BY
~Curve Information -----------------------------------------
DEPT.F          :DEPTH
CALI.IN         :
DT.US/F         :
SP.MV           :
~ASCII ------------------------------------------------------
# ...
1142.00000        7.44926       95.60971      -77.38298
1142.50000        7.43271      108.17343      -70.11053
1143.00000        7.53118      107.60417      -63.64737
1143.50000        7.62965      100.62978      -57.18420
1144.00000        8.09373       88.47667      -58.16170
1144.50000        8.36512       78.86079      -60.99492
1145.00000        8.26102       83.34511      -63.02182
1145.50000        8.02345       90.40837      -63.91632
1146.00000        7.82548       94.11713      -63.32861
1146.50000        7.81347       95.27775      -62.14802
1147.00000        7.92538       94.86538      -60.67099
1147.50000        8.03729       92.09553      -60.08328
1148.00000        8.14920       89.32469      -59.19913
1148.50000        8.23877       93.97421      -58.90787
1149.00000        8.22756       96.15369      -59.20948
1149.50000        8.17346       91.55068      -60.10398
1150.00000        8.14284       86.86565      -59.82096
1150.50000        8.26650       88.89026      -60.42243
1151.00000        8.39017       91.54572      -61.02286
1151.50000        8.32573       94.20117      -61.02805
1152.00000        8.13610       96.85562      -60.73563
1152.50000        8.09521      101.05967      -59.84797
1153.00000        8.21708      104.98576      -58.06746
1153.50000        8.33876      102.69896      -55.39410
1154.00000        8.46044      100.41215      -53.91121
1154.50000        8.58231      102.47457      -52.42832
1155.00000        8.61550      103.59968      -50.64781
1155.50000        8.57448      104.09893      -49.16492
1156.00000        8.62116      104.69802      -48.87250
1156.50000        8.66763       98.31473      -49.17531
1157.00000        8.71431       89.89229      -50.37201
1157.50000        8.65345       83.06123      -53.05576
1158.00000        8.52076      100.46619      -56.03713
1158.50000        8.21281      113.46322      -58.12564
1159.00000        7.93151      103.91243      -59.61892
1159.50000        8.00914       98.54106      -60.21935
1160.00000        8.32625      101.77661      -59.92693
1160.50000        8.64337      105.65927      -59.63450
1161.00000        8.69064      106.68587      -58.74685
1161.50000        8.57363      102.52843      -59.64593
1162.00000        8.45661       90.98795      -60.54398
1162.50000        8.33940       85.75554      -62.03726
1163.00000        8.34005       89.36656      -63.23292
1163.50000        8.24360       93.36827      -63.53573
1164.00000        8.08334       96.16900      -63.24435
1164.50000        7.92307       94.40159      -62.35565
1165.00000        7.80983       93.30483      -61.17038
1165.50000        7.88389       94.88964      -60.28272
1166.00000        8.07203       96.47445      -59.99030
1166.50000        8.33617       97.10041      -60.29311
1167.00000        8.18245       94.16286      -62.08505
1167.50000        8.27595       94.10589      -64.76880
1168.00000        8.21350       98.37228      -67.45254
1168.50000        7.98836       97.00188      -69.83868
1169.00000        7.71810       95.63049      -69.54625
1169.50000        7.76339       94.26010      -67.76575
1170.00000        7.97653       92.88971      -65.98524
1170.50000        8.23749       91.51832      -65.69281
1171.00000        8.08834       90.90613      -66.59086
1171.50000        8.20704       93.80770      -67.48891
1172.00000        8.12277       95.16664      -68.09037
1172.50000        8.03849       96.52459      -67.50033
1173.00000        7.97981       92.61888      -66.01744
1173.50000        7.95963       90.33208      -64.83217
1174.00000        7.97376       95.87308      -64.24213
1174.50000        8.05271      102.27612      -64.24732
1175.00000        8.03391       95.85268      -64.25252
1175.50000        7.99388       89.74201      -63.36486
1176.00000        8.16417       96.34406      -62.17959
1176.50000        8.10014      104.17360      -60.10146
1177.00000        8.03590      105.62309      -58.61857
1177.50000        8.00778      103.27261      -56.83806
1178.00000        8.12310      101.85445      -55.35517
1178.50000        8.23843      104.62368      -53.57570
1179.00000        8.35396      105.80750      -52.09281
1179.50000        8.30302      104.70676      -51.50277
1180.00000        8.15141      105.08162      -50.91273
1180.50000        8.20067       99.21275      -50.02507
1181.00000        8.12592       89.94091      -49.73265
1181.50000        8.14045       87.87301      -49.73784
1182.00000        8.28891       94.01501      -50.63589
1182.50000        8.18083      103.38186      -51.83155
1183.00000        8.00846      108.58491      -54.21768
1183.50000        7.83609      105.15383      -56.30620
1184.00000        8.00638      102.86404      -57.50290
1184.50000        8.26238      105.14039      -56.91286
1185.00000        8.37612      104.00482      -55.72759
1185.50000        8.27657      105.03839      -55.13755
1186.00000        8.27040      108.08787      -55.14274
1186.50000        8.23394      112.33570      -55.44555
1187.00000        8.07923      114.82498      -55.74836
1187.50000        7.92452      115.14015      -55.45594
1188.00000        7.77001      113.06130      -54.86590
1188.50000        7.85121      110.98245      -54.27586
1189.00000        7.99134      110.02499      -53.09059
1189.50000        8.06738      109.06653      -52.20293
1190.00000        8.04720      107.20659      -51.01869
1190.50000        8.02701       99.82529      -50.42865
1191.00000        8.02838       88.30471      -51.62432
1191.50000        8.05105       84.02787      -51.92713
1192.00000        8.07352       86.21864      -53.71803
1192.50000        8.09599       92.27805      -56.69939
1193.00000        8.11866       99.78755      -61.46646
1193.50000        8.05264      100.15446      -66.23353
1194.00000        7.85388       96.95821      -72.78734
1194.50000        7.65512       91.70028      -81.12582
1195.00000        7.66827       91.17167      -84.40480
1195.50000        7.68122       93.82612      -82.92191
1196.00000        7.69436       94.19303      -80.54616
1196.50000        7.71002       97.24251      -76.08710
1197.00000        7.72296       98.17658      -71.62804
1197.50000        7.73611       97.60618      -66.27612
1198.00000        7.74906      106.04105      -63.60276
1198.50000        7.73066      109.92336      -66.97103
1199.00000        7.70412      108.02859      -71.18156
1199.50000        7.67778      106.13382      -76.23538
1200.00000        7.69959      104.06057      -79.89768
1200.50000        7.72000      102.05138      -82.51449
1201.00000        7.74468      100.01332      -82.12540
1201.50000        7.76509       95.51360      -79.16617
1202.00000        7.82759       91.58202      -74.46683
1202.50000        7.95294       97.12338      -69.33468
1203.00000        8.02631      103.09523      -64.20254
1203.50000        7.89118      104.12482      -70.26207
1204.00000        7.75605      105.15540      -77.54486
1204.50000        7.74418      106.18499      -86.60927
1205.00000        7.73435      104.32142      -91.35749
1205.50000        7.72432      101.76098      -91.95658
1206.00000        7.71449       97.74384      -89.29379
1206.50000        7.70446       92.54959      -86.63100
1207.00000        7.69463       91.42795      -81.59668
1207.50000        7.80429       90.66352      -76.85880
1208.00000        7.89565       88.32696      -71.23160
1208.50000        7.94570       88.05009      -66.49372
1209.00000        7.93369       89.14635      -63.53448
1209.50000        7.92149       90.87942      -61.46457
1210.00000        7.90948       93.34383      -59.69214
1210.50000        7.89484       96.85335      -59.10443
1211.00000        7.88284       95.26306      -57.33096
1211.50000        7.87063       98.05085      -55.85393
1212.00000        7.85863      103.91225      -54.67334
1212.50000        7.88141      110.26056      -53.19631
1213.00000        8.04410      108.86231      -51.12640
