~Version ---------------------------------------------------
VERS. 2.0 : CWLS LOG ASCII STANDARD - VERSION 2.0
WRAP. NO  : One line per depth step
DLM . SPACE : Column Data Section Delimiter
~Well ------------------------------------------------------
STRT.F          800 : START DEPTH
STOP.F       1756.5 : STOP DEPTH
STEP.F          0.5 : STEP
NULL.       -999.25 : NULL VALUE
COMP.                 WALSH & WATTS, INC. : COMPANY
WELL.                       SALMON D E 6D : WELL
FLD .                             REGULAR : FIELD
CNTY.                            MONTAGUE : COUNTY
STAT.                               TEXAS : STATE
CTRY.                                 USA : COUNTRY
SEC .                                     : SECTION
TWP .                                     : TOWNSHIP
RGE .                                     : RANGE
LOC .  460 FSL 755 FEL
F. ROBERTSON A-620 : LOCATION
EKB .F                      880 : ELEVATION KELLY BUSHING
EDF .F                      878 : ELEVATION DERRICK FLOOR
EGL .F                      874 : ELEVATION GROUND LEVEL
PDAT.                        GL : PERMANENT DATUM
EPD .                       874 : ELEVATION PERMANENT DATUM
APD .                           : ABOVE PERMANENT DATUM
LMF .                        KB : LOG MEASURED FROM
DMF .                        KB : DRILLING MEASURED FROM
API .            42337016430000 : API NUMBER
UWI .            42337016430000 : UWI NUMBER
DIGC.                     NthDS : DIGITIZING COMPANY
~Params ----------------------------------------------------
SRVC.              SCHLUMBERGER : LOGGING COMPANY
LOG .                   CNFD/ML : LOG
DATE.                2005-08-03 : RUN DATE
RUN .                         1 : RUN NUMBER
TDD .F                     1750 : TOTAL DEPTH DRILLER
TDL .F                     1750 : TOTAL DEPTH LOGGER
BOTL.F                     1750 : BOTTOM LOGGED INTERVAL
TOPL.F                      980 : TOP LOGGED INTERVAL
CSGS.IN                       7 : CASING SIZE
CSGD.F                      880 : CASING DRILLER
CSGL.F                      880 : CASING LOGGER
BS  .IN                     6.5 : BIT SIZE
MUD .                       FGM : MUD TYPE
MUDD.                       0.2 : MUD DENSITY
MUDV.                        80 : MUD VISCOSITY
PH  .                        11 : MUD PH
FL  .                         7 : FLUID LOSS
MUDS.                       PIT : SOURCE OF SAMPLE
RM  .OHMM                  1.70 : MUD RESISTIVITY
RMT .DEGF                    70 : RM TEMPERATURE
RMF .OHMM                  1.33 : MUD FILTRATE RESISTIVITY
RMFT.DEGF                    70 : RMF TEMPERATURE
RMC .OHMM                  2.67 : MUD CAKE RESISTIVITY
RMCT.DEGF                    70 : RMC TEMPERATURE
RMFS.                      MEAS : RMF SOURCE
RMCS.                       CAL : RMC SOURCE
RMBH.OHMM                  1.47 : MUD RESISTIVITY AT BHT
BHT .DEGF                    98 : BOTTOM HOLE TEMPERATURE
TIMC.                     2100  : TIME CIRCULATION STOPPED
TIML.                     0300  : TIME LOGGER ON BOTTOM
TMAX.DEGF                    98 : MAXIMUM RECORDED TEMPERATURE
UNIT.                       303 : EQUIPMENT NUMBER
BASE.                   WICHITA : BASE LOCATION
ENG .              DAVID PARKER : RECORDED BY
WIT .              MR. BURLESON : WITNESSED BY
~Curve Information -----------------------------------------
DEPT.F          :DEPTH
CALD.IN         :
DPHI.%          :
GRD.GAPI        :
MINV.OHMM       :
MNOR.OHMM       :
NPHI.%          :
~ASCII ------------------------------------------------------
# ...
1600.00000        5.67671       11.54775       91.93546        6.04893        6.97496       20.64691
1600.50000        5.66034       11.73180       91.72525        5.93971        6.78304       20.52192
1601.00000        5.67231       11.87865       89.80304        6.23226        6.75262       20.44321
1601.50000        5.68448       11.75235       87.10666        6.16595        6.72297       20.26799
1602.00000        5.69645       11.45189       85.38102        6.00992        6.69255       20.10662
1602.50000        5.70863       11.57498       87.53235        6.10354        6.60283       19.49520
1603.00000        5.69197       11.82277       88.19882        5.97872        6.58723       18.90908
1603.50000        5.66331       12.23444       86.83910        5.91631        6.74326       18.77895
1604.00000        5.64444       12.57683       86.85077        6.26971        6.80099       18.58673
1604.50000        5.63262       12.75297       85.51223        6.16595        6.71049       18.35655
1605.00000        5.62524       12.49724       84.05877        6.06219        6.62077       18.12636
1605.50000        5.62088       12.54725       84.38653        6.05673        6.78148       17.92900
1606.00000        5.61652       12.39903       85.30703        6.44680        7.00382       17.85036
1606.50000        5.61216       12.50827       86.38780        6.44680        7.22694       17.92826
1607.00000        5.60781       12.62741       84.48979        6.44680        7.10992       18.10146
1607.50000        5.60909       12.06370       83.46878        6.43042        6.99290       18.12399
1608.00000        5.61885       11.65437       83.29756        6.34616        6.91489       18.18131
1608.50000        5.62880       11.45683       82.42474        6.24631        6.78148       18.37943
1609.00000        5.63876       11.27907       84.11942        6.44680        6.87588       18.57755
1609.50000        5.64871       11.60017       85.26370        6.30482        6.97808       18.98923
1610.00000        5.65847       12.19433       85.59449        6.16283        6.90319       19.16362
1610.50000        5.65058       12.29921       85.56843        6.16595        6.82751       19.06632
1611.00000        5.63553       12.28138       86.99540        6.20496        6.75262       18.95715
1611.50000        5.62069       12.47256       89.63361        6.15581        6.67772       18.95793
1612.00000        5.57984       12.95351       92.64985        6.08482        6.60283       19.03463
1612.50000        5.58839       13.26503       95.66608        6.12382        6.56382       19.18332
1613.00000        5.59713       13.22582       96.46561        6.23226        6.52482       19.33200
1613.50000        5.63612       12.86994       96.40629        6.26503        6.48581       19.27583
1614.00000        5.68257       13.14741       95.25826        6.19950        6.44680       19.35056
1614.50000        5.72901       13.39837       92.77659        6.13475        6.40780       19.51308
1615.00000        5.71780       13.63111       90.00157        6.06999        6.36879       19.57872
1615.50000        5.69207       13.67108       85.88686        6.14177        6.58177       19.41307
1616.00000        5.66634       13.92084       81.06752        6.24787        6.79397       19.08639
1616.50000        5.64061       14.17853       76.24818        6.23538        6.69255       18.56553
1617.00000        5.62658       14.37683       74.78708        6.12538        6.47645       18.18822
1617.50000        5.59268       14.39701       73.76910        6.03411        6.44212       18.38634
1618.00000        5.57058       13.90265       73.54344        6.03567        6.62546       18.30525
1618.50000        5.55392       13.23008       74.70285        6.17765        6.80957       18.22416
1619.00000        5.55884       12.98503       76.40962        6.27907        6.99290       18.14308
1619.50000        5.56396       13.14731       78.92082        6.22056        6.86262       18.07701
1620.00000        5.56907       13.38956       82.58423        6.16205        6.73311       18.08333
1620.50000        5.56492       13.28702       85.25571        6.10354        6.60283       18.33760
1621.00000        5.55491       12.86582       85.24779        6.08014        6.62077       18.36646
1621.50000        5.54471       12.34644       87.50799        6.19716        6.63794       18.29723
1622.00000        5.53470       12.62313       88.47082        6.28063        6.65588       18.16552
1622.50000        5.53680       13.87955       88.24819        6.22836        6.67382       18.23195
1623.00000        5.55724       14.65065       86.21107        6.17609        6.66290       18.43007
1623.50000        5.57768       14.80145       84.73341        6.13865        6.63248       18.73892
1624.00000        5.59812       14.68585       84.29304        6.15581        6.60283       19.07546
1624.50000        5.62268       14.46613       86.09961        6.17375        6.57319       19.41635
1625.00000        5.61208       14.05325       87.90619        6.19482        6.53652       19.82652
1625.50000        5.59381       14.08648       84.72133        6.21276        6.57163       20.32678
1626.00000        5.57554       13.75039       86.07428        6.24553        6.64964       20.86660
1626.50000        5.57682       13.57501       86.06636        6.27751        6.72765       21.28025
1627.00000        5.60795       13.27612       85.07560        6.08248        6.80567       21.62074
1627.50000        5.63887       12.65462       86.85798        5.73609        6.88368       21.79949
1628.00000        5.66254       12.28725       88.83995        5.80319        6.91489       21.42653
1628.50000        5.65717       12.55926       87.69798        5.97404        6.91489       21.11488
1629.00000        5.65201       12.84228       86.06911        6.14489        7.64276       20.89537
1629.50000        5.64664       13.13955       84.50678        6.16049        7.84326       20.52598
1630.00000        5.64127       13.00138       84.65007        6.07390        7.57021       20.05692
1630.50000        5.62643       12.80384       84.43047        6.21276        7.84170       20.05730
1631.00000        5.61139       13.07340       86.17656        6.40780        8.47517       20.03593
1631.50000        5.59654       13.57651       88.70893        6.60283        8.08510       19.98253
1632.00000        5.57857       13.75502       87.79376        6.66524        8.18262       19.92912
1632.50000        5.57804       13.42289       85.96977        6.63950        8.28014       19.87532
1633.00000        5.57752       12.75309       86.86910        6.61297        8.21538       19.82191
1633.50000        5.57699       12.00570       90.12727        6.49907        8.00709       19.81003
1634.00000        5.57646       11.42101       90.02862        6.29077        7.38921       19.79776
1634.50000        5.60335       11.39646       89.21023        6.03099        6.77212       19.78588
1635.00000        5.63045       12.03535       88.92712        5.82269        6.71205       19.62569
1635.50000        5.68496       12.76013       88.64400        5.82269        7.02411       19.45649
1636.00000        5.74652       13.02178       87.12401        5.96858        7.00304       19.42879
1636.50000        5.79277       12.97822       86.51126        6.21276        6.75886       19.72578
1637.00000        5.77853       12.72169       86.50335        6.01772        7.14893       19.77322
1637.50000        5.76430       12.73672       85.41581        6.17063        7.53900       19.75857
1638.00000        5.75006       12.96788       86.56312        6.41092        7.92907       19.77833
1638.50000        5.73582       13.32460       89.20133        6.57475        7.75588       19.94204
1639.00000        5.75152       12.92913       89.79824        6.43276        7.63418       20.12592
1639.50000        5.77014       12.25656       86.84020        6.29077        7.72077       20.30981
