~Version ---------------------------------------------------
VERS. 2.0 : CWLS LOG ASCII STANDARD - VERSION 2.0
WRAP. NO  : One line per depth step
DLM . SPACE : Column Data Section Delimiter
~Well ------------------------------------------------------
STRT.F          500 : START DEPTH
STOP.F       2022.5 : STOP DEPTH
STEP.F          0.5 : STEP
NULL.       -999.25 : NULL VALUE
COMP.                 WALSH & WATTS, INC. : COMPANY
WELL.                          HYNDS A 10 : WELL
FLD .                           N. NOCONA : FIELD
CNTY.                            MONTAGUE : COUNTY
STAT.                               TEXAS : STATE
CTRY.                                 USA : COUNTRY
SEC .                                     : SECTION
TWP .                                     : TOWNSHIP
RGE .                                     : RANGE
LOC .  244' SE OF NO. 5A J.J. WALL SURVEY : LOCATION
EKB .F                    903.5 : ELEVATION KELLY BUSHING
EDF .F                          : ELEVATION DERRICK FLOOR
EGL .F                      897 : ELEVATION GROUND LEVEL
PDAT.                        GL : PERMANENT DATUM
EPD .                           : ELEVATION PERMANENT DATUM
APD .                         6 : ABOVE PERMANENT DATUM
LMF .                           : LOG MEASURED FROM
DMF .                           : DRILLING MEASURED FROM
API .            42337037830000 : API NUMBER
UWI .            42337037830000 : UWI NUMBER
DIGC.                     NthDS : DIGITIZING COMPANY
~Params ----------------------------------------------------
SRVC.                LANE WELLS : LOGGING COMPANY
LOG .                       GRN : LOG
DATE.                1957-11-30 : RUN DATE
RUN .                         1 : RUN NUMBER
TDD .F                     2039 : TOTAL DEPTH DRILLER
TDL .F                     2015 : TOTAL DEPTH LOGGER
BOTL.F                     2023 : BOTTOM LOGGED INTERVAL
TOPL.F                      500 : TOP LOGGED INTERVAL
CSGS.IN                     5.5 : CASING SIZE
CSGD.F                     2038 : CASING DRILLER
CSGL.F                          : CASING LOGGER
BS  .IN                    8.75 : BIT SIZE
MUD .                     WATER : MUD TYPE
MUDD.                           : MUD DENSITY
MUDV.                           : MUD VISCOSITY
PH  .                           : MUD PH
FL  .                           : FLUID LOSS
MUDS.                           : SOURCE OF SAMPLE
RM  .OHMM                       : MUD RESISTIVITY
RMT .DEGF                       : RM TEMPERATURE
RMF .OHMM                       : MUD FILTRATE RESISTIVITY
RMFT.DEGF                       : RMF TEMPERATURE
RMC .OHMM                       : MUD CAKE RESISTIVITY
RMCT.DEGF                       : RMC TEMPERATURE
RMFS.                           : RMF SOURCE
RMCS.                           : RMC SOURCE
RMBH.OHMM                       : MUD RESISTIVITY AT BHT
BHT .DEGF                       : BOTTOM HOLE TEMPERATURE
TIMC.                           : TIME CIRCULATION STOPPED
TIML.                           : TIME LOGGER ON BOTTOM
TMAX.DEGF                       : MAXIMUM RECORDED TEMPERATURE
UNIT.                           : EQUIPMENT NUMBER
BASE.                           : BASE LOCATION
ENG .                   ROBERTS : RECORDED BY
WIT .                       NIX : WITNESSED BY
~Curve Information -----------------------------------------
DEPT.F          :DEPTH
GRN.GAPI        :
NEUT.API        :
~ASCII ------------------------------------------------------
# ...
1000.00000       37.87949     2043.60828
1000.50000       37.08003     1986.38833
1001.00000       37.17265     2002.72227
1001.50000       38.60341     2019.05620
1002.00000       39.55035     2019.05620
1002.50000       38.41186     2017.24132
1003.00000       36.67805     2049.50992
1003.50000       36.99010     2076.22498
1004.00000       37.09532     2063.97453
1004.50000       37.47032     2026.55167
1005.00000       38.55665     2041.63333
1005.50000       38.53416     2069.87289
1006.00000       39.32103     2071.68778
1006.50000       38.48920     2086.20683
1007.00000       39.96672     2113.43006
1007.50000       39.69424     2130.67144
1008.00000       40.13039     2095.64422
1008.50000       40.19783     2057.53170
1009.00000       39.56834     2070.23587
1009.50000       38.14478     2091.05257
1010.00000       38.03956     2116.60610
1010.50000       36.15107     2111.61518
1011.00000       34.00269     2027.40466
1011.50000       32.10431     1926.67872
1012.00000       32.41906     1919.23770
1012.50000       33.54316     1984.57345
1013.00000       33.58812     2019.05620
1013.50000       32.30215     2102.54077
1014.00000       32.58992     2210.52624
1014.50000       32.19424     2241.68776
1015.00000       31.51978     2244.70046
1015.50000       31.58722     2252.81298
1016.00000       30.53956     2266.78757
1016.50000       30.75539     2271.32478
1017.00000       32.55395     2238.65690
1017.50000       33.45323     2231.19774
1018.00000       33.99280     2253.37560
1018.50000       35.37140     2241.56072
1019.00000       34.94604     2242.28667
1019.50000       33.60341     2234.57342
1020.00000       32.55395     2235.02714
1020.50000       32.62589     2241.68776
1021.00000       33.29136     2216.87832
1021.50000       33.78327     2221.86925
1022.00000       36.45683     2223.23041
1022.50000       37.76978     2215.51716
1023.00000       36.76798     2199.81843
1023.50000       36.31294     2212.64965
1024.00000       36.74460     2182.39557
1024.50000       35.94154     2195.69865
1025.00000       34.74190     2207.80391
1025.50000       34.15467     2187.84021
1026.00000       34.77607     2169.69140
1026.50000       35.55125     2151.54258
1027.00000       34.38848     2160.61699
1027.50000       34.08273     2157.44094
1028.00000       36.21492     2136.29757
1028.50000       36.98650     2134.48269
1029.00000       37.05035     2112.34113
1029.50000       36.69064     2116.69685
1030.00000       36.13578     2098.22135
1030.50000       36.52877     2121.94185
1031.00000       35.17985     2145.68051
1031.50000       36.55575     2139.74585
1032.00000       35.88129     2126.13423
1032.50000       36.51078     2100.41736
1033.00000       36.22301     2108.58432
1033.50000       36.52877     2117.05982
1034.00000       37.05035     2107.20501
1034.50000       37.98560     2091.65148
1035.00000       36.87769     2068.96545
1035.50000       37.81114     2084.02897
1036.00000       38.74550     2108.52988
1036.50000       38.48920     2097.69503
1037.00000       38.93884     2037.20502
1037.50000       38.66906     2086.20683
1038.00000       38.16546     2096.31572
1038.50000       38.51888     2125.22679
1039.00000       39.56834     2113.73859
1039.50000       38.48920     2060.79849
1040.00000       39.42895     2074.22861
1040.50000       40.55754     2098.72952
1041.00000       36.92175     2119.32842
1041.50000       35.25179     2134.06526
1042.00000       34.44244     2127.42280
1042.50000       34.53237     2088.54803
1043.00000       34.73830     2106.17053
1043.50000       33.97751     2112.97634
1044.00000       34.80215     2158.43913
1044.50000       33.81294     2145.64421
1045.00000       34.93704     2138.58432
1045.50000       35.10161     2082.83115
1046.00000       34.36240     2115.24494
1046.50000       35.76168     2169.69140
1047.00000       36.51078     2206.58794
1047.50000       34.35251     2173.32116
1048.00000       35.30845     2133.13968
1048.50000       35.61150     2128.63877
1049.00000       34.62229     2147.91281
1049.50000       32.91366     2126.13423
1050.00000       33.91366     2162.43187
1050.50000       37.34176     2149.77368
1051.00000       38.24592     2128.95921
1051.50000       36.84448     2117.19450
1052.00000       34.24502     2129.86418
1052.50000       34.47829     2142.53387
1053.00000       35.42043     2132.07233
1053.50000       35.71428     2115.98183
1054.00000       35.37522     2099.89134
1054.50000       35.57865     2083.81894
1055.00000       35.92495     2107.61984
1055.50000       37.18082     2149.17640
1056.00000       36.75406     2130.95016
1056.50000       35.18987     2117.19450
1057.00000       35.52531     2065.91849
1057.50000       36.63471     2050.22618
1058.00000       37.52260     2087.14926
1058.50000       37.79384     2126.96826
1059.00000       37.68082     2154.75106
1059.50000       36.72061     2149.04970
1060.00000       37.00994     2158.82346
1060.50000       36.56419     2128.05423
1061.00000       36.61844     2148.74201
1061.50000       36.52802     2144.34382
1062.00000       36.98010     2137.10400
1062.50000       35.89511     2134.08138
1063.00000       35.65370     2105.97278
1063.50000       34.44846     2108.39812
1064.00000       34.40325     2100.90491
1064.50000       34.73236     2093.42980
1065.00000       34.49366     2117.19450
1065.50000       35.62386     2099.09496
1066.00000       35.75044     2082.13568
1066.50000       37.43218     2073.15831
1067.00000       40.50632     2081.90039
1067.50000       38.29113     2080.54292
1068.00000       34.78751     2093.66509
1068.50000       34.71970     2146.60626
1069.00000       35.27486     2149.77368
1069.50000       34.43580     2122.22618
1070.00000       35.13562     2090.04518
1070.50000       35.71428     2094.95016
1071.00000       36.16636     2084.61532
1071.50000       36.11211     2127.05875
1072.00000       33.95117     2162.44337
1072.50000       32.27847     2158.82346
1073.00000       33.40867     2176.92300
1073.50000       33.13742     2160.63341
1074.00000       33.02440     2078.98636
1074.50000       34.22242     2110.15378
1075.00000       35.08137     2118.55197
1075.50000       36.43760     2149.04970
1076.00000       35.75225     2188.86870
1076.50000       36.84719     2195.02255
1077.00000       37.94122     2184.41621
1077.50000       39.03616     2198.64246
1078.00000       38.92404     2171.49314
1078.50000       37.64285     2204.07232
1079.00000       36.30741     2197.42979
1079.50000       34.74954     2218.55196
1080.00000       34.28028     2202.26237
1080.50000       35.44303     2179.33024
1081.00000       34.40958     2181.44789
1081.50000       35.35261     2191.40264
1082.00000       37.43218     2189.59268
1082.50000       37.40958     2186.42526
1083.00000       34.71970     2223.74653
1083.50000       34.90053     2237.86417
1084.00000       33.54430     2197.55648
1084.50000       34.14737     2168.23522
1085.00000       36.05605     2148.41622
1085.50000       37.04068     2159.90943
1086.00000       37.13833     2185.97277
1086.50000       35.56328     2175.11305
1087.00000       35.15912     2194.49766
1087.50000       35.47920     2187.78273
1088.00000       34.75587     2173.66508
1088.50000       34.41591     2192.66961
1089.00000       35.84990     2204.07232
1089.50000       37.04430     2192.61531
1090.00000       36.94122     2223.25784
1090.50000       36.45298     2247.51123
1091.00000       37.88426     2238.71485
1091.50000       37.90686     2226.09947
1092.00000       36.93489     2245.70127
1092.50000       35.01355     2231.81892
1093.00000       34.42585     2220.10852
1093.50000       34.99095     2187.78273
1094.00000       34.99095     2202.85965
1094.50000       35.80469     2192.85060
1095.00000       33.90596     2201.66508
1095.50000       32.00723     2216.74200
1096.00000       33.48010     2196.05422
1096.50000       35.80469     2208.41621
1097.00000       36.48914     2215.65603
1097.50000       35.84357     2222.89585
