~Version ---------------------------------------------------
VERS. 2.0 : CWLS LOG ASCII STANDARD - VERSION 2.0
WRAP. NO  : One line per depth step
DLM . SPACE : Column Data Section Delimiter
~Well ------------------------------------------------------
STRT.F          800 : START DEPTH
STOP.F       1756.5 : STOP DEPTH
STEP.F          0.5 : STEP
NULL.       -999.25 : NULL VALUE
COMP.                 WALSH & WATTS, INC. : COMPANY
WELL.                       SALMON D E 6D : WELL
FLD .                             REGULAR : FIELD
CNTY.                            MONTAGUE : COUNTY
STAT.                               TEXAS : STATE
CTRY.                                 USA : COUNTRY
SEC .                                     : SECTION
TWP .                                     : TOWNSHIP
RGE .                                     : RANGE
LOC .  460 FSL 755 FEL
F. ROBERTSON A-620 : LOCATION
EKB .F                      880 : ELEVATION KELLY BUSHING
EDF .F                      878 : ELEVATION DERRICK FLOOR
EGL .F                      874 : ELEVATION GROUND LEVEL
PDAT.                        GL : PERMANENT DATUM
EPD .                       874 : ELEVATION PERMANENT DATUM
APD .                           : ABOVE PERMANENT DATUM
LMF .                        KB : LOG MEASURED FROM
DMF .                        KB : DRILLING MEASURED FROM
API .            42337016430000 : API NUMBER
UWI .            42337016430000 : UWI NUMBER
DIGC.                     NthDS : DIGITIZING COMPANY
~Params ----------------------------------------------------
SRVC.              SCHLUMBERGER : LOGGING COMPANY
LOG .                   CNFD/ML : LOG
DATE.                2005-08-03 : RUN DATE
RUN .                         1 : RUN NUMBER
TDD .F                     1750 : TOTAL DEPTH DRILLER
TDL .F                     1750 : TOTAL DEPTH LOGGER
BOTL.F                     1750 : BOTTOM LOGGED INTERVAL
TOPL.F                      980 : TOP LOGGED INTERVAL
CSGS.IN                       7 : CASING SIZE
CSGD.F                      880 : CASING DRILLER
CSGL.F                      880 : CASING LOGGER
BS  .IN                     6.5 : BIT SIZE
MUD .                       FGM : MUD TYPE
MUDD.                       0.2 : MUD DENSITY
MUDV.                        80 : MUD VISCOSITY
PH  .                        11 : MUD PH
FL  .                         7 : FLUID LOSS
MUDS.                       PIT : SOURCE OF SAMPLE
RM  .OHMM                  1.70 : MUD RESISTIVITY
RMT .DEGF                    70 : RM TEMPERATURE
RMF .OHMM                  1.33 : MUD FILTRATE RESISTIVITY
RMFT.DEGF                    70 : RMF TEMPERATURE
RMC .OHMM                  2.67 : MUD CAKE RESISTIVITY
RMCT.DEGF                    70 : RMC TEMPERATURE
RMFS.                      MEAS : RMF SOURCE
RMCS.                       CAL : RMC SOURCE
RMBH.OHMM                  1.47 : MUD RESISTIVITY AT BHT
BHT .DEGF                    98 : BOTTOM HOLE TEMPERATURE
TIMC.                     2100  : TIME CIRCULATION STOPPED
TIML.                     0300  : TIME LOGGER ON BOTTOM
TMAX.DEGF                    98 : MAXIMUM RECORDED TEMPERATURE
UNIT.                       303 : EQUIPMENT NUMBER
BASE.                   WICHITA : BASE LOCATION
ENG .              DAVID PARKER : RECORDED BY
WIT .              MR. BURLESON : WITNESSED BY
~Curve Information -----------------------------------------
DEPT.F          :DEPTH
CALD.IN         :
DPHI.%          :
GRD.GAPI        :
MINV.OHMM       :
MNOR.OHMM       :
NPHI.%          :
~ASCII ------------------------------------------------------
# ...
1120.00000        7.70202       21.36227       69.13305        4.53546        3.53765       29.92068
1120.50000        7.60605       20.09434       66.63204        4.80851        3.68666       29.92068
1121.00000        7.48508       20.46402       64.01309        5.28517        4.28815       29.92068
1121.50000        7.36976       20.84717       60.31148        5.81177        5.43262       29.82153
1122.00000        7.25464       19.85660       56.41027        6.53574        5.53638       28.21530
1122.50000        7.10484       18.08151       54.19353        7.92907        5.64092       25.63739
1123.00000        6.82762       18.48962       51.97680        8.56879        5.74468       22.74221
1123.50000        6.50000       19.57925       49.77519        8.04609        5.54964       20.14844
1124.00000        6.25363       18.91874       47.64011        6.68085        5.35460       18.64414
1124.50000        6.01210       17.20189       45.50503        5.71893        4.63141       17.76765
1125.00000        5.80706       14.62642       43.36995        6.36879        4.77340       17.13428
1125.50000        5.64073       14.03208       43.24596        6.94063        5.04255       16.58181
1126.00000        5.53226       14.65930       42.64112        7.18794        5.94985       16.51558
1126.50000        5.43145       16.35238       42.03628        8.16311        7.36347       16.44935
1127.00000        5.41714       18.31132       37.49999        8.67021        8.19276       16.93876
1127.50000        5.46028       19.12596       33.56854        9.33333        8.63120       17.30878
1128.00000        5.50343       20.16804       32.05644       10.11347        8.08510       18.42918
1128.50000        5.49556       22.12064       28.91733       10.89361        8.43616       18.18130
1129.00000        5.47480       23.53002       25.77520       11.46077        8.78723       18.51167
1129.50000        5.45403       24.36368       23.52822       12.02872        8.78723       18.23405
1130.00000        5.43327       24.53723       23.15624       11.96865        8.82233       18.32011
1130.50000        5.41250       23.60094       23.58870       11.75177        9.00021       18.40618
1131.00000        5.39173       22.56402       24.02116       11.92886        9.17730       18.06232
1131.50000        5.37097       22.23396       25.23084       12.10673        8.78723       18.06232
1132.00000        5.37097       22.23396       26.65221       11.67375        8.39716       17.72918
1132.50000        5.37097       22.72925       26.83971       11.21581        8.67567       17.31275
1133.00000        5.37863       22.62227       28.42741       11.26418        8.95418       17.10255
1133.50000        5.39113       22.21296       30.94656       10.91935        9.17730       16.94391
1134.00000        5.40383       21.80327       31.85382       10.20162        8.55319       16.84278
1134.50000        5.42399       22.08260       32.05644       10.24999        8.52510       16.75592
1135.00000        5.45544       22.79660       32.05644       10.11347        8.49780       16.66907
1135.50000        5.48689       22.88774       31.42136        9.85368        8.45957       16.71388
1136.00000        5.52056       22.51132       30.36290        9.59311        8.42680       16.89711
1136.50000        5.56250       22.16462       30.59878        9.84042        8.57269       17.15609
1137.00000        5.60444       22.07547       31.69959       10.42553        8.89879       17.41547
1137.50000        5.64657       21.95660       33.36592       11.01063        9.13829       17.50708
1138.00000        5.69698       21.24340       37.45765       10.62836        8.40808       17.45235
1138.50000        5.72379       20.74811       42.64112        8.63120        7.46099       16.97921
1139.00000        5.74052       19.18302       47.82458        8.45411        7.38297       16.50646
1139.50000        5.75665       16.81874       52.16733        8.27623        5.43262       16.52986
1140.00000        5.76915       15.20095       56.37095        5.93191        3.97609       16.88402
1140.50000        5.81210       14.34906       61.20966        5.45836        4.71957       17.23779
1141.00000        5.87500       12.81368       66.22982        5.25319        4.43404       17.61179
1141.50000        6.00101       12.18566       70.52418        4.82411        4.05411       17.99014
1142.00000        6.12702       12.91868       73.30643        4.71099        3.40425       18.66516
1142.50000        6.25302       13.37830       75.52317        4.80851        3.88092       19.77564
1143.00000        6.40363       13.68102       77.74292        4.64155        4.20390       21.59207
1143.50000        6.56048       13.90766       79.98990        4.96453        3.91134       24.27309
1144.00000        6.71734       14.15530       82.25804        4.52531        3.61879       26.66856
1144.50000        6.87218       13.91321       83.77014        4.52219        3.56028       28.10187
1145.00000        7.01956       14.30944       84.37498        4.52765        3.56028       29.24091
1145.50000        7.16693       14.83919       81.88002        4.71957        3.54624       29.60895
1146.00000        7.31048       15.90425       78.22680        5.19858        3.51035       29.60340
1146.50000        7.31653       15.94981       73.48789        5.97872        3.95035       28.69677
1147.00000        7.20746       13.46745       65.52519        7.00850        5.22978       25.35977
1147.50000        7.06089        9.89429       61.99595        8.53758        6.58333       21.96487
1148.00000        6.90907        5.94906       58.97176       12.11609        8.11084       16.90227
1148.50000        6.73609        5.55283       56.70361       13.97517        8.81687       15.06799
1149.00000        6.54032        9.75283       54.43547        7.85106        6.23226       13.76317
1149.50000        6.33871       13.58474       54.58668        5.86950        4.61347       13.19366
1150.00000        6.13710       17.09451       56.94253        5.43262        4.05645       12.87836
1150.50000        6.14335       15.63894       61.44857        5.33900        4.22340       12.49448
1151.00000        6.27560       13.74655       66.26611        5.22120        4.36304       12.30305
1151.50000        6.40806       12.20456       71.08668        4.94191        4.33496       12.60004
1152.00000        6.54032       10.61512       75.90724        5.14631        4.19531       13.71923
1152.50000        6.59073       11.57256       78.99796        5.12758        4.05645       16.99062
1153.00000        6.70443       13.28655       82.19151        4.87950        3.97141       19.69331
1153.50000        6.83407       16.05014       84.01208        4.75312        3.90042       22.81798
1154.00000        6.96371       16.95222       84.91933        4.80851        3.91914       25.10463
1154.50000        6.99032       16.00344       86.18949        5.31014        3.99716       25.37631
1155.00000        7.01673       14.99535       86.79433        5.42248        4.02836       25.31460
1155.50000        7.04335       14.05844       86.79433        5.27659        4.10638       25.00413
1156.00000        7.06452       13.78990       85.18244        5.51063        4.30141       24.49039
1156.50000        6.99738       13.39480       82.92337        5.66666        4.49645       23.92602
1157.00000        6.82923       12.51642       80.50401        5.74468        4.60801       23.36126
1157.50000        6.66532       12.47290       79.71772        5.90070        4.60801       22.53113
1158.00000        6.50403       12.57334       79.53627        5.70567        4.49645       21.56773
1158.50000        6.42742       12.72400       79.03123        5.39361        4.38489       20.89065
1159.00000        6.43669       12.65834       78.52921        5.12056        4.44106       20.77911
1159.50000        6.46633       12.72476       79.12196        5.12056        4.48241       20.75734
