~Version ---------------------------------------------------
VERS. 2.0 : CWLS LOG ASCII STANDARD - VERSION 2.0
WRAP. NO  : One line per depth step
DLM . SPACE : Column Data Section Delimiter
~Well ------------------------------------------------------
STRT.F          227 : START DEPTH
STOP.F       2033.0 : STOP DEPTH
STEP.F          0.5 : STEP
NULL.       -999.25 : NULL VALUE
COMP.                  WALSH & WATTS, INC : COMPANY
WELL.                          HYNDS A 10 : WELL
FLD .                           N. NOCONA : FIELD
CNTY.                            MONTAGUE : COUNTY
STAT.                               TEXAS : STATE
CTRY.                                 USA : COUNTRY
SEC .                                     : SECTION
TWP .                                     : TOWNSHIP
RGE .                                     : RANGE
LOC .  244' SE OF NO. 5A J.J. WALL SURVEY : LOCATION
EKB .F                    903.5 : ELEVATION KELLY BUSHING
EDF .F                          : ELEVATION DERRICK FLOOR
EGL .F                      897 : ELEVATION GROUND LEVEL
PDAT.                        GL : PERMANENT DATUM
EPD .                           : ELEVATION PERMANENT DATUM
APD .                         6 : ABOVE PERMANENT DATUM
LMF .                           : LOG MEASURED FROM
DMF .                           : DRILLING MEASURED FROM
API .            42337037830000 : API NUMBER
UWI .            42337037830000 : UWI NUMBER
DIGC.                     NthDS : DIGITIZING COMPANY
~Params ----------------------------------------------------
SRVC.              SCHLUMBERGER : LOGGING COMPANY
LOG .                       IEL : LOG
DATE.                1957-10-20 : RUN DATE
RUN .                         1 : RUN NUMBER
TDD .F                          : TOTAL DEPTH DRILLER
TDL .F                          : TOTAL DEPTH LOGGER
BOTL.F                     2039 : BOTTOM LOGGED INTERVAL
TOPL.F                          : TOP LOGGED INTERVAL
CSGS.IN                         : CASING SIZE
CSGD.F                      227 : CASING DRILLER
CSGL.F                      227 : CASING LOGGER
BS  .IN                    8.75 : BIT SIZE
MUD .                       GEL : MUD TYPE
MUDD.                       9.9 : MUD DENSITY
MUDV.                        50 : MUD VISCOSITY
PH  .                           : MUD PH
FL  .                           : FLUID LOSS
MUDS.                           : SOURCE OF SAMPLE
RM  .OHMM                   2.3 : MUD RESISTIVITY
RMT .DEGF                    60 : RM TEMPERATURE
RMF .OHMM                   .76 : MUD FILTRATE RESISTIVITY
RMFT.DEGF                    96 : RMF TEMPERATURE
RMC .OHMM                   1.7 : MUD CAKE RESISTIVITY
RMCT.DEGF                    96 : RMC TEMPERATURE
RMFS.                           : RMF SOURCE
RMCS.                           : RMC SOURCE
RMBH.OHMM                   1.4 : MUD RESISTIVITY AT BHT
BHT .DEGF                    96 : BOTTOM HOLE TEMPERATURE
TIMC.                           : TIME CIRCULATION STOPPED
TIML.                           : TIME LOGGER ON BOTTOM
TMAX.DEGF                       : MAXIMUM RECORDED TEMPERATURE
UNIT.                       785 : EQUIPMENT NUMBER
BASE.                        WF : BASE LOCATION
ENG .                     JONES : RECORDED BY
WIT .               BALCH & NIX : WITNESSED BY
~Curve Information -----------------------------------------
DEPT.F          :DEPTH
CILD.MMHO       :
ILD.OHMM        :
ROP.FT/HR       :
SN.OHMM         :
SP.MV           :
~ASCII ------------------------------------------------------
# ...
322.00000      155.77449        7.27200        -999.25       11.56039      -39.13045
322.50000      155.77449        7.27263        -999.25       13.00245      -42.57248
323.00000      156.66974        7.23326        -999.25       14.62469      -47.46378
323.50000      157.56500        7.11402        -999.25       15.56225      -54.34784
324.00000      160.25076        6.85411        -999.25       15.49093      -58.33334
324.50000      165.62229        6.43204        -999.25       14.59067      -61.95653
325.00000      175.47010        5.97141        -999.25       13.51022      -64.13044
325.50000      188.00367        5.53961        -999.25       12.50185      -65.18660
326.00000      200.53724        5.11501        -999.25       11.52951      -65.81341
326.50000      214.86132        4.74627        -999.25       10.80942      -66.12320
327.00000      227.39489        4.39568        -999.25       10.16141      -66.12320
327.50000      238.13795        4.21613        -999.25        9.54943      -65.76088
328.00000      248.88101        4.03658        -999.25        9.04556      -65.39856
328.50000      258.72882        3.87505        -999.25        8.72199      -65.57972
329.00000      268.57662        3.74054        -999.25        8.47037      -66.12320
329.50000      277.52918        3.60604        -999.25        8.25478      -67.21015
330.00000      285.58647        3.51310        -999.25        8.03920      -67.93479
330.50000      292.74851        3.43553        -999.25        7.85965      -68.84059
331.00000      299.91055        3.35832        -999.25        7.71613      -69.92754
331.50000      307.96785        3.28075        -999.25        7.53671      -70.65218
332.00000      315.12989        3.18781        -999.25        7.46526      -71.01450
332.50000      320.50142        3.11385        -999.25        7.28571      -71.55798
333.00000      328.55871        3.04529        -999.25        7.14220      -71.55798
333.50000      336.61601        2.97637        -999.25        7.14283      -71.01450
334.00000      345.56856        2.92727        -999.25        7.14346      -71.01450
334.50000      351.83534        2.88285        -999.25        7.25232      -71.92030
335.00000      359.89264        2.83844        -999.25        7.28898      -72.82609
335.50000      364.36892        2.78514        -999.25        7.25358      -73.55073
336.00000      369.74045        2.77640        -999.25        7.18214      -74.09421
336.50000      371.53096        2.76730        -999.25        7.03862      -74.81885
337.00000      373.32147        2.75856        -999.25        6.96718      -74.81885
337.50000      373.32147        2.75306        -999.25        6.89599      -74.81885
338.00000      372.42621        2.76162        -999.25        6.93253      -74.63769
338.50000      372.42621        2.77174        -999.25        7.04126      -74.45653
339.00000      370.63570        2.78030        -999.25        7.22207      -74.09421
339.50000      369.74045        2.78885        -999.25        7.47495      -73.73189
340.00000      367.05468        2.81615        -999.25        7.65588      -73.55073
340.50000      363.47366        2.84813        -999.25        7.76462      -73.55073
341.00000      359.89264        2.88636        -999.25        7.83732      -73.55073
341.50000      355.41636        2.91834        -999.25        7.91002      -73.73189
342.00000      350.04483        2.94816        -999.25        7.87461      -73.91305
342.50000      348.25432        2.97437        -999.25        7.98348      -74.09421
343.00000      344.67330        3.00059        -999.25        8.34446      -74.09421
343.50000      341.09228        3.07761        -999.25        9.13813      -73.91305
344.00000      333.93024        3.21062        -999.25        9.53490      -73.73189
344.50000      323.18718        3.32152        -999.25       10.32845      -73.55073
345.00000      309.75836        3.43890        -999.25       10.76150      -73.73189
345.50000      298.12004        3.58367        -999.25       11.01438      -73.73189
346.00000      287.37698        3.72845        -999.25       11.19519      -73.36957
346.50000      275.73867        3.89497        -999.25       11.23186      -73.36957
347.00000      268.57662        4.02545        -999.25       11.30468      -72.82609
347.50000      259.62407        4.22235        -999.25       11.34135      -72.28261
348.00000      247.98576        4.46874        -999.25       11.19783      -70.83334
348.50000      237.24270        4.74793        -999.25       10.83810      -69.38406
349.00000      224.70913        5.10904        -999.25       10.26216      -67.02899
349.50000      210.38505        5.40985        -999.25        9.61414      -63.76812
350.00000      198.74673        5.71784        -999.25        8.62450      -58.69566
350.50000      188.00367        5.96757        -999.25        7.70666      -51.99276
351.00000      181.73689        6.02703        -999.25        6.94703      -45.28987
351.50000      181.73689        5.98198        -999.25        6.54667      -38.04349
352.00000      184.42265        5.69369        -999.25        6.09009      -33.33335
352.50000      188.89893        5.64216        -999.25        5.75964      -29.71016
353.00000      192.47995        5.56144        -999.25        5.62162      -28.44204
353.50000      194.27046        5.46162        -999.25        5.63964      -28.07973
354.00000      196.95622        5.29730        -999.25        5.72973      -29.52900
354.50000      202.32775        5.15315        -999.25        5.76576      -31.52175
355.00000      209.48979        5.00901        -999.25        5.63063      -32.60871
355.50000      213.07081        4.96901        -999.25        5.53153      -31.52175
356.00000      213.96607        4.91279        -999.25        5.48649      -30.07248
356.50000      216.65183        4.79279        -999.25        5.43820      -30.25364
357.00000      226.49964        4.36685        -999.25        5.38919      -31.70291
357.50000      240.94905        3.94090        -999.25        5.44144      -34.42030
358.00000      268.57662        3.63964        -999.25        5.65766      -39.67393
358.50000      291.85326        3.36937        -999.25        6.16216      -45.47103
359.00000      314.23463        3.18414        -999.25        6.77477      -53.98552
359.50000      333.03499        2.98775        -999.25        7.56757      -63.58696
360.00000      348.25432        2.87243        -999.25        7.96396      -69.74638
360.50000      361.68315        2.79495        -999.25        8.10811      -74.27537
361.00000      368.84519        2.75459        -999.25        8.00000      -76.26812
361.50000      374.21672        2.72901        -999.25        7.74775      -77.35508
362.00000      376.00723        2.71243        -999.25        7.45946      -77.71740
362.50000      376.00723        2.71171        -999.25        7.13513      -77.71740
363.00000      376.90249        2.73441        -999.25        7.04865      -77.71740
363.50000      376.90249        2.75676        -999.25        6.97766      -77.35508
364.00000      376.00723        2.78378        -999.25        6.97297      -76.99276
364.50000      373.32147        2.80649        -999.25        7.06306      -76.63044
365.00000      369.74045        2.81081        -999.25        7.06306      -76.44928
365.50000      366.15943        2.81081        -999.25        7.06306      -76.63044
366.00000      362.57841        2.83351        -999.25        7.04072      -76.99276
366.50000      359.89264        2.86486        -999.25        7.04685      -77.35508
367.00000      358.10213        2.90991        -999.25        7.09585      -77.89856
367.50000      356.31162        2.90306        -999.25        7.20721      -78.62319
368.00000      356.31162        2.88288        -999.25        7.35135      -79.34783
368.50000      356.31162        2.90991        -999.25        7.67567      -79.52899
369.00000      355.41636        2.93261        -999.25        8.07207      -79.34783
