~Version ---------------------------------------------------
VERS. 2.0 : CWLS LOG ASCII STANDARD - VERSION 2.0
WRAP. NO  : One line per depth step
DLM . SPACE : Column Data Section Delimiter
~Well ------------------------------------------------------
STRT.F          572 : START DEPTH
STOP.F       1770.0 : STOP DEPTH
STEP.F          0.5 : STEP
NULL.       -999.25 : NULL VALUE
COMP.         WALSH & WATTS, INCORPORATED : COMPANY
WELL.                         SALMON E 44 : WELL
FLD .                             REGULAR : FIELD
CNTY.                            MONTAGUE : COUNTY
STAT.                               TEXAS : STATE
CTRY.                                 USA : COUNTRY
SEC .                                     : SECTION
TWP .                                     : TOWNSHIP
RGE .                                     : RANGE
LOC . 300' WEST OF NO 23, 300' SOUTH OF D-9, F.ROBERTSON SURV. : LOCATION
EKB .F                      862 : ELEVATION KELLY BUSHING
EDF .F                          : ELEVATION DERRICK FLOOR
EGL .F                      856 : ELEVATION GROUND LEVEL
PDAT.                        GL : PERMANENT DATUM
EPD .                       856 : ELEVATION PERMANENT DATUM
APD .                         6 : ABOVE PERMANENT DATUM
LMF .                        KB : LOG MEASURED FROM
DMF .                        KB : DRILLING MEASURED FROM
API .            42337038720000 : API NUMBER
UWI .                           : UWI NUMBER
DIGC.                     NthDS : DIGITIZING COMPANY
~Params ----------------------------------------------------
SRVC.              SCHLUMBERGER : LOGGING COMPANY
LOG .                     SONIC : LOG
DATE.                1965-11-28 : RUN DATE
RUN .                         1 : RUN NUMBER
TDD .F                     1179 : TOTAL DEPTH DRILLER
TDL .F                     1179 : TOTAL DEPTH LOGGER
BOTL.F                     1170 : BOTTOM LOGGED INTERVAL
TOPL.F                      600 : TOP LOGGED INTERVAL
CSGS.IN                         : CASING SIZE
CSGD.F                          : CASING DRILLER
CSGL.F                          : CASING LOGGER
BS  .IN                   7.875 : BIT SIZE
MUD .                       GEL : MUD TYPE
MUDD.                        10 : MUD DENSITY
MUDV.                        98 : MUD VISCOSITY
PH  .                           : MUD PH
FL  .                           : FLUID LOSS
MUDS.                CIRCULATED : SOURCE OF SAMPLE
RM  .OHMM                   2.0 : MUD RESISTIVITY
RMT .DEGF                    81 : RM TEMPERATURE
RMF .OHMM                   1.5 : MUD FILTRATE RESISTIVITY
RMFT.DEGF                    81 : RMF TEMPERATURE
RMC .OHMM                       : MUD CAKE RESISTIVITY
RMCT.DEGF                       : RMC TEMPERATURE
RMFS.                         M : RMF SOURCE
RMCS.                           : RMC SOURCE
RMBH.OHMM                   1.6 : MUD RESISTIVITY AT BHT
BHT .DEGF                   100 : BOTTOM HOLE TEMPERATURE
TIMC.                           : TIME CIRCULATION STOPPED
TIML.                           : TIME LOGGER ON BOTTOM
TMAX.DEGF                   100 : MAXIMUM RECORDED TEMPERATURE
UNIT.                      4559 : EQUIPMENT NUMBER
BASE.                       WFS : BASE LOCATION
ENG .                      FINK : RECORDED BY
WIT .                       NIX : WITNESSED BY
~Curve Information -----------------------------------------
DEPT.F          :DEPTH
CALS.IN         :
DT.US/F         :
SP.MV           :
~ASCII ------------------------------------------------------
# ...
1510.50000        7.89469       99.87019      -57.04633
1511.00000        7.92272       99.52752      -55.25074
1511.50000        7.99312       98.36895      -53.45813
1512.00000        7.99282       97.74967      -52.97838
1512.50000        7.99253       98.09556      -54.76583
1513.00000        7.99224       99.04044      -53.68015
1513.50000        7.99194       98.71071      -53.70534
1514.00000        7.99165       98.38197      -54.89786
1514.50000        7.99130       96.44431      -56.09038
1515.00000        7.99100       94.50664      -57.28290
1515.50000        7.91150       93.21573      -58.65364
1516.00000        7.87616       94.60041      -60.14319
1516.50000        7.88359       95.77115      -58.86146
1517.00000        7.89082       96.08420      -56.67380
1517.50000        7.98953       96.82809      -54.80990
1518.00000        8.02884       97.85854      -54.81431
1518.50000        8.01944       99.09548      -54.81959
1519.00000        7.97340       99.14485      -56.30914
1519.50000        7.92737       99.90367      -55.81751
1520.00000        7.91381      100.17194      -56.27340
1520.50000        7.92183       98.81436      -56.96097
1521.00000        7.88049       96.95928      -58.85151
1521.50000        7.74554       93.64552      -67.44894
1522.00000        7.63792       93.89687      -78.90973
1522.50000        7.60654       94.02186      -84.00521
1523.00000        7.57535       94.11502      -94.54312
1523.50000        7.55268       93.79524     -102.68610
1524.00000        7.56447       92.36503     -105.21525
1524.50000        7.57625       89.94677     -104.77411
1525.00000        7.58804       85.80316     -104.05377
1525.50000        7.59982       83.98191     -104.88094
1526.00000        7.61161       88.16356     -105.31604
1526.50000        7.62340       89.99898     -105.15411
1527.00000        7.63750       91.13192     -102.12289
1527.50000        7.68651       92.63201      -90.24616
1528.00000        7.88424       94.37589      -70.05264
1528.50000        7.89800       94.62777      -58.47294
1529.00000        7.80444       92.84632      -63.52683
1529.50000        7.63920       92.32754      -75.48663
1530.00000        7.65336       93.98882      -87.29879
1530.50000        7.79168       95.65011      -73.49138
1531.00000        7.82307       94.98904      -65.77305
1531.50000        7.77822       90.11610      -66.60023
1532.00000        7.66664       89.74060      -69.71155
1532.50000        7.73763       93.70335      -69.59715
1533.00000        7.87768       96.25716      -64.65306
1533.50000        7.90075       95.08366      -61.78520
1534.00000        7.90045       93.91016      -62.68069
1534.50000        7.90016       94.12172      -63.27916
1535.00000        7.89987       95.66659      -61.35288
1535.50000        7.89957       97.06221      -59.42660
1536.00000        7.89928       97.40364      -61.13892
1536.50000        7.88572       96.65999      -61.01858
1537.00000        7.85255       96.89145      -61.14862
1537.50000        7.81919       98.62537      -59.29660
1538.00000        7.78583       99.70259      -57.44458
1538.50000        7.78177       98.89127      -58.06680
1539.00000        7.89474       98.07996      -58.03259
1539.50000        7.86746       98.21789      -57.14591
1540.00000        7.81766       98.53093      -58.35329
1540.50000        7.75796       98.72060      -60.95669
1541.00000        7.76203       98.08341      -63.09970
1541.50000        7.76589       97.63130      -63.29124
1542.00000        7.76995       97.16923      -63.04911
1542.50000        7.77402       96.72806      -62.80698
1543.00000        7.81016       97.16151      -61.66486
1543.50000        7.89481       97.59495      -60.02461
1544.00000        7.85492       97.72445      -59.60130
1544.50000        7.81502       97.17979      -60.59778
1545.00000        7.81473       97.09285      -60.28436
1545.50000        7.81437       97.08849      -61.44718
1546.00000        7.81408       96.27319      -63.19217
1546.50000        7.81379       95.83401      -63.46687
1547.00000        7.81349       95.57095      -64.11286
1547.50000        7.81320       96.69294      -66.23805
1548.00000        7.81290       98.56119      -66.31077
1548.50000        7.81261       97.76779      -65.86964
1549.00000        7.81232       96.62613      -64.59682
1549.50000        7.77895       96.87749      -62.81994
1550.00000        7.78359       97.17801      -61.49448
1550.50000        7.75859       96.88152      -61.83089
1551.00000        7.75830       96.70767      -61.41731
1551.50000        7.75801       97.57068      -60.51163
1552.00000        7.75771       98.36044      -59.60299
1552.50000        7.75736       98.31321      -58.94929
1553.00000        7.75707       98.75150      -58.38452
1553.50000        7.76468       99.19080      -58.17548
1554.00000        7.78415       99.54235      -57.96940
1554.50000        7.80362       99.54496      -57.76036
1555.00000        7.82309       99.09893      -57.55429
1555.50000        7.83228       98.23415      -57.34821
1556.00000        7.82626       97.18992      -58.33383
1556.50000        7.82003       95.93731      -60.11688
1557.00000        7.81401       94.37364      -62.49873
1557.50000        7.71490       93.87775      -65.77969
1558.00000        7.74346       93.38187      -68.25344
1558.50000        7.85720       93.87201      -63.30431
1559.00000        7.97094       95.81278      -57.59035
1559.50000        7.97065       96.92903      -54.95939
1560.00000        7.95276       95.89875      -53.37486
1560.50000        7.86472       93.97317      -56.51560
1561.00000        7.81793       92.18418      -59.68303
1561.50000        7.82791       96.27500      -56.84159
1562.00000        7.83809       99.68434      -56.43097
1562.50000        7.84808       99.18845      -58.21402
1563.00000        7.84304       98.69256      -55.25400
1563.50000        7.83425       97.31035      -53.93331
1564.00000        7.82526       96.40470      -55.07011
1564.50000        7.81647       97.40430      -56.20988
1565.00000        7.80274       98.40391      -57.34668
1565.50000        7.76944       99.23701      -59.69890
1566.00000        7.82310       99.73812      -62.52037
1566.50000        7.87656      100.46156      -58.48723
1567.00000        7.87390       99.66657      -56.82267
1567.50000        7.85720       97.95136      -57.07311
1568.00000        7.80256       95.76058      -59.56762
1568.50000        7.69120       92.73930      -65.25183
1569.00000        7.75626       89.25243      -72.33525
1569.50000        7.82534       82.83439      -80.36134
1570.00000        7.81971       73.65468      -86.38350
1570.50000        7.81428       70.31683      -87.07564
1571.00000        7.80885       68.55376      -85.68380
1571.50000        7.79966       67.63016      -84.29493
1572.00000        7.78533       64.94089      -82.90309
1572.50000        7.77101       62.59059      -83.50125
1573.00000        7.77151       62.65302      -82.41770
1573.50000        7.78228       64.43028      -79.10196
1574.00000        7.79286       66.06796      -78.17849
1574.50000        7.80363       66.05116      -77.25800
1575.00000        7.80116       63.96008      -76.19817
1575.50000        7.79850       63.34953      -74.93083
1576.00000        7.79603       62.73799      -75.03306
1576.50000        7.79357       60.44552      -75.13825
1577.00000        7.79090       58.98502      -75.24047
1577.50000        7.78798       60.12074      -74.50376
1578.00000        7.78531       62.84315      -73.76706
1578.50000        7.78285       64.22760      -73.54912
1579.00000        7.76141       64.35483      -73.67803
1579.50000        7.71171       63.97459      -73.40970
1580.00000        7.75430       63.34312      -72.30244
1580.50000        7.81982       63.68969      -72.30684
1581.00000        7.78652       63.97146      -72.31124
1581.50000        7.75342       64.49251      -72.31652
