~Version ---------------------------------------------------
VERS. 2.0 : CWLS LOG ASCII STANDARD - VERSION 2.0
WRAP. NO  : One line per depth step
DLM . SPACE : Column Data Section Delimiter
~Well ------------------------------------------------------
STRT.F          800 : START DEPTH
STOP.F       1756.5 : STOP DEPTH
STEP.F          0.5 : STEP
NULL.       -999.25 : NULL VALUE
COMP.                 WALSH & WATTS, INC. : COMPANY
WELL.                       SALMON D E 6D : WELL
FLD .                             REGULAR : FIELD
CNTY.                            MONTAGUE : COUNTY
STAT.                               TEXAS : STATE
CTRY.                                 USA : COUNTRY
SEC .                                     : SECTION
TWP .                                     : TOWNSHIP
RGE .                                     : RANGE
LOC .  460 FSL 755 FEL
F. ROBERTSON A-620 : LOCATION
EKB .F                      880 : ELEVATION KELLY BUSHING
EDF .F                      878 : ELEVATION DERRICK FLOOR
EGL .F                      874 : ELEVATION GROUND LEVEL
PDAT.                        GL : PERMANENT DATUM
EPD .                       874 : ELEVATION PERMANENT DATUM
APD .                           : ABOVE PERMANENT DATUM
LMF .                        KB : LOG MEASURED FROM
DMF .                        KB : DRILLING MEASURED FROM
API .            42337016430000 : API NUMBER
UWI .            42337016430000 : UWI NUMBER
DIGC.                     NthDS : DIGITIZING COMPANY
~Params ----------------------------------------------------
SRVC.              SCHLUMBERGER : LOGGING COMPANY
LOG .                   CNFD/ML : LOG
DATE.                2005-08-03 : RUN DATE
RUN .                         1 : RUN NUMBER
TDD .F                     1750 : TOTAL DEPTH DRILLER
TDL .F                     1750 : TOTAL DEPTH LOGGER
BOTL.F                     1750 : BOTTOM LOGGED INTERVAL
TOPL.F                      980 : TOP LOGGED INTERVAL
CSGS.IN                       7 : CASING SIZE
CSGD.F                      880 : CASING DRILLER
CSGL.F                      880 : CASING LOGGER
BS  .IN                     6.5 : BIT SIZE
MUD .                       FGM : MUD TYPE
MUDD.                       0.2 : MUD DENSITY
MUDV.                        80 : MUD VISCOSITY
PH  .                        11 : MUD PH
FL  .                         7 : FLUID LOSS
MUDS.                       PIT : SOURCE OF SAMPLE
RM  .OHMM                  1.70 : MUD RESISTIVITY
RMT .DEGF                    70 : RM TEMPERATURE
RMF .OHMM                  1.33 : MUD FILTRATE RESISTIVITY
RMFT.DEGF                    70 : RMF TEMPERATURE
RMC .OHMM                  2.67 : MUD CAKE RESISTIVITY
RMCT.DEGF                    70 : RMC TEMPERATURE
RMFS.                      MEAS : RMF SOURCE
RMCS.                       CAL : RMC SOURCE
RMBH.OHMM                  1.47 : MUD RESISTIVITY AT BHT
BHT .DEGF                    98 : BOTTOM HOLE TEMPERATURE
TIMC.                     2100  : TIME CIRCULATION STOPPED
TIML.                     0300  : TIME LOGGER ON BOTTOM
TMAX.DEGF                    98 : MAXIMUM RECORDED TEMPERATURE
UNIT.                       303 : EQUIPMENT NUMBER
BASE.                   WICHITA : BASE LOCATION
ENG .              DAVID PARKER : RECORDED BY
WIT .              MR. BURLESON : WITNESSED BY
~Curve Information -----------------------------------------
DEPT.F          :DEPTH
CALD.IN         :
DPHI.%          :
GRD.GAPI        :
MINV.OHMM       :
MNOR.OHMM       :
NPHI.%          :
~ASCII ------------------------------------------------------
# ...
1080.00000        -999.25        -999.25        -999.25        -999.25        -999.25        -999.25
1080.50000        -999.25        -999.25        -999.25        -999.25        -999.25        -999.25
1081.00000        -999.25        -999.25        -999.25        -999.25        -999.25        -999.25
1081.50000        -999.25        -999.25        -999.25        -999.25        -999.25        -999.25
1082.00000        -999.25        -999.25        -999.25        -999.25        -999.25        -999.25
1082.50000        -999.25        -999.25        -999.25        -999.25        -999.25        -999.25
1083.00000        -999.25        -999.25        -999.25        -999.25        -999.25        -999.25
1083.50000        -999.25        -999.25        -999.25        -999.25        -999.25        -999.25
1084.00000        -999.25        -999.25        -999.25        -999.25        -999.25        -999.25
1084.50000        -999.25        -999.25        -999.25        -999.25        -999.25        -999.25
1085.00000        -999.25        -999.25        -999.25        -999.25        -999.25        -999.25
1085.50000        -999.25        -999.25        -999.25        -999.25        -999.25        -999.25
1086.00000        -999.25        -999.25        -999.25        -999.25        -999.25        -999.25
1086.50000        -999.25        -999.25        -999.25        -999.25        -999.25        -999.25
1087.00000        -999.25        -999.25        -999.25        -999.25        -999.25        -999.25
1087.50000        -999.25        -999.25        -999.25        -999.25        -999.25        -999.25
1088.00000        -999.25        -999.25        -999.25        -999.25        -999.25        -999.25
1088.50000        -999.25        -999.25        -999.25        -999.25        -999.25        -999.25
1089.00000        -999.25        -999.25        -999.25        -999.25        -999.25        -999.25
1089.50000        -999.25        -999.25        -999.25        -999.25        -999.25        -999.25
1090.00000        -999.25        -999.25        -999.25        -999.25        -999.25        -999.25
1090.50000        -999.25        -999.25        -999.25        -999.25        -999.25        -999.25
1091.00000        -999.25        -999.25        -999.25        -999.25        -999.25        -999.25
1091.50000        -999.25        -999.25        -999.25        -999.25        -999.25        -999.25
1092.00000        -999.25        -999.25        -999.25        -999.25        -999.25        -999.25
1092.50000        -999.25        -999.25        -999.25        -999.25        -999.25        -999.25
1093.00000        -999.25        -999.25        -999.25        -999.25        -999.25        -999.25
1093.50000        -999.25       12.03400        -999.25        -999.25        -999.25        -999.25
1094.00000        -999.25       11.70085        -999.25        4.10638        -999.25        0.37394
1094.50000        6.04980       11.36771        -999.25        4.29829        3.91134        0.21530
1095.00000        6.11472       11.12657        -999.25        4.53858        4.00886        0.17128
1095.50000        6.16250       11.00284        -999.25        4.73049        4.10638        0.25932
1096.00000        6.21028       11.71116        -999.25        4.73049        4.10638        0.27400
1096.50000        6.25806       12.66063        -999.25        4.78276        4.10638        0.23235
1097.00000        6.13488       14.92918        -999.25        5.14631        4.10638        0.19825
1097.50000        6.01008       17.27706        -999.25        6.44680        5.00900        0.16374
1098.00000        5.87903       18.25507        -999.25        7.74730        6.52482        0.17167
1098.50000        5.77077       18.73655        -999.25        8.02659        8.39716        0.38584
1099.00000        5.75403       18.56640        -999.25        7.87992        8.83014        0.42233
1099.50000        5.71270       18.12657        -999.25        7.73404        8.51028        0.24624
1100.00000        5.67984       17.63082        2.21673        7.64978        8.40418        0.24187
1100.50000        5.61008       16.27908       11.79435        7.81205        8.61716        0.35173
1101.00000        5.56895       15.31308       22.62096        7.97432        8.54460        0.12012
1101.50000        5.52016       14.98302       31.45161        7.55304        7.33070        0.21530
1102.00000        5.46633       15.35111       31.75402        6.98588        6.48971        0.41360
1102.50000        5.41270       14.62642       31.36390        6.96404        6.20574        0.61190
1103.00000        5.40121       14.74528       32.66128        7.30496        5.84219       11.08216
1103.50000        5.41794       15.14151       35.41027        7.01241        5.28829       16.47592
1104.00000        5.43488       15.83491       38.15926        6.91489        4.92865       15.28612
1104.50000        5.45161       15.73585       41.30140        6.80567        4.56822       15.80646
1105.00000        5.53810       15.04245       44.45563        6.78460        4.74609       16.19037
1105.50000        5.62439       14.19057       48.56854        6.95858        5.19858       16.36686
1106.00000        5.71089       14.25396       55.14011        6.68085        4.69148       16.41643
1106.50000        5.79718       15.53774       62.86994        4.94893        4.18439       16.46601
1107.00000        5.91028       16.92453       69.35381        4.51985        4.13602       16.98357
1107.50000        6.03004       18.31132       71.37095        4.31155        4.04631       17.61813
1108.00000        6.14980       17.49074       73.38809        4.43326        3.89652       18.74963
1108.50000        6.35887       17.44755       75.40220        4.55496        3.74595       20.23649
1109.00000        6.62762       19.01977       77.11692        4.64312        3.61255       21.59643
1109.50000        6.90988       21.32264       78.62901        4.59397        3.48226       23.40334
1110.00000        7.24597       23.11359       76.75401        5.10106        4.03929       24.78470
1110.50000        7.52822       20.93949       76.20966        5.58865        4.00886       25.09048
1111.00000        7.72984       16.52830       73.83264        4.73049        3.58602       25.10476
1111.50000        7.93145       17.32076       73.01309        3.87234        3.27787       25.11904
1112.00000        8.20020       19.89623       73.79030        4.26241        3.42375       25.32011
1112.50000        8.25403       20.55000       75.40220        4.65248        3.57042       25.42918
1113.00000        8.09274       20.64906       75.20260        4.78276        3.71631       25.09802
1113.50000        7.89113       22.01604       78.32659        4.62127        3.62971       24.93938
1114.00000        7.73427       23.01849       82.05542        4.38723        3.55092       24.93938
1114.50000        7.65202       22.68289       85.75401        4.47070        3.50177       25.63739
1115.00000        7.86814       21.12453       86.28929        4.63297        3.45340       27.80720
1115.50000        8.08508       19.95328       87.52014        4.66106        3.40425       29.95875
1116.00000        8.30202       20.63598       87.27820        4.48787        3.49085       29.95082
1116.50000        8.44960       20.76436       84.37498        4.65248        3.52907       29.94289
1117.00000        8.31855       20.06185       84.14816        4.84751        3.40425       29.93496
1117.50000        8.19355       19.54755       83.01409        4.65248        3.24822       29.92703
1118.00000        8.09274       19.78528       80.48587        4.57446        3.17021       29.92068
1118.50000        7.99193       20.12406       77.26813        4.54638        3.09219       29.92068
1119.00000        7.89395       20.86698       74.77922        4.40439        3.24042       29.92068
1119.50000        7.79798       21.23864       71.95462        4.26241        3.38943       29.92068
