~Version ---------------------------------------------------
VERS. 2.0 : CWLS LOG ASCII STANDARD - VERSION 2.0
WRAP. NO  : One line per depth step
DLM . SPACE : Column Data Section Delimiter
~Well ------------------------------------------------------
STRT.F          227 : START DEPTH
STOP.F       2033.0 : STOP DEPTH
STEP.F          0.5 : STEP
NULL.       -999.25 : NULL VALUE
COMP.                  WALSH & WATTS, INC : COMPANY
WELL.                          HYNDS A 10 : WELL
FLD .                           N. NOCONA : FIELD
CNTY.                            MONTAGUE : COUNTY
STAT.                               TEXAS : STATE
CTRY.                                 USA : COUNTRY
SEC .                                     : SECTION
TWP .                                     : TOWNSHIP
RGE .                                     : RANGE
LOC .  244' SE OF NO. 5A J.J. WALL SURVEY : LOCATION
EKB .F                    903.5 : ELEVATION KELLY BUSHING
EDF .F                          : ELEVATION DERRICK FLOOR
EGL .F                      897 : ELEVATION GROUND LEVEL
PDAT.                        GL : PERMANENT DATUM
EPD .                           : ELEVATION PERMANENT DATUM
APD .                         6 : ABOVE PERMANENT DATUM
LMF .                           : LOG MEASURED FROM
DMF .                           : DRILLING MEASURED FROM
API .            42337037830000 : API NUMBER
UWI .            42337037830000 : UWI NUMBER
DIGC.                     NthDS : DIGITIZING COMPANY
~Params ----------------------------------------------------
SRVC.              SCHLUMBERGER : LOGGING COMPANY
LOG .                       IEL : LOG
DATE.                1957-10-20 : RUN DATE
RUN .                         1 : RUN NUMBER
TDD .F                          : TOTAL DEPTH DRILLER
TDL .F                          : TOTAL DEPTH LOGGER
BOTL.F                     2039 : BOTTOM LOGGED INTERVAL
TOPL.F                          : TOP LOGGED INTERVAL
CSGS.IN                         : CASING SIZE
CSGD.F                      227 : CASING DRILLER
CSGL.F                      227 : CASING LOGGER
BS  .IN                    8.75 : BIT SIZE
MUD .                       GEL : MUD TYPE
MUDD.                       9.9 : MUD DENSITY
MUDV.                        50 : MUD VISCOSITY
PH  .                           : MUD PH
FL  .                           : FLUID LOSS
MUDS.                           : SOURCE OF SAMPLE
RM  .OHMM                   2.3 : MUD RESISTIVITY
RMT .DEGF                    60 : RM TEMPERATURE
RMF .OHMM                   .76 : MUD FILTRATE RESISTIVITY
RMFT.DEGF                    96 : RMF TEMPERATURE
RMC .OHMM                   1.7 : MUD CAKE RESISTIVITY
RMCT.DEGF                    96 : RMC TEMPERATURE
RMFS.                           : RMF SOURCE
RMCS.                           : RMC SOURCE
RMBH.OHMM                   1.4 : MUD RESISTIVITY AT BHT
BHT .DEGF                    96 : BOTTOM HOLE TEMPERATURE
TIMC.                           : TIME CIRCULATION STOPPED
TIML.                           : TIME LOGGER ON BOTTOM
TMAX.DEGF                       : MAXIMUM RECORDED TEMPERATURE
UNIT.                       785 : EQUIPMENT NUMBER
BASE.                        WF : BASE LOCATION
ENG .                     JONES : RECORDED BY
WIT .               BALCH & NIX : WITNESSED BY
~Curve Information -----------------------------------------
DEPT.F          :DEPTH
CILD.MMHO       :
ILD.OHMM        :
ROP.FT/HR       :
SN.OHMM         :
SP.MV           :
~ASCII ------------------------------------------------------
# ...
464.50000      215.31923        4.85694        -999.25        6.05405      -25.90581
465.00000      217.12536        4.81694        -999.25        6.12612      -25.00002
465.50000      219.82986        4.83315        -999.25        6.23423      -25.00002
466.00000      219.84548        4.90090        -999.25        6.34234      -26.26813
466.50000      217.17536        5.00613        -999.25        6.45045      -26.99277
467.00000      212.71474        5.11099        -999.25        6.70270      -26.81161
467.50000      208.25411        5.16865        -999.25        7.09910      -26.44929
468.00000      206.47924        5.18919        -999.25        7.81982      -27.17393
468.50000      205.59961        5.18919        -999.25        8.61261      -29.34784
469.00000      205.61524        5.39748        -999.25        9.45946      -32.60871
469.50000      199.36412        5.65766        -999.25        9.96396      -36.98733
470.00000      190.42725        5.95784        -999.25        9.69369      -39.22103
470.50000      183.28087        6.25225        -999.25        8.14414      -36.71559
471.00000      177.92500        6.06306        -999.25        7.29730      -33.33335
471.50000      184.21050        5.61117        -999.25        7.29513      -29.52900
472.00000      195.86437        5.18919        -999.25        7.15531      -28.26089
472.50000      210.20399        4.82883        -999.25        7.07207      -29.16668
473.00000      220.96261        4.72072        -999.25        7.15315      -30.79712
473.50000      225.45448        4.72072        -999.25        7.31531      -32.97103
474.00000      224.57486        4.87531        -999.25        7.53153      -35.86958
474.50000      219.21898        5.16216        -999.25        7.67567      -39.31161
475.00000      207.59636        5.53766        -999.25        7.78378      -40.57972
475.50000      194.18325        6.06450        -999.25        7.89189      -38.40581
476.00000      178.97963        6.63063        -999.25        8.07207      -34.78262
476.50000      167.36013        6.86234        -999.25        8.50450      -33.33335
477.00000      163.79476        7.07676        -999.25        9.15315      -34.23915
477.50000      161.12464        7.27928        -999.25       10.01081      -36.59422
478.00000      155.76876        7.74775        -999.25       10.69549      -38.76813
478.50000      148.62239        8.21621        -999.25       11.36036      -39.49277
479.00000      140.58077        8.73117        -999.25       11.63964      -40.39856
479.50000      133.61345        8.88288        -999.25       11.17117      -42.21016
480.00000      132.85021        8.44432        -999.25       10.26234      -44.74639
480.50000      141.52290        7.63964        -999.25        9.00901      -45.47103
481.00000      153.17677        6.91892        -999.25        8.14414      -45.10871
481.50000      168.41476        6.32180        -999.25        7.49549      -44.20291
482.00000      180.96388        5.81730        -999.25        7.06306      -42.93480
482.50000      191.72250        5.40540        -999.25        6.73874      -42.02900
483.00000      200.69062        5.19748        -999.25        6.48649      -40.76088
483.50000      208.76349        4.98955        -999.25        6.27027      -39.31161
484.00000      215.94111        4.80180        -999.25        6.09009      -38.40581
484.50000      223.11874        4.64396        -999.25        5.80180      -37.50001
485.00000      228.50586        4.50450        -999.25        5.47748      -34.96378
485.50000      236.58185        4.34847        -999.25        5.18919      -31.03806
486.00000      243.75948        4.21117        -999.25        4.97297      -27.35509
486.50000      250.93710        4.00504        -999.25        4.76180      -25.36234
487.00000      259.00997        3.91604        -999.25        4.57045      -23.73190
487.50000      264.39709        3.85586        -999.25        4.54054      -23.18842
488.00000      268.88897        3.81982        -999.25        4.60072      -23.73190
488.50000      270.69509        3.81982        -999.25        4.66054      -23.91306
489.00000      270.71071        3.85910        -999.25        4.72072      -23.91306
489.50000      267.14847        3.92468        -999.25        4.81910      -23.18842
490.00000      265.37359        3.97838        -999.25        4.91712      -23.73190
490.50000      262.70347        4.00000        -999.25        4.87676      -23.36958
491.00000      260.03335        4.00000        -999.25        4.81694      -21.92031
491.50000      259.15372        3.98450        -999.25        4.75676      -20.83335
492.00000      260.06460        3.90739        -999.25        4.67820      -20.47103
492.50000      264.55647        3.83027        -999.25        4.57153      -20.28987
493.00000      270.83884        3.75063        -999.25        4.46522      -20.10871
493.50000      277.12121        3.66739        -999.25        4.35856      -19.92755
494.00000      284.30196        3.58414        -999.25        4.25225      -19.56524
494.50000      290.58433        3.52432        -999.25        4.18450      -19.02176
495.00000      295.07621        3.47027        -999.25        4.13513      -18.47828
495.50000      297.77758        3.44432        -999.25        4.10811      -17.93480
496.00000      299.58370        3.42955        -999.25        4.14595      -17.57248
496.50000      300.49458        3.44757        -999.25        4.18414      -17.21016
497.00000      300.51020        3.48757        -999.25        4.22198      -17.21016
497.50000      297.84008        3.52757        -999.25        4.25585      -17.57248
498.00000      294.27471        3.56757        -999.25        4.27387      -18.11596
498.50000      289.81408        3.60757        -999.25        4.28829      -18.84060
499.00000      285.35659        3.64360        -999.25        4.28829      -19.74639
499.50000      282.68646        3.66378        -999.25        4.28829      -21.55799
500.00000      279.31783        3.70558        -999.25        4.34234      -22.28263
500.50000      276.64770        3.72360        -999.25        4.37838      -21.92031
501.00000      271.29183        3.79676        -999.25        4.46847      -21.19567
501.50000      266.83121        3.86234        -999.25        4.55856      -20.47103
502.00000      262.37058        3.92793        -999.25        4.68468      -20.28987
502.50000      258.80521        3.97694        -999.25        4.67856      -20.28987
503.00000      255.63375        4.02631        -999.25        4.66883      -20.47103
503.50000      252.67132        4.02667        -999.25        4.65874      -20.47103
504.00000      251.69321        4.01261        -999.25        4.64649      -20.47103
504.50000      251.70884        4.00108        -999.25        4.63676      -20.47103
505.00000      252.32428        3.98955        -999.25        4.62667      -20.47103
505.50000      253.82602        3.97802        -999.25        4.61658      -20.47103
506.00000      255.33671        3.96613        -999.25        4.60757      -20.65219
506.50000      256.59091        3.95495        -999.25        4.59964      -20.47103
507.00000      257.64502        3.94378        -999.25        4.59135      -20.28987
507.50000      258.07246        3.93009        -999.25        4.58162      -20.10871
508.00000      258.08809        3.92793        -999.25        4.57658      -20.28987
508.50000      257.90676        3.92793        -999.25        4.57658      -20.28987
509.00000      257.42104        3.92793        -999.25        4.57658      -20.47103
509.50000      258.13496        3.91495        -999.25        4.57658      -20.47103
510.00000      259.85469        3.89838        -999.25        4.57658      -20.28987
510.50000      261.21319        3.89189        -999.25        4.57658      -20.28987
511.00000      261.57796        3.89189        -999.25        4.57658      -20.10871
511.50000      261.27129        3.88360        -999.25        4.57658      -19.38408
