~Version ---------------------------------------------------
VERS. 2.0 : CWLS LOG ASCII STANDARD - VERSION 2.0
WRAP. NO  : One line per depth step
DLM . SPACE : Column Data Section Delimiter
~Well ------------------------------------------------------
STRT.F          572 : START DEPTH
STOP.F       1770.0 : STOP DEPTH
STEP.F          0.5 : STEP
NULL.       -999.25 : NULL VALUE
COMP.         WALSH & WATTS, INCORPORATED : COMPANY
WELL.                         SALMON E 44 : WELL
FLD .                             REGULAR : FIELD
CNTY.                            MONTAGUE : COUNTY
STAT.                               TEXAS : STATE
CTRY.                                 USA : COUNTRY
SEC .                                     : SECTION
TWP .                                     : TOWNSHIP
RGE .                                     : RANGE
LOC . 300' WEST OF NO 23, 300' SOUTH OF D-9, F.ROBERTSON SURV. : LOCATION
EKB .F                      862 : ELEVATION KELLY BUSHING
EDF .F                          : ELEVATION DERRICK FLOOR
EGL .F                      856 : ELEVATION GROUND LEVEL
PDAT.                        GL : PERMANENT DATUM
EPD .                       856 : ELEVATION PERMANENT DATUM
APD .                         6 : ABOVE PERMANENT DATUM
LMF .                        KB : LOG MEASURED FROM
DMF .                        KB : DRILLING MEASURED FROM
API .            42337038720000 : API NUMBER
UWI .                           : UWI NUMBER
DIGC.                     NthDS : DIGITIZING COMPANY
~Params ----------------------------------------------------
SRVC.              SCHLUMBERGER : LOGGING COMPANY
LOG .                     SONIC : LOG
DATE.                1965-11-28 : RUN DATE
RUN .                         1 : RUN NUMBER
TDD .F                     1179 : TOTAL DEPTH DRILLER
TDL .F                     1179 : TOTAL DEPTH LOGGER
BOTL.F                     1170 : BOTTOM LOGGED INTERVAL
TOPL.F                      600 : TOP LOGGED INTERVAL
CSGS.IN                         : CASING SIZE
CSGD.F                          : CASING DRILLER
CSGL.F                          : CASING LOGGER
BS  .IN                   7.875 : BIT SIZE
MUD .                       GEL : MUD TYPE
MUDD.                        10 : MUD DENSITY
MUDV.                        98 : MUD VISCOSITY
PH  .                           : MUD PH
FL  .                           : FLUID LOSS
MUDS.                CIRCULATED : SOURCE OF SAMPLE
RM  .OHMM                   2.0 : MUD RESISTIVITY
RMT .DEGF                    81 : RM TEMPERATURE
RMF .OHMM                   1.5 : MUD FILTRATE RESISTIVITY
RMFT.DEGF                    81 : RMF TEMPERATURE
RMC .OHMM                       : MUD CAKE RESISTIVITY
RMCT.DEGF                       : RMC TEMPERATURE
RMFS.                         M : RMF SOURCE
RMCS.                           : RMC SOURCE
RMBH.OHMM                   1.6 : MUD RESISTIVITY AT BHT
BHT .DEGF                   100 : BOTTOM HOLE TEMPERATURE
TIMC.                           : TIME CIRCULATION STOPPED
TIML.                           : TIME LOGGER ON BOTTOM
TMAX.DEGF                   100 : MAXIMUM RECORDED TEMPERATURE
UNIT.                      4559 : EQUIPMENT NUMBER
BASE.                       WFS : BASE LOCATION
ENG .                      FINK : RECORDED BY
WIT .                       NIX : WITNESSED BY
~Curve Information -----------------------------------------
DEPT.F          :DEPTH
CALS.IN         :
DT.US/F         :
SP.MV           :
~ASCII ------------------------------------------------------
# ...
718.00000        8.23565      114.78000      -66.30111
718.50000        8.36553      120.46000      -67.21244
719.00000        8.37709      122.18300      -68.12675
719.50000        8.39298      119.60000      -68.48828
720.00000        8.40227      124.42500      -67.73528
720.50000        8.33235      128.40000      -67.57988
721.00000        8.20825      127.70000      -68.32088
721.50000        8.37936      124.03800      -66.80892
722.00000        8.37638      121.72500      -64.73521
722.50000        8.37877      122.90000      -63.45931
723.00000        8.36642      124.16700      -65.37162
723.50000        8.21025      121.86700      -63.35946
724.00000        8.11105      118.70000      -66.93909
724.50000        7.95029      112.85000      -70.81752
725.00000        7.89631      106.56000      -71.62726
725.50000        7.87321      109.63300      -72.43400
726.00000        8.03297      114.04700      -70.68001
726.50000        8.07321      116.78000      -68.28359
727.00000        8.11345      119.51300      -68.14015
727.50000        7.96445      120.95000      -69.78653
728.00000        7.72780      114.98000      -74.40300
728.50000        7.72421      101.30000      -78.68781
729.00000        7.73656       93.12501      -81.03338
729.50000        7.73696       95.40001      -82.70964
730.00000        7.75071      104.65000      -79.23754
730.50000        7.97023      114.52000      -72.80729
731.00000        7.97720      111.35000      -70.14195
731.50000        7.88298      104.56700      -74.31919
732.00000        7.89593      109.20000      -75.90581
732.50000        7.84554      120.40000      -73.90979
733.00000        7.84602      120.14000      -74.89880
733.50000        7.69542      119.23300      -72.40378
734.00000        7.59124      121.55000      -69.75637
734.50000        7.52949      124.80000      -66.51434
735.00000        7.46754      126.95000      -69.12287
735.50000        7.56256      127.16000      -70.88578
736.00000        7.70240      124.97500      -72.30208
736.50000        7.74264      121.91200      -67.68436
737.00000        7.95638      115.96700      -67.77697
737.50000        8.04224      109.06000      -69.76399
738.00000        8.05599      111.36000      -68.26398
738.50000        8.00320      112.10000      -69.28586
739.00000        8.02352      106.60000      -70.94120
739.50000        8.19125      113.50000      -66.45317
740.00000        8.23806      124.78300      -64.65436
740.50000        8.25659      119.80000      -66.88938
741.00000        8.26038      114.50000      -67.33159
741.50000        8.25460      116.20000      -63.34255
742.00000        8.24883      121.70000      -63.73396
742.50000        8.22831      125.55000      -64.92317
743.00000        8.18608      128.30000      -64.91718
743.50000        8.15321      124.88600      -66.09145
744.00000        7.97971      119.81400      -68.05157
744.50000        7.77095      119.25000      -70.01169
745.00000        7.73669      119.78600      -71.96883
745.50000        7.74625      118.40000      -70.65109
746.00000        7.62283      118.90000      -70.25963
746.50000        7.63697      118.68000      -71.63410
747.00000        7.67622      119.64300      -69.57533
747.50000        7.68817      121.55000      -69.28547
748.00000        7.70032      122.80000      -70.17588
748.50000        7.71248      124.80000      -68.03943
749.00000        7.94056      128.03000      -63.05120
749.50000        8.06606      130.08000      -60.30518
750.00000        8.13857      131.35000      -60.35787
750.50000        8.19543      131.87837      -61.78929
751.00000        8.21392      132.53041      -64.61334
751.50000        8.22306      131.32602      -67.92646
752.00000        8.15209      124.84547      -68.45728
752.50000        7.90000      120.45863      -68.29028
753.00000        7.77734      129.33201      -70.55668
753.50000        7.89662      131.12662      -74.07557
754.00000        7.86879      123.32104      -76.61036
754.50000        7.79503      117.19741      -79.20479
755.00000        7.79324      109.59123      -79.92049
755.50000        7.64612      101.21636      -78.39366
756.00000        7.65507      104.50648      -79.69684
756.50000        7.88370      117.71685      -77.53481
757.00000        8.26899      126.91027      -74.10539
757.50000        8.37694      132.34297      -75.41453
758.00000        8.36580      130.32901      -77.56761
758.50000        8.02346      113.28016      -79.32407
759.00000        7.71630      101.41576      -80.81513
759.50000        7.78648       93.14058      -78.95131
760.00000        7.96819       93.50649      -79.54773
760.50000        7.96819       97.47757      -83.83302
761.00000        7.95229      101.61516      -84.69186
761.50000        7.90855      103.85843      -79.17497
762.00000        7.87992      105.00499      -74.40360
762.50000        7.93499      104.89233      -73.21075
763.00000        7.94036      106.32603      -77.23660
763.50000        7.87077      105.80260      -81.63521
764.00000        7.77674      103.12264      -85.75648
764.50000        7.70139      102.31307      -93.33997
765.00000        7.63857      104.85544      -99.30419
765.50000        7.57575      107.29811     -100.99504
766.00000        7.54553      108.84746     -101.61532
766.50000        7.53718      110.26621     -101.77635
767.00000        7.52863      111.68495     -101.25150
767.50000        7.52028      110.83051     -100.72367
768.00000        7.51173      109.49153     -100.19882
768.50000        7.50338      108.49452     -100.69683
769.00000        7.49483      107.74676     -101.19186
769.50000        7.48648      107.71685      -99.78132
770.00000        7.47793      109.29213      -95.47814
770.50000        7.49105      112.20339      -88.27039
771.00000        7.68708      116.73280      -81.06264
771.50000        8.05765      125.01994      -75.57556
772.00000        8.11869      130.32901      -75.09545
772.50000        8.04771      128.85045      -76.99207
773.00000        7.97674      129.43171      -78.79326
773.50000        7.94235      132.82154      -80.45131
774.00000        7.93241      128.13559      -81.11334
774.50000        7.86024      112.40280      -81.11334
775.00000        7.73161       98.14258      -79.83401
775.50000        7.54274       95.21436      -78.55767
776.00000        7.26839      102.57927      -77.38570
776.50000        6.70775      113.60419      -76.64018
777.00000        6.41749      111.58525      -72.66503
777.50000        6.25845      104.06780      -70.13918
778.00000        5.89662      107.33799      -73.31811
778.50000        5.73439      112.98106      -76.08551
779.00000        5.71272      115.97209      -77.63322
779.50000        5.79264      111.58525      -78.62924
780.00000        6.01988      103.16052      -80.66602
780.50000        6.63618      106.50050      -83.69882
781.00000        7.05368      108.65105      -86.87775
781.50000        7.15308      100.81755      -88.86681
782.00000        7.19682      102.11366      -89.53779
782.50000        7.19940      104.43171      -88.23163
783.00000        7.26580      105.67797      -89.76145
783.50000        7.33201      105.82752      -90.47715
784.00000        7.39821      109.63410      -88.86681
784.50000        7.44135      117.22832      -84.69186
785.00000        7.86223      122.05384      -77.98212
785.50000        8.13718      111.78465      -72.89167
786.00000        8.31610      111.85145      -68.43938
786.50000        8.30616      111.78465      -66.35191
787.00000        8.19423      110.56830      -66.05370
787.50000        8.12724      110.72782      -66.70082
788.00000        8.12724      108.71885      -68.34992
788.50000        8.03777      105.78964      -71.47219
789.00000        7.94831      101.01695      -76.49107
789.50000        7.93718       95.59622      -82.70280
790.00000        7.88867       89.42673      -87.82308
790.50000        7.68986       90.89034      -90.41751
