~Version ---------------------------------------------------
VERS. 2.0 : CWLS LOG ASCII STANDARD - VERSION 2.0
WRAP. NO  : One line per depth step
DLM . SPACE : Column Data Section Delimiter
~Well ------------------------------------------------------
STRT.F          500 : START DEPTH
STOP.F       2022.5 : STOP DEPTH
STEP.F          0.5 : STEP
NULL.       -999.25 : NULL VALUE
COMP.                 WALSH & WATTS, INC. : COMPANY
WELL.                          HYNDS A 10 : WELL
FLD .                           N. NOCONA : FIELD
CNTY.                            MONTAGUE : COUNTY
STAT.                               TEXAS : STATE
CTRY.                                 USA : COUNTRY
SEC .                                     : SECTION
TWP .                                     : TOWNSHIP
RGE .                                     : RANGE
LOC .  244' SE OF NO. 5A J.J. WALL SURVEY : LOCATION
EKB .F                    903.5 : ELEVATION KELLY BUSHING
EDF .F                          : ELEVATION DERRICK FLOOR
EGL .F                      897 : ELEVATION GROUND LEVEL
PDAT.                        GL : PERMANENT DATUM
EPD .                           : ELEVATION PERMANENT DATUM
APD .                         6 : ABOVE PERMANENT DATUM
LMF .                           : LOG MEASURED FROM
DMF .                           : DRILLING MEASURED FROM
API .            42337037830000 : API NUMBER
UWI .            42337037830000 : UWI NUMBER
DIGC.                     NthDS : DIGITIZING COMPANY
~Params ----------------------------------------------------
SRVC.                LANE WELLS : LOGGING COMPANY
LOG .                       GRN : LOG
DATE.                1957-11-30 : RUN DATE
RUN .                         1 : RUN NUMBER
TDD .F                     2039 : TOTAL DEPTH DRILLER
TDL .F                     2015 : TOTAL DEPTH LOGGER
BOTL.F                     2023 : BOTTOM LOGGED INTERVAL
TOPL.F                      500 : TOP LOGGED INTERVAL
CSGS.IN                     5.5 : CASING SIZE
CSGD.F                     2038 : CASING DRILLER
CSGL.F                          : CASING LOGGER
BS  .IN                    8.75 : BIT SIZE
MUD .                     WATER : MUD TYPE
MUDD.                           : MUD DENSITY
MUDV.                           : MUD VISCOSITY
PH  .                           : MUD PH
FL  .                           : FLUID LOSS
MUDS.                           : SOURCE OF SAMPLE
RM  .OHMM                       : MUD RESISTIVITY
RMT .DEGF                       : RM TEMPERATURE
RMF .OHMM                       : MUD FILTRATE RESISTIVITY
RMFT.DEGF                       : RMF TEMPERATURE
RMC .OHMM                       : MUD CAKE RESISTIVITY
RMCT.DEGF                       : RMC TEMPERATURE
RMFS.                           : RMF SOURCE
RMCS.                           : RMC SOURCE
RMBH.OHMM                       : MUD RESISTIVITY AT BHT
BHT .DEGF                       : BOTTOM HOLE TEMPERATURE
TIMC.                           : TIME CIRCULATION STOPPED
TIML.                           : TIME LOGGER ON BOTTOM
TMAX.DEGF                       : MAXIMUM RECORDED TEMPERATURE
UNIT.                           : EQUIPMENT NUMBER
BASE.                           : BASE LOCATION
ENG .                   ROBERTS : RECORDED BY
WIT .                       NIX : WITNESSED BY
~Curve Information -----------------------------------------
DEPT.F          :DEPTH
GRN.GAPI        :
NEUT.API        :
~ASCII ------------------------------------------------------
# ...
600.00000       32.54984     1999.92623
600.50000       32.00821     2045.93233
601.00000       32.97743     1981.69296
601.50000       33.16275     1880.29262
602.00000       34.07772     1819.12877
602.50000       36.38798     1872.97486
603.00000       37.19626     1958.48952
603.50000       35.72063     2026.71578
604.00000       34.06418     2113.14036
604.50000       34.81821     2109.48322
605.00000       36.17532     2092.35933
605.50000       36.44743     2069.41197
606.00000       36.43022     2014.79952
606.50000       37.19058     1974.74573
607.00000       35.41026     1901.93496
607.50000       35.31167     1807.28619
608.00000       35.05033     1765.86753
608.50000       35.97434     1749.01311
609.00000       36.58009     1734.43698
609.50000       37.53936     1748.97817
610.00000       37.68851     1770.79870
610.50000       36.25087     1798.07872
611.00000       35.22733     1801.70091
611.50000       35.86110     1812.60244
612.00000       36.45872     1865.36012
612.50000       34.97405     1934.49629
613.00000       32.93424     1985.43413
613.50000       31.75987     2037.70046
614.00000       29.92259     2103.03318
614.50000       29.86288     2086.83740
615.00000       31.33662     2006.29233
615.50000       32.75792     1892.07687
616.00000       34.17922     1839.73921
616.50000       35.69817     1852.71535
617.00000       36.55798     1905.67321
617.50000       34.18544     1974.35442
618.00000       29.83550     2034.39143
618.50000       27.62209     2092.60861
619.00000       27.88155     2160.65288
619.50000       31.39597     2169.60718
620.00000       34.46103     2116.81457
620.50000       34.27745     1974.24961
621.00000       33.30996     1808.62387
621.50000       34.61010     1803.14690
622.00000       35.02960     1818.28864
622.50000       34.84963     1795.83264
623.00000       35.93566     1763.05818
623.50000       35.27378     1750.30188
624.00000       33.83523     1743.00508
624.50000       34.67245     1738.74740
625.00000       33.22666     1753.88914
625.50000       35.09190     1772.07000
626.00000       35.99512     1754.21817
626.50000       36.14065     1750.19707
627.00000       37.20843     1744.51642
627.50000       36.39555     1761.67817
628.00000       34.07183     1760.15024
628.50000       33.65498     1753.76336
629.00000       34.50937     1711.67136
629.50000       33.63592     1698.53290
630.00000       32.33118     1779.18861
630.50000       32.87455     1822.84713
631.00000       32.36547     1786.43300
631.50000       31.09238     1770.03704
632.00000       30.30030     1763.95953
632.50000       31.17820     1800.33871
633.00000       30.98016     1844.34299
633.50000       31.93689     1914.64386
634.00000       32.39255     1928.27514
634.50000       31.34460     1900.95668
635.00000       31.52630     2031.96716
635.50000       29.49281     2152.06214
636.00000       25.96294     2288.53212
636.50000       22.05966     2443.20043
637.00000       20.35438     2546.91342
637.50000       20.07768     2515.95880
638.00000       17.96914     2439.50486
638.50000       18.71233     2386.71225
639.00000       19.45641     2391.60833
639.50000       19.99525     2416.15860
640.00000       19.71312     2431.06376
640.50000       19.98071     2413.48490
641.00000       21.55662     2406.64306
641.50000       23.76183     2357.49011
642.00000       24.30519     2339.27432
642.50000       27.47061     2193.66674
643.00000       29.87653     2112.97609
643.50000       30.72748     2165.42440
644.00000       27.73740     2310.08362
644.50000       25.34569     2452.01310
645.00000       22.27604     2597.58224
645.50000       18.88632     2717.67373
646.00000       15.49660     2826.84971
646.50000       12.10688     2797.71143
647.00000       10.20901     2801.33362
647.50000       10.75238     2775.83850
648.00000       11.83841     2733.43713
648.50000       11.70998     2686.63176
649.00000       11.90795     2704.81262
649.50000       12.98206     2712.52944
650.00000       13.11045     2766.78867
650.50000       12.25780     2819.40272
651.00000       11.30388     2847.82445
651.50000       11.55791     2873.08828
652.00000       11.89331     2884.68608
652.50000       11.53885     2824.77767
653.00000       11.39776     2724.93845
653.50000       12.73498     2663.21516
654.00000       13.99172     2648.67871
654.50000       14.61012     2623.25299
655.00000       14.83703     2550.64043
655.50000       15.44097     2614.14375
656.00000       15.13985     2859.46160
656.50000       14.19407     3120.13333
657.00000       12.96799     3277.43306
657.50000       11.74102     3222.96580
658.00000       11.73827     3211.15167
658.50000       12.79338     3133.09447
659.00000       12.94525     3094.40199
659.50000       13.41627     2882.87863
660.00000       15.66849     2671.37342
660.50000       19.54837     2449.71955
661.00000       22.43079     2278.19611
661.50000       24.16131     2385.78283
662.00000       24.02655     2479.61278
662.50000       21.26974     2601.19222
663.00000       17.90443     2717.32702
663.50000       14.63677     2811.68328
664.00000       11.36821     2869.99605
664.50000        9.56438     2904.33428
665.00000        9.15837     2938.67251
665.50000        9.53266     2928.01990
666.00000       10.49374     2865.78844
666.50000       10.98737     2888.96517
667.00000       10.65370     2933.48486
667.50000        9.97645     2936.77052
668.00000       11.06231     2880.29223
668.50000       11.05052     2815.13882
669.00000       11.03421     2764.30480
669.50000       11.60741     2700.76315
670.00000       11.15620     2640.12878
670.50000       11.29269     2594.73940
671.00000       12.31074     2587.58951
671.50000       11.91197     2598.66099
672.00000       11.70216     2567.46396
672.50000       12.78802     2571.22148
673.00000       12.51764     2532.05713
673.50000       13.51308     2492.87463
674.00000       14.74089     2453.69213
674.50000       15.96870     2428.95607
675.00000       16.98765     2458.41227
675.50000       16.88816     2472.78335
676.00000       15.66118     2522.67509
676.50000       14.22896     2580.73378
677.00000       13.42874     2631.53296
677.50000       13.79127     2649.66432
678.00000       13.97297     2593.38566
678.50000       13.25052     2656.88899
679.00000       12.07615     2716.76256
679.50000       12.98118     2760.30222
680.00000       13.19271     2745.31205
680.50000       13.52541     2698.56151
681.00000       13.88794     2629.57870
681.50000       14.79296     2562.41078
682.00000       15.05152     2489.79822
682.50000       14.87788     2429.88981
683.00000       14.70515     2375.42255
683.50000       15.80367     2395.06026
684.00000       16.08121     2432.86490
684.50000       16.58388     2451.59518
685.00000       19.19957     2426.89541
685.50000       22.25016     2328.14860
686.00000       26.00057     2195.64505
686.50000       29.37666     2095.80931
687.00000       32.75275     2014.72126
687.50000       36.42014     2011.38261
688.00000       39.41106     2009.23830
688.50000       41.65876     1992.65104
689.00000       40.46795     2012.59728
689.50000       38.61891     2023.10615
690.00000       37.45070     2003.12507
690.50000       36.73457     2028.51595
691.00000       37.25081     2008.53486
691.50000       36.58260     2012.87315
692.00000       36.64676     2046.61247
692.50000       34.07078     2077.24834
693.00000       31.35918     2094.36337
693.50000       30.83292     2102.82143
694.00000       27.29221     2040.19071
694.50000       28.49289     2051.96999
695.00000       30.67187     2100.04685
695.50000       31.79570     2104.56663
696.00000       30.79205     2064.62188
696.50000       32.11842     2019.22901
697.00000       36.06774     1955.09193
697.50000       37.06318     1924.36677
698.00000       36.05139     1967.76124
698.50000       34.68789     2037.30811
699.00000       35.07664     2115.33046
699.50000       33.99252     2195.76660
