~Version ---------------------------------------------------
VERS. 2.0 : CWLS LOG ASCII STANDARD - VERSION 2.0
WRAP. NO  : One line per depth step
DLM . SPACE : Column Data Section Delimiter
~Well ------------------------------------------------------
STRT.F          194 : START DEPTH
STOP.F       1764.0 : STOP DEPTH
STEP.F          0.5 : STEP
NULL.       -999.25 : NULL VALUE
COMP.                 WALSH & WATTS, INC. : COMPANY
WELL.                         SALMON E 42 : WELL
FLD .                        NORTH NOCONA : FIELD
CNTY.                            MONTAGUE : COUNTY
STAT.                               TEXAS : STATE
CTRY.                                 USA : COUNTRY
SEC .                                     : SECTION
TWP .                                     : TOWNSHIP
RGE .                                     : RANGE
LOC . 150' FSL & 300' W OF WELL NO. 1, 407' E OF WELL NO. 5, F. ROBERTSON SURVEY : LOCATION
EKB .F                      880 : ELEVATION KELLY BUSHING
EDF .F                          : ELEVATION DERRICK FLOOR
EGL .F                      874 : ELEVATION GROUND LEVEL
PDAT.              GROUND LEVEL : PERMANENT DATUM
EPD .                       874 : ELEVATION PERMANENT DATUM
APD .                         6 : ABOVE PERMANENT DATUM
LMF .                        KB : LOG MEASURED FROM
DMF .                        KB : DRILLING MEASURED FROM
API .            42337037780000 : API NUMBER
UWI .            42337037780000 : UWI NUMBER
DIGC.                     NthDS : DIGITIZING COMPANY
~Params ----------------------------------------------------
SRVC.                LANE WELLS : LOGGING COMPANY
LOG .                       IEL : LOG
DATE.                1965-11-21 : RUN DATE
RUN .                         1 : RUN NUMBER
TDD .F                     1766 : TOTAL DEPTH DRILLER
TDL .F                     1768 : TOTAL DEPTH LOGGER
BOTL.F                     1764 : BOTTOM LOGGED INTERVAL
TOPL.F                      200 : TOP LOGGED INTERVAL
CSGS.IN                         : CASING SIZE
CSGD.F                          : CASING DRILLER
CSGL.F                          : CASING LOGGER
BS  .IN                   7.875 : BIT SIZE
MUD .              CHEMICAL GEL : MUD TYPE
MUDD.                       9.8 : MUD DENSITY
MUDV.                       123 : MUD VISCOSITY
PH  .                           : MUD PH
FL  .                           : FLUID LOSS
MUDS.                CIRCULATED : SOURCE OF SAMPLE
RM  .OHMM                   2.1 : MUD RESISTIVITY
RMT .DEGF                    70 : RM TEMPERATURE
RMF .OHMM                  1.81 : MUD FILTRATE RESISTIVITY
RMFT.DEGF                    70 : RMF TEMPERATURE
RMC .OHMM                  2.34 : MUD CAKE RESISTIVITY
RMCT.DEGF                    70 : RMC TEMPERATURE
RMFS.                  MEASURED : RMF SOURCE
RMCS.                           : RMC SOURCE
RMBH.OHMM                   1.5 : MUD RESISTIVITY AT BHT
BHT .DEGF                    98 : BOTTOM HOLE TEMPERATURE
TIMC.                           : TIME CIRCULATION STOPPED
TIML.                           : TIME LOGGER ON BOTTOM
TMAX.DEGF                    98 : MAXIMUM RECORDED TEMPERATURE
UNIT.                    L-4553 : EQUIPMENT NUMBER
BASE.                      W.F. : BASE LOCATION
ENG .                     ADAMS : RECORDED BY
WIT .   MR. HARRELSON & MR. NIX : WITNESSED BY
~Curve Information -----------------------------------------
DEPT.F          :DEPTH
CILD.MMHO       :
ILD.OHMM        :
ROP.MIN/FT      :
SN.OHMM         :
SP.MV           :
~ASCII ------------------------------------------------------
# ...
1001.50000      481.62866        2.09073        -999.25        2.86837      -58.69567
1002.00000      482.62171        2.05128        -999.25        2.82908      -57.80635
1002.50000      481.62866        2.09073        -999.25        2.78978      -57.21346
1003.00000      479.64257        2.05128        -999.25        2.78978      -57.80635
1003.50000      478.64952        2.09073        -999.25        2.86837      -58.10279
1004.00000      477.65647        2.05128        -999.25        2.94695      -58.39923
1004.50000      475.67037        2.13018        -999.25        3.06483      -59.28856
1005.00000      472.69123        2.05128        -999.25        3.06483      -61.66010
1005.50000      469.71208        2.13018        -999.25        3.02554      -62.84587
1006.00000      465.73989        2.13018        -999.25        3.02554      -62.84587
1006.50000      459.78160        2.13018        -999.25        3.06483      -61.66010
1007.00000      454.81635        2.16962        -999.25        3.10412      -61.06722
1007.50000      450.84416        2.16962        -999.25        3.18271      -61.95654
1008.00000      444.88587        2.20907        -999.25        3.26130      -63.73520
1008.50000      439.92062        2.24852        -999.25        3.26130      -64.92097
1009.00000      436.94148        2.24852        -999.25        3.22200      -65.51385
1009.50000      435.94843        2.24852        -999.25        3.18271      -64.03164
1010.00000      434.95538        2.20907        -999.25        3.14342      -62.25299
1010.50000      438.92758        2.24852        -999.25        3.14342      -60.47433
1011.00000      441.90672        2.20907        -999.25        3.14342      -58.10279
1011.50000      444.88587        2.16962        -999.25        3.10412      -55.43481
1012.00000      449.85111        2.16962        -999.25        3.02554      -54.54548
1012.50000      451.83721        2.13018        -999.25        3.02554      -56.62058
1013.00000      452.83026        2.16962        -999.25        3.02554      -59.28856
1013.50000      451.83721        2.13018        -999.25        3.02554      -60.77077
1014.00000      446.87196        2.20907        -999.25        3.02554      -62.25299
1014.50000      444.88587        2.16962        -999.25        3.06483      -63.43876
1015.00000      444.88587        2.20907        -999.25        3.06483      -63.43876
1015.50000      445.87892        2.16962        -999.25        3.02554      -62.25299
1016.00000      447.86501        2.20907        -999.25        3.02554      -60.47433
1016.50000      449.85111        2.16962        -999.25        2.98625      -59.88144
1017.00000      452.83026        2.16962        -999.25        2.98625      -59.28856
1017.50000      454.81635        2.13018        -999.25        2.98625      -58.39923
1018.00000      459.78160        2.13018        -999.25        2.94695      -58.39923
1018.50000      463.75379        2.13018        -999.25        2.94695      -59.28856
1019.00000      466.73294        2.13018        -999.25        2.94695      -59.28856
1019.50000      469.71208        2.13018        -999.25        2.94695      -60.17789
1020.00000      473.68427        2.09073        0.72382        2.94695      -61.36366
1020.50000      475.67037        2.09073        0.72273        2.94695      -62.25299
1021.00000      476.66342        2.01183        0.72154        2.90766      -61.95654
1021.50000      476.66342        2.05128        0.72046        2.90766      -61.06722
1022.00000      476.66342        2.01183        0.71927        2.90766      -60.77077
1022.50000      476.66342        2.09073        0.71818        2.86837      -60.77077
1023.00000      475.67037        2.05128        0.71671        2.86837      -59.88144
1023.50000      472.69123        2.13018        0.71563        2.86837      -59.88144
1024.00000      468.71903        2.05128        0.99087        2.90766      -60.77077
1024.50000      462.76074        2.13018        0.99096        2.86837      -61.66010
1025.00000      456.80245        2.16962        0.99106        2.94695      -62.25299
1025.50000      449.85111        2.16962        0.99115        3.06483      -63.14231
1026.00000      444.88587        2.20907        0.99125        3.18271      -63.73520
1026.50000      442.89977        2.20907        0.99136        3.22200      -63.43876
1027.00000      442.89977        2.20907        0.99145        3.26130      -62.54943
1027.50000      441.90672        2.20907        0.99155        3.33988      -60.77077
1028.00000      440.91367        2.20907        0.99164        3.49705      -59.88144
1028.50000      437.93453        2.24852        0.99174        3.69352      -59.88144
1029.00000      432.96928        2.24852        0.99183        3.88998      -61.36366
1029.50000      424.03185        2.28797        0.99193        4.20432      -64.62453
1030.00000      415.09441        2.36686        0.99202        4.71513      -69.07117
1030.50000      407.15002        2.40631        0.72665        5.57957      -74.70358
1031.00000      402.18478        2.40631        0.72813        6.20825      -80.63243
1031.50000      398.21259        2.44576        0.72960        6.75835      -86.56128
1032.00000      399.20563        2.44576        0.73108        6.91552      -92.78658
1032.50000      400.19868        2.44576        0.73256        6.48330      -93.67590
1033.00000      404.17088        2.40631        0.73403        5.81532      -90.71148
1033.50000      408.14307        2.44576        0.73551        5.30452      -85.96840
1034.00000      405.16393        2.44576        0.99173        4.99018      -79.15021
1034.50000      398.21259        2.52465        0.98907        4.91159      -73.22136
1035.00000      386.29600        2.60355        0.98640        5.18664      -69.96049
1035.50000      371.40028        2.72189        0.98383        5.61886      -67.88540
1036.00000      345.58101        2.91913        0.71706        6.36542      -69.96049
1036.50000      314.79651        3.19527        0.71745        7.46562      -79.74310
1037.00000      295.35262        3.43195        0.71794        8.21218      -88.93282
1037.50000      280.86404        3.51085        0.71833        8.76228      -95.45456
1038.00000      281.03286        3.51085        0.71884        8.99803      -99.90120
1038.50000      293.06861        3.39250        0.71923        9.11591     -101.97630
1039.00000      310.82431        3.11637        0.71972        8.91945     -103.45851
1039.50000      335.78955        2.95858        0.72011        8.48723     -104.05139
1040.00000      365.44198        2.64300        0.72060        7.62279     -102.86562
1040.50000      397.21954        2.48521        0.72099        6.79764     -101.08697
1041.00000      434.95538        2.20907        0.72138        6.01179      -97.52966
1041.50000      471.69818        2.09073        0.72187        5.46169      -94.26879
1042.00000      514.39926        1.89349        0.72238        4.91159      -91.00792
1042.50000      562.06559        1.77515        0.72277        4.51866      -87.45061
1043.00000      607.74583        1.53846        0.72316        4.32220      -84.78262
1043.50000      652.43301        1.45957        0.72365        4.20432      -85.67195
1044.00000      716.98117        1.30177        0.72404        4.12574      -91.60080
1044.50000      791.45981        1.22288        0.72443        3.88998     -100.19764
1045.00000      877.52732        1.02564        0.72492        3.57564     -104.05139
1045.50000      979.74181        0.86785        0.72531        3.10412     -106.12649
1046.00000     1129.93059        0.82840        0.72582        2.86837     -107.31226
1046.50000     1209.90079        0.78895        0.72621        2.59332     -108.20159
1047.00000     1289.86106        0.71006        0.72670        2.35756     -109.09092
1047.50000     1334.10137        0.71006        0.72709        2.12181     -110.27669
1048.00000     1369.41418        0.67061        0.72758        1.96464     -110.57313
