~Version ---------------------------------------------------
VERS. 2.0 : CWLS LOG ASCII STANDARD - VERSION 2.0
WRAP. NO  : One line per depth step
DLM . SPACE : Column Data Section Delimiter
~Well ------------------------------------------------------
STRT.F         98.5 : START DEPTH
STOP.F       1003.5 : STOP DEPTH
STEP.F          0.5 : STEP
NULL.       -999.25 : NULL VALUE
COMP.                       WALSH & WATTS : COMPANY
WELL.                          SALMON D 8 : WELL
FLD .                          OLD NOCOMA : FIELD
CNTY.                            MONTAGUE : COUNTY
STAT.                               TEXAS : STATE
CTRY.                                 USA : COUNTRY
SEC .                                     : SECTION
TWP .                                     : TOWNSHIP
RGE .                                     : RANGE
LOC .                          OLD NOCOMA : LOCATION
EKB .F                          : ELEVATION KELLY BUSHING
EDF .F                      855 : ELEVATION DERRICK FLOOR
EGL .F                          : ELEVATION GROUND LEVEL
PDAT.                        RT : PERMANENT DATUM
EPD .                           : ELEVATION PERMANENT DATUM
APD .                         4 : ABOVE PERMANENT DATUM
LMF .                           : LOG MEASURED FROM
DMF .                           : DRILLING MEASURED FROM
API .            42337016420000 : API NUMBER
UWI .            42337016420000 : UWI NUMBER
DIGC.                     NthDS : DIGITIZING COMPANY
~Params ----------------------------------------------------
SRVC.              SCHLUMBERGER : LOGGING COMPANY
LOG .                        EL : LOG
DATE.                1948-12-15 : RUN DATE
RUN .                         1 : RUN NUMBER
TDD .F                          : TOTAL DEPTH DRILLER
TDL .F                          : TOTAL DEPTH LOGGER
BOTL.F                     1005 : BOTTOM LOGGED INTERVAL
TOPL.F                     1004 : TOP LOGGED INTERVAL
CSGS.IN                         : CASING SIZE
CSGD.F                          : CASING DRILLER
CSGL.F                          : CASING LOGGER
BS  .IN                       9 : BIT SIZE
MUD .                   AQUAGEL : MUD TYPE
MUDD.                      10.2 : MUD DENSITY
MUDV.                        40 : MUD VISCOSITY
PH  .                           : MUD PH
FL  .                           : FLUID LOSS
MUDS.                           : SOURCE OF SAMPLE
RM  .OHMM                    .8 : MUD RESISTIVITY
RMT .DEGF                    65 : RM TEMPERATURE
RMF .OHMM                       : MUD FILTRATE RESISTIVITY
RMFT.DEGF                       : RMF TEMPERATURE
RMC .OHMM                       : MUD CAKE RESISTIVITY
RMCT.DEGF                       : RMC TEMPERATURE
RMFS.                           : RMF SOURCE
RMCS.                           : RMC SOURCE
RMBH.OHMM                       : MUD RESISTIVITY AT BHT
BHT .DEGF                       : BOTTOM HOLE TEMPERATURE
TIMC.                           : TIME CIRCULATION STOPPED
TIML.                           : TIME LOGGER ON BOTTOM
TMAX.DEGF                       : MAXIMUM RECORDED TEMPERATURE
UNIT.                       201 : EQUIPMENT NUMBER
BASE.                           : BASE LOCATION
ENG .                    LITTLE : RECORDED BY
WIT .                 MR. WATTS : WITNESSED BY
~Curve Information -----------------------------------------
DEPT.F          :DEPTH
ILD.OHMM        :
LAT.OHMM        :
SN.OHMM         :
SP.MV           :
~ASCII ------------------------------------------------------
# ...
386.00000        5.58200        7.72691        8.38681      -62.19060
386.50000        5.41800        7.69597        8.40731      -62.18467
387.00000        5.25401        7.55452        8.42870      -62.94454
387.50000        5.09002        7.41395        8.45009      -63.70798
388.00000        4.92781        7.27338        8.44920      -64.36407
388.50000        4.76827        7.15668        8.36007      -64.60148
389.00000        4.60873        7.13546        8.27094      -64.83888
389.50000        4.49198        7.11424        8.20499      -65.07629
390.00000        4.42692        7.09302        8.23351      -65.31369
390.50000        4.37700        7.06739        8.26114      -64.92844
391.00000        4.39661        7.04528        8.28877      -64.38573
391.50000        4.43405        7.02407        8.25490      -64.47165
392.00000        4.47148        7.00285        8.22014      -64.54802
392.50000        4.50802        6.98163        8.24153      -64.15561
393.00000        4.54545        6.96041        8.36720      -63.76678
393.50000        4.54545        6.93831        8.47237      -63.37794
394.00000        4.60784        6.91709        8.55615      -62.98911
394.50000        4.91979        6.89587        8.55615      -62.60027
395.00000        5.29412        6.76945        8.55615      -61.56731
395.50000        5.86007        6.64302        8.55615      -60.10850
396.00000        6.19429        6.51660        8.51158      -58.64969
396.50000        6.52852        6.39106        8.28877      -56.69705
397.00000        7.08556        6.26464        7.89126      -54.00724
397.50000        8.19964        6.16739        7.37700      -51.31742
398.00000        8.82353        6.11611        6.86274      -48.62761
398.50000        9.01693        6.06395        6.91889      -45.99744
399.00000        9.05347        6.01179        6.83333      -43.90166
399.50000        9.09091        6.20098        6.53565      -42.65040
400.00000        9.23975        6.46621        6.23886      -42.55428
400.50000        9.41964        6.85896        6.46428      -41.86127
401.00000        8.97321        7.17520        6.64286      -42.32770
401.50000        8.33928        7.21329        6.86786      -42.79771
402.00000        7.80000        7.25138        7.27678      -43.26414
402.50000        6.98839        7.28947        7.68571      -43.73057
403.00000        6.38928        7.32667        7.80714      -44.20058
403.50000        6.63661        7.36476        7.85714      -44.66701
404.00000        6.91071        7.40285        7.90714      -45.05829
404.50000        7.22321        7.44094        7.92143      -45.14540
405.00000        7.39107        7.33907        7.79732      -45.23251
405.50000        7.34107        7.23632        7.67321      -45.31961
406.00000        7.19643        7.22480        7.55000      -45.40672
406.50000        6.98839        7.34705        7.60000      -45.51053
407.00000        6.77946        7.47018        7.76786      -45.59764
407.50000        6.80625        7.59331        8.08303      -45.68117
408.00000        6.94375        7.67126        8.34553      -45.76828
408.50000        7.10982        7.73769        8.60803      -45.85539
409.00000        7.38839        7.80413        8.82946      -45.94250
409.50000        7.40089        7.87057        9.04107      -46.02960
410.00000        7.23661        7.99547        9.25268      -46.81094
410.50000        7.07232        8.16378        9.46428      -47.77121
411.00000        6.90803        8.30374        9.79910      -48.77441
411.50000        6.74732        8.45787       10.13393      -49.96012
412.00000        6.58839        8.66958       10.46875      -51.14583
412.50000        6.42857        8.88130       10.53571      -51.78761
413.00000        6.61964        9.09301       10.43125      -51.49181
413.50000        6.87500        9.30472       10.17143      -49.91849
414.00000        7.17232        9.42077        9.91071      -48.03384
414.50000        7.04107        9.47303        9.43482      -46.14919
415.00000        7.07946        9.52529        9.18571      -43.88761
415.50000        7.24196        9.58642        9.15714      -42.53974
416.00000        7.29196        9.68474        9.12946      -41.99703
416.50000        7.34107        9.74409        9.17143      -41.57957
417.00000        7.39107        9.74409        9.49375      -41.34819
417.50000        7.48125        9.74409        9.81607      -41.65716
418.00000        7.59911        9.74409       10.13928      -42.09854
418.50000        7.71607        9.74409       10.36250      -42.53992
419.00000        7.83393        9.83267       10.51964      -44.04054
419.50000        7.83750        9.98061       10.67768      -46.24255
420.00000        7.81250       10.12766       10.78393      -48.44813
420.50000        7.78750       10.26053       10.68482      -50.36744
421.00000        7.80000       10.18701       10.66428      -51.15951
421.50000        7.99553       10.11348       10.78393      -51.62952
422.00000        8.20089       10.03907       10.88303      -51.62359
422.50000        8.57857        9.96555       10.98214      -51.61765
423.00000        8.95625        9.82825       10.78393      -51.61172
423.50000        9.19643        9.59616       10.65714      -51.60460
424.00000        9.42500        9.36407       10.81964      -50.57521
424.50000        9.77143        9.13287       10.98214      -49.54940
425.00000        9.96785        8.91319       10.75893      -48.67389
425.50000       10.06339        8.74222       10.53571      -48.41031
426.00000       10.15982        8.57214       10.13750      -47.63857
426.50000       10.39285        8.62175        9.62232      -46.73801
427.00000       10.66071        8.81929        9.10714      -45.83745
427.50000       10.11875        9.01594        8.61071      -44.93689
428.00000        9.37500        9.21260        8.15446      -44.03633
428.50000        8.88393        9.40925        7.85714      -43.17513
429.00000        8.38661        9.56693        8.00982      -42.47497
429.50000        8.35714        9.56693        7.88303      -41.77123
430.00000        8.32768        9.56693        7.84464      -41.07106
430.50000        8.35446        9.47834        8.03571      -41.17606
431.00000        8.60982        9.38976        8.22678      -41.82142
431.50000        8.86518        9.30118        8.52678      -42.99163
432.00000        9.10714        8.99645        8.89911      -44.29901
432.50000        9.33036        8.69173        9.27053      -45.60281
433.00000        9.55357        8.38789        9.64286      -45.72212
433.50000        9.77678        8.20895        9.75893      -45.04343
434.00000       10.00000        8.06102        9.44643      -44.21802
434.50000       10.26785        7.91309        9.18571      -43.39261
435.00000       10.56518        7.80413        9.13214      -42.56719
435.50000       10.89285        7.84577        9.07857      -41.73820
436.00000       10.98214        7.88829        9.01428      -41.19549
436.50000       10.53571        7.92992        8.96071      -41.78717
437.00000       10.08928        7.97244        8.97946      -42.75101
437.50000        9.64286        8.01496        9.10714      -44.28026
438.00000        9.48661        8.05659        9.23482      -45.80951
438.50000        9.52411        8.09911        9.11518      -46.84492
439.00000        9.60178        8.14075        8.83125      -46.44893
439.50000        9.84018        8.01673        8.54732      -45.31219
440.00000       10.07946        7.85019        8.26339      -43.94881
440.50000       10.31875        7.65088        8.04553      -42.81207
441.00000       10.55803        7.55521        8.09553      -42.80614
441.50000       10.79732        7.47726        8.04286      -42.80020
442.00000       10.47857        7.39931        7.83661      -43.09129
442.50000        9.78928        7.37982        7.63036      -43.38595
443.00000        9.10714        7.44803        7.51161      -43.67703
