~Version ---------------------------------------------------
VERS. 2.0 : CWLS LOG ASCII STANDARD - VERSION 2.0
WRAP. NO  : One line per depth step
DLM . SPACE : Column Data Section Delimiter
~Well ------------------------------------------------------
STRT.F        986.5 : START DEPTH
STOP.F       1761.0 : STOP DEPTH
STEP.F          0.5 : STEP
NULL.       -999.25 : NULL VALUE
COMP.                 WALSH & WATTS, INC. : COMPANY
WELL.                       SALMON D E 6D : WELL
FLD .                             REGULAR : FIELD
CNTY.                            MONTAGUE : COUNTY
STAT.                               TEXAS : STATE
CTRY.                                 USA : COUNTRY
SEC .                                     : SECTION
TWP .                                     : TOWNSHIP
RGE .                                     : RANGE
LOC .  460 FSL 755 FEL
F. ROBERTSON A-620 : LOCATION
EKB .F                      880 : ELEVATION KELLY BUSHING
EDF .F                      878 : ELEVATION DERRICK FLOOR
EGL .F                      874 : ELEVATION GROUND LEVEL
PDAT.                        GL : PERMANENT DATUM
EPD .                       874 : ELEVATION PERMANENT DATUM
APD .                           : ABOVE PERMANENT DATUM
LMF .                        KB : LOG MEASURED FROM
DMF .                        KB : DRILLING MEASURED FROM
API .            42337016430000 : API NUMBER
UWI .            42337016430000 : UWI NUMBER
DIGC.                     NthDS : DIGITIZING COMPANY
~Params ----------------------------------------------------
SRVC.              SCHLUMBERGER : LOGGING COMPANY
LOG .                      DIFL : LOG
DATE.                2005-08-03 : RUN DATE
RUN .                         1 : RUN NUMBER
TDD .F                     1750 : TOTAL DEPTH DRILLER
TDL .F                     1750 : TOTAL DEPTH LOGGER
BOTL.F                     1750 : BOTTOM LOGGED INTERVAL
TOPL.F                      980 : TOP LOGGED INTERVAL
CSGS.IN                       7 : CASING SIZE
CSGD.F                      980 : CASING DRILLER
CSGL.F                      980 : CASING LOGGER
BS  .IN                     6.5 : BIT SIZE
MUD .                       FGM : MUD TYPE
MUDD.                       0.2 : MUD DENSITY
MUDV.                        80 : MUD VISCOSITY
PH  .                        11 : MUD PH
FL  .                         7 : FLUID LOSS
MUDS.                       PIT : SOURCE OF SAMPLE
RM  .OHMM                  1.70 : MUD RESISTIVITY
RMT .DEGF                    70 : RM TEMPERATURE
RMF .OHMM                  1.33 : MUD FILTRATE RESISTIVITY
RMFT.DEGF                    70 : RMF TEMPERATURE
RMC .OHMM                  2.67 : MUD CAKE RESISTIVITY
RMCT.DEGF                    70 : RMC TEMPERATURE
RMFS.                      MEAS : RMF SOURCE
RMCS.                       CAL : RMC SOURCE
RMBH.OHMM                  1.41 : MUD RESISTIVITY AT BHT
BHT .DEGF                    98 : BOTTOM HOLE TEMPERATURE
TIMC.                     2100  : TIME CIRCULATION STOPPED
TIML.                     0300  : TIME LOGGER ON BOTTOM
TMAX.DEGF                    98 : MAXIMUM RECORDED TEMPERATURE
UNIT.                       303 : EQUIPMENT NUMBER
BASE.                  WITCHATA : BASE LOCATION
ENG .              DAVID PARKER : RECORDED BY
WIT .              MR. BURLESON : WITNESSED BY
~Curve Information -----------------------------------------
DEPT.F          :DEPTH
GRR.API         :
ILD.OHMM        :
ILM.OHMM        :
SFL.OHMM        :
SP.MV           :
~ASCII ------------------------------------------------------
# ...
1644.50000      120.37214        3.33054        3.45172        5.84821      -77.40930
1645.00000      120.02730        3.33077        3.44877        5.84862      -77.22252
1645.50000      120.19750        3.33101        3.44330        5.84903      -77.42529
1646.00000      121.14479        3.33155        3.43784        5.84944      -77.55979
1646.50000      122.09510        3.33178        3.43238        5.84985      -77.43726
1647.00000      123.04239        3.33202        3.42694        5.85027      -77.31875
1647.50000      123.98969        3.33225        3.42150        5.85068      -76.79463
1648.00000      125.98816        3.33279        3.41608        5.85109      -75.66009
1648.50000      127.40231        3.33303        3.41097        5.85150      -75.67411
1649.00000      126.40688        3.33326        3.40776        5.85191      -75.68812
1649.50000      124.81298        3.33350        3.41397        5.85230      -75.88688
1650.00000      124.88065        3.50094        3.59107        5.85220      -77.19822
1650.50000      126.22552        3.50053        3.59561        6.14449      -77.52147
1651.00000      125.64273        3.49993        3.60096        6.14344      -78.33868
1651.50000      124.57803        3.49933        3.60665        6.14240      -77.77841
1652.00000      124.35668        3.49938        3.61235        6.14135      -77.86472
1652.50000      124.34616        3.50071        3.61772        6.14030      -78.38073
1653.00000      120.32069        3.50237        3.62344        6.13925      -79.23007
1653.50000      116.99700        3.50371        3.62883        6.13820      -80.08343
1654.00000      114.80883        3.50537        3.63456        6.13715      -81.42272
1654.50000      113.61160        3.50671        3.63997        6.13554      -83.09131
1655.00000      116.91426        3.50837        3.64572        6.13449      -84.75991
1655.50000      119.53922        3.50971        3.64980        6.13344      -85.99478
1656.00000      123.18826        3.51105        3.65389        6.13240      -85.78792
1656.50000      123.96296        3.51239        3.65764        6.13135      -86.00274
1657.00000      123.65125        3.51341        3.66140        6.13030      -85.53484
1657.50000      122.37360        3.51443        3.66516        6.12925      -84.79386
1658.00000      122.21249        3.51577        3.66183        6.12821      -84.55889
1658.50000      121.71102        3.51679        3.65346        6.12716      -83.73758
1659.00000      116.37835        3.51781        3.64544        6.12611      -82.91227
1659.50000      113.73236        3.51915        3.63711        6.12507      -82.76565
1660.00000      111.08637        3.52017        3.62879        6.12515      -83.06480
1660.50000      109.76263        3.51665        3.62083        6.12580      -83.36797
1661.00000      109.32141        3.50667        3.61588        6.12701      -82.58281
1661.50000      108.88319        3.49640        3.61326        6.12822      -81.52456
1662.00000      118.72485        3.48616        3.61065        6.12886      -80.46632
1662.50000      123.23440        3.47755        3.60804        6.13007      -79.62494
1663.00000      122.20583        3.47504        3.60543        6.13072      -80.28151
1663.50000      120.50259        3.47252        3.60282        6.13193      -80.98226
1664.00000      120.49208        3.47001        3.60022        6.13314      -80.42601
1664.50000      120.48156        3.46750        3.59762        6.13379      -80.85769
1665.00000      117.76027        3.46851        3.60164        6.13896      -81.54237
1665.50000      115.03688        3.48392        3.63234        6.16056      -80.88573
1666.00000      115.51641        3.49908        3.66329        6.18167      -80.69895
1666.50000      116.31612        3.51463        3.69451        6.20286      -82.38762
1667.00000      117.11582        3.58661        3.72599        6.22468      -81.73098
1667.50000      120.11728        3.69937        3.75394        6.37679      -82.29920
1668.00000      121.58565        3.81568        3.76715        6.56638      -82.94774
1668.50000      122.67149        3.90712        3.78006        6.76161      -83.24689
1669.00000      122.42002        3.95751        3.92340        6.96265      -83.54604
1669.50000      121.28002        4.00855        4.07217        7.13870      -84.58012
1670.00000      119.16112        4.06025        4.22620        7.19357      -84.89533
1670.50000      117.04222        4.08618        4.27480        7.24886      -84.90935
1671.00000      114.92333        4.11229        4.24973        7.27705      -84.92337
1671.50000      114.15982        4.13855        4.27216        7.30535      -85.60805
1672.00000      114.68845        4.16499        4.30658        7.33376      -86.82686
1672.50000      114.28939        4.19160        4.34168        7.36228      -86.17022
1673.00000      111.30004        4.35896        4.37666        7.52830      -87.18823
1673.50000      104.26048        4.37430        4.47824        7.69806      -87.67211
1674.00000       99.19588        4.41768        4.62841        7.87166      -88.56161
1674.50000       94.66740        4.57845        4.78317        8.19879      -89.80853
1675.00000       99.47605        4.74506        4.94311        8.57893      -91.05947
1675.50000      105.06780        4.91774        5.10886        8.97670      -91.20601
1676.00000      109.82735        5.09624        5.28552        9.26404      -91.35657
1676.50000      116.56366        5.26422        5.47787        9.47295      -91.50312
1677.00000      113.89357        5.41076        5.67722        9.68657      -91.26413
1677.50000      107.35611        5.56087        5.88382        9.90500      -91.02916
1678.00000      101.97314        5.71567        6.09794       10.12836      -90.79017
1678.50000       97.89646        5.73209        6.16182       10.08939      -91.25800
1679.00000       92.61499        5.71319        6.12174        9.98508      -91.89851
1679.50000       88.83951        5.69436        6.18017        9.88093      -92.53901
1680.00000       88.85912        5.67245        6.22652        9.77877      -92.80604
1680.50000       91.40878        5.63556        6.22202        9.87210      -92.82006
1681.00000       94.53072        5.52820        6.21752        9.86405      -93.17945
1681.50000       98.32734        5.37614        6.13739        9.45678      -93.28182
1682.00000      101.71343        5.22875        5.94718        9.14179      -91.44046
1682.50000      105.94678        5.11311        5.76340        9.13518      -89.60312
1683.00000      101.71951        5.10941        5.67134        9.03740      -89.04687
1683.50000       91.16498        5.00101        5.56381        8.88076      -89.37012
1684.00000       86.44976        4.82776        5.39188        8.61267      -89.78573
1684.50000       82.47549        4.66051        5.22525        8.10669      -89.92023
1685.00000       79.42288        4.40169        5.04145        7.70783      -88.93026
1685.50000       78.09614        4.14561        4.77929        7.32860      -88.14108
1686.00000       80.87170        3.90479        4.48322        6.96802      -87.89808
1686.50000       86.38213        3.85589        4.32631        6.81328      -86.63502
1687.00000       86.44391        3.85310        4.22479        6.78770      -85.37196
1687.50000       84.45453        3.85031        4.15998        6.76158      -86.21327
1688.00000       79.44413        3.84753        4.11887        6.72999      -87.05458
1688.50000       68.99713        3.84474        4.07816        6.69423      -87.89589
1689.00000       62.93857        3.78577        4.03785        6.65866      -87.43602
1689.50000       64.26538        3.71399        3.99795        6.62328      -85.87578
1690.00000       69.34209        3.68305        3.95843        6.53130      -83.95812
1690.50000       77.86449        3.66213        3.91931        6.40451      -82.04046
1691.00000       89.80248        3.64133        3.88415        6.27962      -80.12280
