~Version ---------------------------------------------------
VERS. 2.0 : CWLS LOG ASCII STANDARD - VERSION 2.0
WRAP. NO  : One line per depth step
DLM . SPACE : Column Data Section Delimiter
~Well ------------------------------------------------------
STRT.F          572 : START DEPTH
STOP.F       1770.0 : STOP DEPTH
STEP.F          0.5 : STEP
NULL.       -999.25 : NULL VALUE
COMP.         WALSH & WATTS, INCORPORATED : COMPANY
WELL.                         SALMON E 44 : WELL
FLD .                             REGULAR : FIELD
CNTY.                            MONTAGUE : COUNTY
STAT.                               TEXAS : STATE
CTRY.                                 USA : COUNTRY
SEC .                                     : SECTION
TWP .                                     : TOWNSHIP
RGE .                                     : RANGE
LOC . 300' WEST OF NO 23, 300' SOUTH OF D-9, F.ROBERTSON SURV. : LOCATION
EKB .F                      862 : ELEVATION KELLY BUSHING
EDF .F                          : ELEVATION DERRICK FLOOR
EGL .F                      856 : ELEVATION GROUND LEVEL
PDAT.                        GL : PERMANENT DATUM
EPD .                       856 : ELEVATION PERMANENT DATUM
APD .                         6 : ABOVE PERMANENT DATUM
LMF .                        KB : LOG MEASURED FROM
DMF .                        KB : DRILLING MEASURED FROM
API .            42337038720000 : API NUMBER
UWI .                           : UWI NUMBER
DIGC.                     NthDS : DIGITIZING COMPANY
~Params ----------------------------------------------------
SRVC.              SCHLUMBERGER : LOGGING COMPANY
LOG .                     SONIC : LOG
DATE.                1965-11-28 : RUN DATE
RUN .                         1 : RUN NUMBER
TDD .F                     1179 : TOTAL DEPTH DRILLER
TDL .F                     1179 : TOTAL DEPTH LOGGER
BOTL.F                     1170 : BOTTOM LOGGED INTERVAL
TOPL.F                      600 : TOP LOGGED INTERVAL
CSGS.IN                         : CASING SIZE
CSGD.F                          : CASING DRILLER
CSGL.F                          : CASING LOGGER
BS  .IN                   7.875 : BIT SIZE
MUD .                       GEL : MUD TYPE
MUDD.                        10 : MUD DENSITY
MUDV.                        98 : MUD VISCOSITY
PH  .                           : MUD PH
FL  .                           : FLUID LOSS
MUDS.                CIRCULATED : SOURCE OF SAMPLE
RM  .OHMM                   2.0 : MUD RESISTIVITY
RMT .DEGF                    81 : RM TEMPERATURE
RMF .OHMM                   1.5 : MUD FILTRATE RESISTIVITY
RMFT.DEGF                    81 : RMF TEMPERATURE
RMC .OHMM                       : MUD CAKE RESISTIVITY
RMCT.DEGF                       : RMC TEMPERATURE
RMFS.                         M : RMF SOURCE
RMCS.                           : RMC SOURCE
RMBH.OHMM                   1.6 : MUD RESISTIVITY AT BHT
BHT .DEGF                   100 : BOTTOM HOLE TEMPERATURE
TIMC.                           : TIME CIRCULATION STOPPED
TIML.                           : TIME LOGGER ON BOTTOM
TMAX.DEGF                   100 : MAXIMUM RECORDED TEMPERATURE
UNIT.                      4559 : EQUIPMENT NUMBER
BASE.                       WFS : BASE LOCATION
ENG .                      FINK : RECORDED BY
WIT .                       NIX : WITNESSED BY
~Curve Information -----------------------------------------
DEPT.F          :DEPTH
CALS.IN         :
DT.US/F         :
SP.MV           :
~ASCII ------------------------------------------------------
# ...
1367.50000        7.65290      100.33057      -64.44341
1368.00000        7.62983       99.47690      -66.28048
1368.50000        7.60196       97.82285      -68.26012
1369.00000        7.65196       96.08896      -67.37345
1369.50000        7.51028       94.69439      -64.59470
1370.00000        7.09969       93.69901      -65.50207
1370.50000        6.99108       93.23609      -67.33617
1371.00000        6.95772       93.52512      -68.43958
1371.50000        7.08119       95.34408      -66.26468
1372.00000        7.20466       96.58420      -65.00969
1372.50000        7.40654       95.78842      -63.70717
1373.00000        7.61199       96.13035      -62.12842
1373.50000        7.62159       98.17884      -60.54669
1374.00000        7.65886       98.48437      -59.91843
1374.50000        7.71204       96.94409      -61.07827
1375.00000        7.87016       96.42076      -61.83713
1375.50000        8.11343       95.74474      -60.99204
1376.00000        8.18897       93.95097      -60.14694
1376.50000        8.22175       94.73201      -59.74145
1377.00000        8.05651       96.83040      -60.46467
1377.50000        7.92691       98.01065      -63.58875
1378.00000        7.94087       97.68392      -63.81593
1378.50000        7.86414       98.43555      -63.44905
1379.00000        7.76484      100.33434      -64.27028
1379.50000        7.72825       97.49268      -66.87369
1380.00000        7.71132       95.64902      -69.47709
1380.50000        7.69459       96.27537      -69.94486
1381.00000        7.68717       95.85384      -70.41561
1381.50000        7.69361       92.86248      -70.88338
1382.00000        7.70024       90.27032      -71.37491
1382.50000        7.70668       91.27092      -71.05941
1383.00000        7.71332       95.43216      -66.97967
1383.50000        7.71976       98.22967      -64.45934
1384.00000        7.76976       98.56461      -63.21623
1384.50000        7.75660       98.56722      -63.48796
1385.00000        7.69426       98.19559      -66.01711
1385.50000        7.75595       97.57446      -67.67002
1386.00000        7.89922       97.23776      -65.81800
1386.50000        8.06724       98.22838      -63.96598
1387.00000        8.08675      100.02790      -62.41099
1387.50000        7.95774       99.31495      -61.30748
1388.00000        7.81884       96.17090      -61.70693
1388.50000        7.87795       91.36966      -62.18746
1389.00000        7.86360       93.90071      -61.77009
1389.50000        7.85756       95.12586      -60.12302
1390.00000        7.65925       90.56965      -61.37792
1390.50000        7.87672       89.69204      -63.14964
1391.00000        8.07444       95.62072      -59.25407
1391.50000        8.09098       98.95362      -59.55550
1392.00000        8.05247       99.04658      -62.65494
1392.50000        8.01415      100.52621      -64.83657
1393.00000        8.07049       99.81027      -63.35583
1393.50000        8.19178       97.46761      -61.87510
1394.00000        8.26416       95.09201      -60.09821
1394.50000        8.19773       93.87009      -60.10262
1395.00000        8.13150       94.41162      -61.98425
1395.50000        7.97714       93.56494      -63.86290
1396.00000        7.83778       91.67537      -65.74453
1396.50000        7.89293       93.24183      -66.41131
1397.00000        8.09066       98.98341      -62.23058
1397.50000        8.09037      100.33331      -58.04986
1398.00000        7.98453      102.43170      -62.10573
1398.50000        7.85216      102.96624      -66.15864
1399.00000        7.71978      100.41599      -69.64807
1399.50000        7.77236       97.61625      -70.69207
1400.00000        7.78217       96.21847      -71.58452
1400.50000        7.76702       94.82806      -72.48001
1401.00000        7.82871       94.18391      -70.70225
1401.50000        7.85060       94.03726      -68.92449
1402.00000        7.85030       90.81603      -67.44375
1402.50000        7.80050       88.40374      -65.63926
1403.00000        7.81823       91.61426      -63.75456
1403.50000        7.88091       94.72727      -64.04115
1404.00000        7.87229       94.64729      -65.77723
1404.50000        7.78527       94.18821      -66.37569
1405.00000        7.81309       93.72814      -63.78704
1405.50000        7.93300       93.48597      -62.10730
1406.00000        8.07567       92.72791      -60.43052
1406.50000        8.03914       93.16832      -60.87453
1407.00000        7.83146       95.37985      -62.73536
1407.50000        7.80147       96.42722      -61.84869
1408.00000        7.79147       98.25069      -60.36795
1408.50000        7.86207       99.94482      -58.66444
1409.00000        7.78078       97.65889      -56.81242
1409.50000        7.74089       96.32818      -57.06336
1410.00000        7.72079       95.63428      -58.30638
1410.50000        7.75614       94.94038      -59.79593
1411.00000        7.80535       94.72408      -60.92904
1411.50000        7.75832       96.52766      -61.75325
1412.00000        7.73546       97.82378      -62.91012
1412.50000        7.72249       97.70200      -62.91156
1413.00000        7.66834       99.41105      -62.13775
1413.50000        7.65042      101.74251      -61.36394
1414.00000        7.68715      102.41177      -60.59014
1414.50000        7.70151      100.29500      -60.52325
1415.00000        7.71033       95.20263      -63.99398
1415.50000        7.62112       93.34357      -65.23700
1416.00000        7.46697       96.40185      -63.50676
1416.50000        7.43578       97.39999      -61.03692
1417.00000        7.43549       98.74586      -62.66013
1417.50000        7.43520       99.99223      -64.28631
1418.00000        7.44975      101.27441      -64.24913
1418.50000        7.54847      102.91580      -63.79612
1419.00000        7.68441      100.43088      -63.67280
1419.50000        7.71125       93.43557      -64.86532
1420.00000        7.76640       91.84616      -65.62121
1420.50000        7.83541       94.07062      -63.06523
1421.00000        8.02720       97.25328      -59.34490
1421.50000        8.22076       98.09767      -55.14042
1422.00000        8.29809       98.42365      -53.82602
1422.50000        8.37562       99.57550      -53.16805
1423.00000        8.36265       98.35623      -54.63384
1423.50000        8.36236       97.13795      -55.75210
1424.00000        8.37533       97.81916      -55.65937
1424.50000        8.33088       98.50036      -54.81130
1425.00000        8.38128       97.44427      -54.51868
1425.50000        8.43465       96.22003      -54.22606
1426.00000        8.40624       96.05647      -54.05819
1426.50000        8.25307       95.89290      -54.39230
1427.00000        8.11001       94.81791      -55.13036
1427.50000        8.02873       94.15386      -56.47140
1428.00000        7.99239       95.94251      -56.46689
1428.50000        8.13626       96.24859      -54.44557
1429.00000        8.27992       95.15668      -52.86681
1429.50000        8.18062       94.36328      -53.05835
1430.00000        8.20013       93.56988      -52.46870
1430.50000        8.06122       92.46503      -51.35925
1431.00000        8.02132       91.40596      -54.08740
1431.50000        7.87053       94.39412      -56.81259
1432.00000        7.92747       97.70016      -56.85858
1432.50000        8.05430       96.88686      -55.11646
1433.00000        8.33302       94.70044      -53.37434
1433.50000        8.43569       96.79257      -52.33618
1434.00000        8.41065       96.59617      -54.12275
1434.50000        8.28990       94.26050      -56.22121
1435.00000        8.05852       92.85317      -60.30976
1435.50000        7.84040       92.60603      -63.61712
1436.00000        7.67516       94.01061      -65.66508
1436.50000        7.64180       95.41518      -66.58433
1437.00000        7.62170       94.30338      -67.50062
1437.50000        7.62141       95.51989      -66.56938
1438.00000        7.72012       98.01003      -63.60351
1438.50000        7.86834       95.12710      -60.63763
