~Version ---------------------------------------------------
VERS. 2.0 : CWLS LOG ASCII STANDARD - VERSION 2.0
WRAP. NO  : One line per depth step
DLM . SPACE : Column Data Section Delimiter
~Well ------------------------------------------------------
STRT.F          866 : START DEPTH
STOP.F       1785.0 : STOP DEPTH
STEP.F          0.5 : STEP
NULL.       -999.25 : NULL VALUE
COMP.                 WALSH & WATTS, INC, : COMPANY
WELL.                         SALMON E 41 : WELL
FLD .                        NORTH NOCONA : FIELD
CNTY.                            MONTAGUE : COUNTY
STAT.                               TEXAS : STATE
CTRY.                                 USA : COUNTRY
SEC .                                     : SECTION
TWP .                                     : TOWNSHIP
RGE .                                     : RANGE
LOC . 300' N OF NO. 40
150' W OF EL & 385' E OF NO. 87
F. ROBERTSON SURVEY : LOCATION
EKB .F                          : ELEVATION KELLY BUSHING
EDF .F                          : ELEVATION DERRICK FLOOR
EGL .F                      878 : ELEVATION GROUND LEVEL
PDAT.              GROUND LEVEL : PERMANENT DATUM
EPD .                       878 : ELEVATION PERMANENT DATUM
APD .                           : ABOVE PERMANENT DATUM
LMF .                        KB : LOG MEASURED FROM
DMF .                        KB : DRILLING MEASURED FROM
API .            42337037790000 : API NUMBER
UWI .            42337037790000 : UWI NUMBER
DIGC.                     NthDS : DIGITIZING COMPANY
~Params ----------------------------------------------------
SRVC.                LANE WELLS : LOGGING COMPANY
LOG .                        AC : LOG
DATE.                1965-12-01 : RUN DATE
RUN .                         1 : RUN NUMBER
TDD .F                     1790 : TOTAL DEPTH DRILLER
TDL .F                     1791 : TOTAL DEPTH LOGGER
BOTL.F                     1784 : BOTTOM LOGGED INTERVAL
TOPL.F                      880 : TOP LOGGED INTERVAL
CSGS.IN                         : CASING SIZE
CSGD.F                          : CASING DRILLER
CSGL.F                          : CASING LOGGER
BS  .IN                       9 : BIT SIZE
MUD .                       GEL : MUD TYPE
MUDD.                        10 : MUD DENSITY
MUDV.                        80 : MUD VISCOSITY
PH  .                       9.0 : MUD PH
FL  .                       6.8 : FLUID LOSS
MUDS.                       PIT : SOURCE OF SAMPLE
RM  .OHMM                  1.95 : MUD RESISTIVITY
RMT .DEGF                    74 : RM TEMPERATURE
RMF .OHMM                   1.5 : MUD FILTRATE RESISTIVITY
RMFT.DEGF                    74 : RMF TEMPERATURE
RMC .OHMM                   2.3 : MUD CAKE RESISTIVITY
RMCT.DEGF                    74 : RMC TEMPERATURE
RMFS.                  MEASURED : RMF SOURCE
RMCS.                           : RMC SOURCE
RMBH.OHMM                   1.5 : MUD RESISTIVITY AT BHT
BHT .DEGF                    97 : BOTTOM HOLE TEMPERATURE
TIMC.                           : TIME CIRCULATION STOPPED
TIML.                           : TIME LOGGER ON BOTTOM
TMAX.DEGF                    97 : MAXIMUM RECORDED TEMPERATURE
UNIT.                    L-5172 : EQUIPMENT NUMBER
BASE.                      W.F. : BASE LOCATION
ENG .             ADAMS & BAKER : RECORDED BY
WIT .                   MR. NIX : WITNESSED BY
~Curve Information -----------------------------------------
DEPT.F          :DEPTH
CALS.IN         :
DT.US/F         :
SP.MV           :
~ASCII ------------------------------------------------------
# ...
1512.50000        9.40480       92.82510      -45.00003
1513.00000        9.45180       92.11701      -44.40003
1513.50000        9.47940       92.54311      -43.80003
1514.00000        9.47760       93.72467      -44.10003
1514.50000        9.47560       93.89232      -44.70003
1515.00000        9.47400       93.90689      -45.30003
1515.50000        9.47240       93.31212      -45.30003
1516.00000        9.47060       93.01059      -45.30003
1516.50000        9.46900       94.05630      -45.30003
1517.00000        9.46740       94.92773      -45.00003
1517.50000        9.46560       93.67491      -44.40003
1518.00000        9.46400       92.42209      -43.80003
1518.50000        9.46240       91.16927      -42.90003
1519.00000        9.46060       89.91645      -42.30003
1519.50000        9.44580       90.43003      -42.90003
1520.00000        9.42240       91.38396      -43.80003
1520.50000        9.39880       92.19574      -44.10003
1521.00000        9.39240       92.42303      -44.40003
1521.50000        9.46620       91.84119      -44.70003
1522.00000        9.52760       91.19671      -45.30003
1522.50000        9.46000       91.23912      -45.30003
1523.00000        9.36000       91.77588      -45.30003
1523.50000        9.26000       92.45546      -45.30003
1524.00000        9.26340       92.98991      -45.00003
1524.50000        9.48000       93.30766      -45.00003
1525.00000        9.42120       93.33913      -45.00003
1525.50000        9.36240       92.22249      -44.70003
1526.00000        9.30360       92.47265      -45.30003
1526.50000        9.28000       93.02101      -45.30003
1527.00000        9.28000       92.35169      -45.00003
1527.50000        9.28000       91.48356      -45.30003
1528.00000        9.28000       94.26849      -44.40003
1528.50000        9.28000       97.05376      -43.50003
1529.00000        9.28000       96.98880      -42.30003
1529.50000        9.29380       95.66541      -41.10003
1530.00000        9.32840       95.76646      -40.80003
1530.50000        9.36300       97.07824      -41.40003
1531.00000        9.39760       98.39002      -42.00003
1531.50000        9.43240       97.50500      -43.80003
1532.00000        9.46140       96.07126      -45.09903
1532.50000        9.46880       97.17728      -46.40103
1533.00000        9.47620       97.92644      -47.70003
1533.50000        9.48380       97.24419      -48.63902
1534.00000        9.49120       97.96684      -49.50002
1534.50000        9.49860       98.31640      -49.80002
1535.00000        9.42540       97.58644      -49.80002
1535.50000        9.33200       97.40022      -49.20002
1536.00000        9.22000       98.20902      -48.30003
1536.50000        9.28360       98.10729      -46.20003
1537.00000        9.34720       97.77793      -43.50003
1537.50000        9.36220       98.69110      -42.90003
1538.00000        9.36500       97.78122      -42.00003
1538.50000        9.36780       98.77690      -41.40003
1539.00000        9.37060       98.76662      -40.80003
1539.50000        9.37340       98.08438      -42.30003
1540.00000        9.37620       99.45812      -42.30003
1540.50000        9.37880      100.37427      -42.60003
1541.00000        9.37120       99.77950      -42.90003
1541.50000        9.35640       99.03563      -42.60003
1542.00000        9.34180       98.29175      -41.70003
1542.50000        9.32700       97.92064      -41.40003
1543.00000        9.30940       98.02964      -41.10003
1543.50000        9.29480       98.86031      -40.80003
1544.00000        9.28000       99.68999      -40.80003
1544.50000        9.28200      100.51966      -40.50003
1545.00000        9.28400       99.71515      -40.50003
1545.50000        9.28620       98.50210      -40.20003
1546.00000        9.28820      100.03786      -40.50003
1546.50000        9.29020      100.38643      -40.80003
1547.00000        9.29220      100.50338      -40.80003
1547.50000        9.29420      100.41557      -41.40003
1548.00000        9.29640       99.51364      -41.70003
1548.50000        9.29840       98.61172      -42.76803
1549.00000        9.29220       97.70979      -43.93203
1549.50000        9.25340       96.80787      -46.32903
1550.00000        9.21440       96.07135      -48.60002
1550.50000        9.18780       96.22279      -48.30003
1551.00000        9.29560       96.43773      -47.70003
1551.50000        9.44000       96.65167      -45.30003
1552.00000        9.40660       96.79518      -44.10003
1552.50000        9.24000       96.93869      -43.20003
1553.00000        9.17320       97.21613      -42.30003
1553.50000        9.19520       98.19131      -41.40003
1554.00000        9.21700       98.68403      -41.10003
1554.50000        9.23900       98.33151      -40.80003
1555.00000        9.26100       99.73890      -40.50003
1555.50000        9.28300      101.14629      -40.50003
1556.00000        9.30480      100.87313      -40.50003
1556.50000        9.33120       99.14860      -40.80003
1557.00000        9.33800       97.16613      -40.80003
1557.50000        9.33480       95.18366      -40.50003
1558.00000        9.33140       95.18530      -40.20003
1558.50000        9.32820       94.19489      -39.90003
1559.00000        9.32480       92.51003      -39.90003
1559.50000        9.32160       90.82518      -39.60003
1560.00000        9.31820       92.64527      -39.60003
1560.50000        9.31500       95.10821      -39.90003
1561.00000        9.31160       97.67564      -39.90003
1561.50000        9.30840       97.28047      -39.90003
1562.00000        9.30500       96.76822      -39.90003
1562.50000        9.30180       98.16768      -39.60003
1563.00000        9.29780       99.56713      -39.90003
1563.50000        9.29460       97.93188      -39.90003
1564.00000        9.29120       96.29663      -39.90003
1564.50000        9.28800       95.60384      -39.60003
1565.00000        9.28460       96.87631      -39.30003
1565.50000        9.28140       98.14878      -38.70003
1566.00000        9.28240       99.42224      -37.80003
1566.50000        9.28620       99.75722      -36.90003
1567.00000        9.29000       98.78698      -36.30003
1567.50000        9.29380       97.79656      -36.00003
1568.00000        9.29760       97.93015      -36.30003
1568.50000        9.29900       99.08953      -36.60003
1569.00000        9.29600       98.59514      -37.20003
1569.50000        9.29360       97.52834      -37.20003
1570.00000        9.29100       96.46154      -37.20003
1570.50000        9.28860       95.82232      -37.20003
1571.00000        9.28600       96.67911      -36.90003
1571.50000        9.28360       98.10734      -37.20003
1572.00000        9.28100       96.90463      -37.20003
1572.50000        9.28240       96.55211      -37.20003
1573.00000        9.28620       96.83649      -36.90003
1573.50000        9.29000       97.40162      -36.60003
1574.00000        9.29380       97.96675      -36.90003
1574.50000        9.29760       98.64531      -36.60003
1575.00000        9.30000       99.21045      -36.30003
1575.50000        9.30000       98.91447      -36.30003
1576.00000        9.30000       98.14926      -36.60003
1576.50000        9.30000       97.38503      -36.60003
1577.00000        9.30000       97.87775      -36.60003
1577.50000        9.30000       98.68594      -36.30003
1578.00000        9.30000       99.49313      -36.30003
1578.50000        9.31780       99.61878      -36.30003
1579.00000        9.34000       98.67797      -36.00003
1579.50000        9.36220       97.73716      -36.00003
1580.00000        9.38440       98.64059      -36.00003
1580.50000        9.40660       99.54401      -36.00003
1581.00000        9.42000       99.78276      -36.00003
1581.50000        9.42000       98.88494      -35.40003
1582.00000        9.39540       98.77746      -36.00003
1582.50000        9.35460       99.34358      -36.30003
1583.00000        9.31360       97.63194      -36.60003
1583.50000        9.27280       96.22288      -36.90003
