~Version ---------------------------------------------------
VERS. 2.0 : CWLS LOG ASCII STANDARD - VERSION 2.0
WRAP. NO  : One line per depth step
DLM . SPACE : Column Data Section Delimiter
~Well ------------------------------------------------------
STRT.F        986.5 : START DEPTH
STOP.F       1761.0 : STOP DEPTH
STEP.F          0.5 : STEP
NULL.       -999.25 : NULL VALUE
COMP.                 WALSH & WATTS, INC. : COMPANY
WELL.                       SALMON D E 6D : WELL
FLD .                             REGULAR : FIELD
CNTY.                            MONTAGUE : COUNTY
STAT.                               TEXAS : STATE
CTRY.                                 USA : COUNTRY
SEC .                                     : SECTION
TWP .                                     : TOWNSHIP
RGE .                                     : RANGE
LOC .  460 FSL 755 FEL
F. ROBERTSON A-620 : LOCATION
EKB .F                      880 : ELEVATION KELLY BUSHING
EDF .F                      878 : ELEVATION DERRICK FLOOR
EGL .F                      874 : ELEVATION GROUND LEVEL
PDAT.                        GL : PERMANENT DATUM
EPD .                       874 : ELEVATION PERMANENT DATUM
APD .                           : ABOVE PERMANENT DATUM
LMF .                        KB : LOG MEASURED FROM
DMF .                        KB : DRILLING MEASURED FROM
API .            42337016430000 : API NUMBER
UWI .            42337016430000 : UWI NUMBER
DIGC.                     NthDS : DIGITIZING COMPANY
~Params ----------------------------------------------------
SRVC.              SCHLUMBERGER : LOGGING COMPANY
LOG .                      DIFL : LOG
DATE.                2005-08-03 : RUN DATE
RUN .                         1 : RUN NUMBER
TDD .F                     1750 : TOTAL DEPTH DRILLER
TDL .F                     1750 : TOTAL DEPTH LOGGER
BOTL.F                     1750 : BOTTOM LOGGED INTERVAL
TOPL.F                      980 : TOP LOGGED INTERVAL
CSGS.IN                       7 : CASING SIZE
CSGD.F                      980 : CASING DRILLER
CSGL.F                      980 : CASING LOGGER
BS  .IN                     6.5 : BIT SIZE
MUD .                       FGM : MUD TYPE
MUDD.                       0.2 : MUD DENSITY
MUDV.                        80 : MUD VISCOSITY
PH  .                        11 : MUD PH
FL  .                         7 : FLUID LOSS
MUDS.                       PIT : SOURCE OF SAMPLE
RM  .OHMM                  1.70 : MUD RESISTIVITY
RMT .DEGF                    70 : RM TEMPERATURE
RMF .OHMM                  1.33 : MUD FILTRATE RESISTIVITY
RMFT.DEGF                    70 : RMF TEMPERATURE
RMC .OHMM                  2.67 : MUD CAKE RESISTIVITY
RMCT.DEGF                    70 : RMC TEMPERATURE
RMFS.                      MEAS : RMF SOURCE
RMCS.                       CAL : RMC SOURCE
RMBH.OHMM                  1.41 : MUD RESISTIVITY AT BHT
BHT .DEGF                    98 : BOTTOM HOLE TEMPERATURE
TIMC.                     2100  : TIME CIRCULATION STOPPED
TIML.                     0300  : TIME LOGGER ON BOTTOM
TMAX.DEGF                    98 : MAXIMUM RECORDED TEMPERATURE
UNIT.                       303 : EQUIPMENT NUMBER
BASE.                  WITCHATA : BASE LOCATION
ENG .              DAVID PARKER : RECORDED BY
WIT .              MR. BURLESON : WITNESSED BY
~Curve Information -----------------------------------------
DEPT.F          :DEPTH
GRR.API         :
ILD.OHMM        :
ILM.OHMM        :
SFL.OHMM        :
SP.MV           :
~ASCII ------------------------------------------------------
# ...
1033.50000       25.80544        1.63849        1.61010        2.70792     -160.92743
1034.00000       27.00907        1.59204        1.58206        2.67928     -161.11291
1034.50000       28.98689        1.54376        1.53963        2.65069     -160.88711
1035.00000       30.96169        1.49695        1.49819        2.52018     -160.66130
1035.50000       32.05644        1.56012        1.48963        2.67779     -160.48388
1036.00000       30.84677        1.65570        1.52955        2.82899     -160.48388
1036.50000       27.06653        1.75713        1.57054        2.98874     -160.48388
1037.00000       25.36088        1.87707        1.63622        3.15487     -160.48388
1037.50000       24.17237        2.00537        1.72111        3.32593     -158.87098
1038.00000       22.91733        2.10552        1.81058        3.50627     -158.66937
1038.50000       22.58165        2.06254        1.90452        3.58131     -157.66130
1039.00000       23.03528        2.04677        1.96517        3.58131     -157.17340
1039.50000       24.67136        2.07057        1.96971        3.57040     -157.02824
1040.00000       26.31048        2.05626        1.97427        3.52447     -156.88308
1040.50000       26.05947        2.02793        1.97976        3.38520     -155.99598
1041.00000       26.21068        1.97555        1.97245        3.30142     -154.91937
1041.50000       25.68145        1.90575        1.95737        3.33209     -153.84275
1042.00000       24.63507        1.98765        1.95339        3.38363     -152.12501
1042.50000       23.58870        2.11410        1.99501        3.52024     -150.24195
1043.00000       23.33770        2.27391        2.03733        3.83851     -148.35888
1043.50000       20.62499        2.48684        2.16996        4.23500     -146.50405
1044.00000       20.63104        2.71997        2.31122        4.67201     -144.65727
1044.50000       21.47177        2.95521        2.59899        5.09582     -143.34679
1045.00000       22.31249        3.12699        2.84211        5.45472     -143.60888
1045.50000       23.31350        3.24482        2.96095        5.58229     -144.38711
1046.00000       24.96471        3.27012        2.99095        5.67127     -145.16130
1046.50000       26.61290        3.29532        3.02125        5.59729     -144.56856
1047.00000       28.29435        3.04424        3.05185        5.24208     -143.97582
1047.50000       29.73689        2.81230        3.08249        4.84582     -143.38308
1048.00000       30.24193        2.61345        2.86851        4.59701     -143.64921
1048.50000       30.39314        2.48776        2.68871        4.38930     -144.48792
1049.00000       27.06653        2.36812        2.56722        4.19097     -145.47985
1049.50000       22.62096        2.27643        2.45122        4.00161     -147.06050
1050.00000       20.56451        2.29227        2.34047        3.96808     -148.64517
1050.50000       20.82494        2.32429        2.26174        3.92828     -148.08854
1051.00000       22.01106        2.35132        2.27748        4.02015     -147.41651
1051.50000       23.19718        2.37865        2.29333        4.11417     -146.74850
1052.00000       23.80080        2.40631        2.30930        4.22053     -146.07647
1052.50000       22.07444        2.51413        2.34914        4.37188     -145.64991
1053.00000       22.37927        2.62653        2.42642        4.52866     -145.58150
1053.50000       23.19416        2.74422        2.52018        4.69106     -145.51712
1054.00000       23.71327        2.82586        2.63944        4.85928     -145.45273
1054.50000       23.06740        2.74676        2.69992        4.82213     -145.38834
1055.00000       23.15794        2.66963        2.66618        4.60169     -145.32396
1055.50000       23.43259        2.53186        2.59107        4.34890     -145.13885
1056.00000       25.14989        2.36221        2.36221        4.10999     -144.46681
1056.50000       27.83299        2.23038        2.18708        3.92030     -143.79478
1057.00000       27.50704        2.20903        2.15357        3.88098     -143.17909
1057.50000       26.86116        2.18789        2.12056        3.84170     -142.77667
1058.00000       26.86116        2.16695        2.08826        3.80317     -142.37426
1058.50000       26.86116        2.14621        2.05626        3.76503     -142.16903
1059.00000       28.15593        2.15237        2.03413        3.72693     -142.45474
1059.50000       29.95472        2.19966        2.02643        3.68955     -142.78875
1060.00000       30.33198        2.24819        2.01858        3.80317     -143.12677
1060.50000       30.12072        2.29758        2.07210        3.93810     -143.46078
1061.00000       31.12273        2.30524        2.12685        3.98831     -143.51712
1061.50000       33.19919        2.31271        2.18324        4.03878     -143.15092
1062.00000       33.06337        2.34914        2.24093        4.11722     -142.98995
1062.50000       32.92454        2.46258        2.26803        4.19757     -143.66199
1063.00000       31.50301        2.39521        2.21558        4.16355     -144.70826
1063.50000       29.76458        2.29758        2.15078        4.00976     -146.31792
1064.00000       28.20422        2.14363        2.08768        3.76051     -147.48492
1064.50000       27.38329        2.00000        2.08382        3.52643     -147.88734
1065.00000       26.55935        1.92470        2.09464        3.30722     -148.28975
1065.50000       25.05030        1.89065        2.01858        3.23493     -148.79277
1066.00000       25.48189        1.85738        1.94528        3.19775     -149.29579
1066.50000       26.82796        1.82470        1.88629        3.16100     -149.11470
1067.00000       26.62575        1.79242        1.82892        3.12467     -148.89337
1067.50000       25.39436        1.79623        1.79093        3.08876     -147.21530
1068.00000       23.29979        1.85412        1.76528        3.08534     -146.96581
1068.50000       21.09959        1.91405        1.73999        3.21436     -147.07044
1069.00000       20.96076        1.97738        1.75291        3.34846     -147.15494
1069.50000       20.82494        2.04905        1.82486        3.48816     -147.28372
1070.00000       22.56639        2.12311        1.89959        3.63402     -145.80685
1070.50000       24.30784        2.16855        1.97756        3.78563     -144.33402
1071.00000       25.61166        2.19377        2.05873        3.81339     -142.85716
1071.50000       26.25754        2.21927        2.11410        3.84135     -140.91350
1072.00000       24.59758        2.21968        2.16355        3.86951     -138.96983
1072.50000       22.93762        2.18264        2.17357        3.86987     -137.03020
1073.00000       22.30080        2.15616        2.17357        3.76155     -135.08654
1073.50000       21.66700        2.16956        2.17357        3.65593     -133.14287
1074.00000       21.03018        2.18304        2.18163        3.71042     -131.16299
1074.50000       20.52313        2.21968        2.22235        3.87632     -129.03422
1075.00000       24.48893        2.35436        2.26384        4.04925     -126.90143
1075.50000       28.75955        2.53420        2.31464        4.28899     -124.34610
1076.00000       30.91448        2.74676        2.44376        4.59701     -120.95777
1076.50000       33.06941        3.05609        2.72198        5.08500     -117.56944
1077.00000       36.67001        3.39994        3.03216        5.74411     -114.18111
1077.50000       40.78671        3.66507        3.34320        6.32865     -110.82497
1078.00000       45.53118        3.79159        3.62932        6.71636     -107.60566
1078.50000       51.91146        3.80599        3.81762        6.77876     -104.38634
1079.00000       60.96578        3.82080        3.93155        6.84173     -101.40848
1079.50000       70.62372        3.64816        3.95818        6.39690      -99.39640
1080.00000       79.67805        3.48332        3.85202        5.98043      -97.67407
