~Version ---------------------------------------------------
VERS. 2.0 : CWLS LOG ASCII STANDARD - VERSION 2.0
WRAP. NO  : One line per depth step
DLM . SPACE : Column Data Section Delimiter
~Well ------------------------------------------------------
STRT.F          230 : START DEPTH
STOP.F       1777.5 : STOP DEPTH
STEP.F          0.5 : STEP
NULL.       -999.25 : NULL VALUE
COMP.         WALSH & WATTS, INCORPORATED : COMPANY
WELL.                         SALMON E 44 : WELL
FLD .                             REGULAR : FIELD
CNTY.                            MONTAGUE : COUNTY
STAT.                               TEXAS : STATE
CTRY.                                 USA : COUNTRY
SEC .                                     : SECTION
TWP .                                     : TOWNSHIP
RGE .                                     : RANGE
LOC . 300' WEST OF NO 23, 300' SOUTH OF D-9, F.ROBERTSON SURV. : LOCATION
EKB .F                      862 : ELEVATION KELLY BUSHING
EDF .F                          : ELEVATION DERRICK FLOOR
EGL .F                      856 : ELEVATION GROUND LEVEL
PDAT.                        GL : PERMANENT DATUM
EPD .                       856 : ELEVATION PERMANENT DATUM
APD .                         6 : ABOVE PERMANENT DATUM
LMF .                        KB : LOG MEASURED FROM
DMF .                        KB : DRILLING MEASURED FROM
API .            42337038720000 : API NUMBER
UWI .                           : UWI NUMBER
DIGC.                     NthDS : DIGITIZING COMPANY
~Params ----------------------------------------------------
SRVC.              SCHLUMBERGER : LOGGING COMPANY
LOG .                       IEL : LOG
DATE.                1965-11-28 : RUN DATE
RUN .                         1 : RUN NUMBER
TDD .F                     1779 : TOTAL DEPTH DRILLER
TDL .F                     1779 : TOTAL DEPTH LOGGER
BOTL.F                     1778 : BOTTOM LOGGED INTERVAL
TOPL.F                          : TOP LOGGED INTERVAL
CSGS.IN                         : CASING SIZE
CSGD.F                          : CASING DRILLER
CSGL.F                          : CASING LOGGER
BS  .IN                   7.875 : BIT SIZE
MUD .                       GEL : MUD TYPE
MUDD.                        10 : MUD DENSITY
MUDV.                       9.8 : MUD VISCOSITY
PH  .                           : MUD PH
FL  .                           : FLUID LOSS
MUDS.                CIRCULATED : SOURCE OF SAMPLE
RM  .OHMM                   2.0 : MUD RESISTIVITY
RMT .DEGF                    81 : RM TEMPERATURE
RMF .OHMM                   1.5 : MUD FILTRATE RESISTIVITY
RMFT.DEGF                    81 : RMF TEMPERATURE
RMC .OHMM                       : MUD CAKE RESISTIVITY
RMCT.DEGF                       : RMC TEMPERATURE
RMFS.                         M : RMF SOURCE
RMCS.                           : RMC SOURCE
RMBH.OHMM                   1.6 : MUD RESISTIVITY AT BHT
BHT .DEGF                   100 : BOTTOM HOLE TEMPERATURE
TIMC.                           : TIME CIRCULATION STOPPED
TIML.                           : TIME LOGGER ON BOTTOM
TMAX.DEGF                   100 : MAXIMUM RECORDED TEMPERATURE
UNIT.                      4559 : EQUIPMENT NUMBER
BASE.                       WFS : BASE LOCATION
ENG .                      FINK : RECORDED BY
WIT .                       NIX : WITNESSED BY
~Curve Information -----------------------------------------
DEPT.F          :DEPTH
CILD.MMHO       :
ILD.OHMM        :
SN.OHMM         :
SP.MV           :
~ASCII ------------------------------------------------------
# ...
1712.50000       62.50117       15.95000       16.99919      -87.30002
1713.00000       65.19129       14.54254       15.49173      -87.20102
1713.50000       69.65318       12.54176       13.98468      -86.70002
1714.00000       84.32871       10.94110       12.54109      -87.24002
1714.50000       95.93770        9.34045       11.62763      -89.18701
1715.00000      106.48563        8.73979       11.26337      -90.90001
1715.50000      125.75223        7.47913       10.89911      -90.15001
1716.00000      145.01884        6.03274        9.49846      -89.40001
1716.50000      171.88299        5.26849        8.19100      -85.73402
1717.00000      203.80216        4.57943        6.69701      -79.38002
1717.50000      227.84700        4.19157        5.89636      -70.83002
1718.00000      247.88437        3.80330        5.14570      -63.39902
1718.50000      267.92173        3.41504        4.47024      -58.43702
1719.00000      280.64183        3.27318        4.18878      -56.61302
1719.50000      293.36192        3.13132        4.00651      -54.79202
1720.00000      305.81175        2.98946        3.88585      -53.78102
1720.50000      313.18653        2.90226        3.80679      -53.98502
1721.00000      313.59439        2.86400        3.71159      -54.19202
1721.50000      314.07581        2.82573        3.63253      -54.39602
1722.00000      317.84701        2.76427        3.55307      -54.60002
1722.50000      323.16976        2.68641        3.48960      -55.48202
1723.00000      330.82482        2.60895        3.48894      -56.36402
1723.50000      338.48989        2.53148        3.48828      -57.24602
1724.00000      346.14495        2.45362        3.36122      -56.70002
1724.50000      356.33253        2.37296        3.23415      -55.20002
1725.00000      368.20177        2.28709        3.10749      -54.41402
1725.50000      380.07102        2.20123        3.00003      -54.75602
1726.00000      394.31612        2.11577        2.97056      -55.04402
1726.50000      414.35349        2.01257        2.89310      -55.32902
1727.00000      434.39086        1.92711        2.78591      -55.89902
1727.50000      453.99780        1.84125        2.69604      -56.90102
1728.00000      473.32446        1.75539        2.65658      -59.16002
1728.50000      492.64111        1.66952        2.69232      -62.25902
1729.00000      513.67947        1.59686        2.70205      -65.36102
1729.50000      534.08068        1.57740        2.60739      -67.72502
1730.00000      545.60960        1.55753        2.51233      -66.76802
1730.50000      551.96336        1.53807        2.41767      -65.10002
1731.00000      550.14901        1.51821        2.42100      -67.35002
1731.50000      536.65305        1.57474        2.44914      -69.60002
1732.00000      520.15411        1.63128        2.47688      -67.74902
1732.50000      497.64920        1.73608        2.50461      -64.50002
1733.00000      465.49470        1.88542        2.53822      -59.83202
1733.50000      429.50639        2.03476        2.60235      -55.55702
1734.00000      403.93843        2.17969        2.72009      -54.20102
1734.50000      381.60369        2.30783        2.83783      -52.84202
1735.00000      364.10375        2.43556        2.95556      -51.48602
1735.50000      353.11028        2.52090        3.07370      -50.16602
1736.00000      345.21989        2.54264        3.19143      -48.99902
1736.50000      346.03816        2.49077        3.13357      -48.73502
1737.00000      360.16965        2.34371        3.07571      -49.82702
1737.50000      382.70951        2.18505        3.01784      -51.21902
1738.00000      417.43496        2.02679        2.96038      -53.80802
1738.50000      449.56434        1.84799        2.90252      -56.40002
1739.00000      482.00404        1.74733        2.83292      -60.30002
1739.50000      514.91420        1.64667        2.75466      -64.20002
1740.00000      524.94161        1.61720        2.59400      -70.80002
1740.50000      531.32541        1.60534        2.47054      -71.19902
1741.00000      532.25379        1.59348        2.49467      -68.19902
1741.50000      529.75225        1.58921        2.45601      -63.82502
1742.00000      521.63163        1.61535        2.37535      -57.67502
1742.50000      508.81635        1.64149        2.39268      -52.35002
1743.00000      490.45555        1.67442        2.47522      -49.42502
1743.50000      471.01368        1.73616        2.54336      -50.49902
1744.00000      460.40059        1.79830        2.55229      -52.12502
1744.50000      450.69840        1.86003        2.56083      -52.77602
1745.00000      449.35452        1.88804        2.56977      -51.96902
1745.50000      449.75237        1.91137        2.58057      -51.16202
1746.00000      448.24833        1.93471        2.58951      -50.78102
1746.50000      439.08668        1.95805        2.59804      -50.50802
1747.00000      423.52867        1.98818        2.60698      -50.70002
1747.50000      409.39207        2.04632        2.61592      -51.20102
1748.00000      400.90109        2.10486        2.68205      -51.18602
1748.50000      393.25094        2.16299        2.74779      -49.12502
1749.00000      388.98415        2.18833        2.81393      -47.19903
1749.50000      388.14077        2.20607        2.84646      -45.36603
1750.00000      384.76160        2.29079        2.89678      -44.31303
1750.50000      382.08640        2.30852        2.87932      -43.80486
1751.00000      379.41468        2.29853        2.85852      -45.61113
1751.50000      381.75446        2.26466        2.84106      -47.68036
1752.00000      387.56769        2.23040        2.84400      -49.04158
1752.50000      393.37091        2.19654        2.85173      -49.34682
1753.00000      399.18414        2.16268        2.85907      -49.05206
1753.50000      398.22064        2.12841        2.86681      -47.85730
1754.00000      391.63504        2.14455        2.87455      -47.86254
1754.50000      385.97687        2.19389        2.91388      -50.84075
1755.00000      381.15954        2.25309        2.95629      -56.52300
1755.50000      377.67352        2.30243        2.97082      -61.25921
1756.00000      372.91625        2.36336        2.98576      -64.07542
1756.50000      366.26710        2.42710        3.01510      -66.36965
1757.00000      357.87621        2.49124        3.05443      -62.68790
1757.50000      348.34419        2.55497        3.08057      -57.76717
1758.00000      339.76312        2.61871        3.09831      -55.13542
1758.50000      332.63698        2.68244        3.11564      -55.89170
1759.00000      332.65445        2.70765        3.13338      -59.93491
1759.50000      338.50772        2.61819        3.15418      -63.97812
1760.00000      350.44704        2.52632        3.17192      -69.76732
1760.50000      363.89786        2.42566        3.16566      -77.01151
1761.00000      377.34868        2.32500        3.04019      -79.91773
1761.50000      392.05424        2.22434        2.87753      -78.72402
1762.00000      393.99362        2.21647        2.71527      -75.32128
1762.50000      389.41652        2.27021        2.55261      -71.91554
1763.00000      384.84944        2.30221        2.42221      -69.43979
1763.50000      390.12213        2.30155        2.42155      -71.64401
1764.00000      409.30865        2.07249        2.42089      -76.60822
1764.50000      471.99189        1.81343        2.42022      -81.43442
1765.00000      547.58447        1.53436        2.33956      -86.44767
1765.50000      686.44341        1.25530        2.20490      -87.39190
1766.00000      809.38304        0.97664        1.93424      -87.47214
1766.50000      950.87459        0.68345        1.66357      -86.97638
1767.00000     1159.90552        0.61278        1.33878      -87.62061
1767.50000     1346.97237        0.54212        1.12292      -88.54984
1768.00000     1547.59269        0.47146        0.98865      -89.19407
1768.50000     1708.57361        0.41159        0.85479      -88.69831
