~Version ---------------------------------------------------
VERS. 2.0 : CWLS LOG ASCII STANDARD - VERSION 2.0
WRAP. NO  : One line per depth step
DLM . SPACE : Column Data Section Delimiter
~Well ------------------------------------------------------
STRT.F          642 : START DEPTH
STOP.F       1779.0 : STOP DEPTH
STEP.F          0.5 : STEP
NULL.       -999.25 : NULL VALUE
COMP.                       WALSH & WATTS : COMPANY
WELL.                        SALMON E 24  : WELL
FLD .                               NORTH : FIELD
CNTY.                            MONTAGUE : COUNTY
STAT.                               TEXAS : STATE
CTRY.                                 USA : COUNTRY
SEC .                                     : SECTION
TWP .                                     : TOWNSHIP
RGE .                                     : RANGE
LOC .                 SW CORNER OF LEAGUE : LOCATION
EKB .F                          : ELEVATION KELLY BUSHING
EDF .F                          : ELEVATION DERRICK FLOOR
EGL .F                      850 : ELEVATION GROUND LEVEL
PDAT.                        GL : PERMANENT DATUM
EPD .                       850 : ELEVATION PERMANENT DATUM
APD .                         5 : ABOVE PERMANENT DATUM
LMF .                        RT : LOG MEASURED FROM
DMF .                        RT : DRILLING MEASURED FROM
API .            42337038630000 : API NUMBER
UWI .                           : UWI NUMBER
DIGC.                     NthDS : DIGITIZING COMPANY
~Params ----------------------------------------------------
SRVC.              SCHLUMBERGER : LOGGING COMPANY
LOG .                       GRN : LOG
DATE.                1964-03-24 : RUN DATE
RUN .                         1 : RUN NUMBER
TDD .F                     1783 : TOTAL DEPTH DRILLER
TDL .F                     1782 : TOTAL DEPTH LOGGER
BOTL.F                     1780 : BOTTOM LOGGED INTERVAL
TOPL.F                      650 : TOP LOGGED INTERVAL
CSGS.IN                     4.5 : CASING SIZE
CSGD.F                     1802 : CASING DRILLER
CSGL.F                          : CASING LOGGER
BS  .IN                       9 : BIT SIZE
MUD .                     WATER : MUD TYPE
MUDD.                           : MUD DENSITY
MUDV.                           : MUD VISCOSITY
PH  .                           : MUD PH
FL  .                           : FLUID LOSS
MUDS.                           : SOURCE OF SAMPLE
RM  .OHMM                       : MUD RESISTIVITY
RMT .DEGF                       : RM TEMPERATURE
RMF .OHMM                       : MUD FILTRATE RESISTIVITY
RMFT.DEGF                       : RMF TEMPERATURE
RMC .OHMM                       : MUD CAKE RESISTIVITY
RMCT.DEGF                       : RMC TEMPERATURE
RMFS.                           : RMF SOURCE
RMCS.                           : RMC SOURCE
RMBH.OHMM                       : MUD RESISTIVITY AT BHT
BHT .DEGF                       : BOTTOM HOLE TEMPERATURE
TIMC.                           : TIME CIRCULATION STOPPED
TIML.                           : TIME LOGGER ON BOTTOM
TMAX.DEGF                   107 : MAXIMUM RECORDED TEMPERATURE
UNIT.                           : EQUIPMENT NUMBER
BASE.                           : BASE LOCATION
ENG .                    MCCUNE : RECORDED BY
WIT .                       NIX : WITNESSED BY
~Curve Information -----------------------------------------
DEPT.F          :DEPTH
GRN.GAPI        :
NEUT.API        :
~ASCII ------------------------------------------------------
# ...
1041.00000       47.49457      523.83812
1041.50000       47.49737      511.84412
1042.00000       47.98113      497.18478
1042.50000       49.10616      491.85411
1043.00000       51.51431      491.85411
1043.50000       52.79967      494.51944
1044.00000       53.44375      503.84811
1044.50000       54.88942      514.50945
1045.00000       56.97637      526.50346
1045.50000       58.10141      535.83213
1046.00000       57.14229      535.83213
1046.50000       55.38157      533.16679
1047.00000       55.22405      543.82813
1047.50000       56.66972      558.48747
1048.00000       59.23764      573.14681
1048.50000       62.12619      573.14681
1049.00000       61.16707      566.48347
1049.50000       57.48251      571.81414
1050.00000       55.59951      589.13881
1050.50000       41.01322      605.13082
1051.00000       33.64131      603.79815
1051.50000       26.10909      605.13082
1052.00000       22.10390      605.13082
1052.50000       21.14478      603.79815
1053.00000       21.94917      601.13282
1053.50000       22.75357      595.92209
1054.00000       24.35957      592.89693
1054.50000       26.12588      594.46948
1055.00000       28.05251      602.82531
1055.50000       31.74266      608.27591
1056.00000       36.87625      608.74235
1056.50000       41.68863      603.79815
1057.00000       43.77559      597.01488
1057.50000       43.61807      594.58942
1058.00000       42.01767      590.47148
1058.50000       38.65375      590.47148
1059.00000       35.12952      594.46948
1059.50000       33.04816      601.13282
1060.00000       33.69224      607.79615
1060.50000       35.77919      618.45749
1061.00000       36.42327      627.78616
1061.50000       35.62447      635.78216
1062.00000       36.74951      643.77817
1062.50000       38.83646      657.10484
1063.00000       38.67894      666.43351
1063.50000       36.91822      667.76618
1064.00000       35.47814      647.77617
1064.50000       34.03806      621.12283
1065.00000       32.75830      591.80415
1065.50000       31.95950      570.48147
1066.00000       31.16070      555.82213
1066.50000       30.36190      554.48947
1067.00000       31.48750      569.14881
1067.50000       33.25381      578.47748
1068.00000       33.89789      583.80814
1068.50000       32.93877      582.47548
1069.00000       31.17805      581.14281
1069.50000       29.57765      575.81214
1070.00000       27.81694      579.81014
1070.50000       27.65941      585.14081
1071.00000       29.10509      594.46948
1071.50000       31.51268      602.46549
1072.00000       34.08059      607.79615
1072.50000       35.52627      610.46149
1073.00000       35.20843      613.12682
1073.50000       33.76835      611.79416
1074.00000       32.48859      605.13082
1074.50000       30.88819      599.80015
1075.00000       30.24971      597.13482
1075.50000       29.61123      593.13681
1076.00000       29.13307      575.81214
1076.50000       30.73906      559.82014
1077.00000       33.30754      550.49147
1077.50000       35.07385      551.82413
1078.00000       35.55761      566.48347
1078.50000       34.91913      582.47548
1079.00000       34.12033      589.13881
1079.50000       33.48185      587.80615
1080.00000       32.52273      589.13881
1080.50000       31.24297      587.80615
1081.00000       29.32193      593.13681
1081.50000       27.08025      602.46549
1082.00000       24.83858      610.46149
1082.50000       23.71914      615.79216
1083.00000       24.52353      614.45949
1083.50000       26.28985      607.79615
1084.00000       28.05616      593.13681
1084.50000       28.86056      586.47348
1085.00000       27.42048      579.81014
1085.50000       25.33912      575.81214
1086.00000       25.02128      577.14481
1086.50000       25.82568      582.47548
1087.00000       25.66816      586.47348
1087.50000       25.19000      593.13681
1088.00000       23.42928      602.46549
1088.50000       22.30984      611.79416
1089.00000       22.79416      610.46149
1089.50000       22.63663      610.46149
1090.00000       21.51720      619.79016
1090.50000       20.87871      637.11483
1091.00000       21.84343      655.77217
1091.50000       23.28911      662.43551
1092.00000       23.93318      655.58560
1092.50000       23.29470      647.01655
1093.00000       22.01494      638.44750
1093.50000       20.73518      641.77917
1094.00000       20.41734      639.78017
1094.50000       20.42014      638.28758
1095.00000       20.10230      642.44550
1095.50000       18.98286      637.11483
1096.00000       18.82534      630.95791
1096.50000       19.95037      633.45000
1097.00000       21.55637      631.45100
1097.50000       22.68140      626.45349
1098.00000       23.80644      618.12432
1098.50000       24.29076      629.11883
1099.00000       23.49196      642.44550
1099.50000       23.17412      658.43751
1100.00000       23.05411      673.09684
1100.50000       22.73347      682.42552
1101.00000       23.37475      683.75818
1101.50000       24.49699      677.09485
1102.00000       26.26052      670.43151
1102.50000       28.02405      661.10284
1103.00000       28.66533      647.77617
1103.50000       28.66533      641.11283
1104.00000       28.66533      645.11083
1104.50000       28.34469      646.44350
1105.00000       28.02405      643.77817
1105.50000       27.86372      641.11283
1106.00000       27.54308      638.44750
1106.50000       27.54308      639.78017
1107.00000       29.78757      639.78017
1107.50000       34.27655      633.11683
1108.00000       40.84969      630.45150
1108.50000       52.07214      627.78616
1109.00000       58.32464      630.45150
1109.50000       59.60720      638.44750
1110.00000       50.62925      646.44350
1110.50000       38.12424      647.77617
1111.00000       30.10821      649.10884
1111.50000       27.70340      646.44350
1112.00000       29.94789      642.44550
1112.50000       35.23847      639.78017
1113.00000       42.29258      633.11683
1113.50000       47.74348      639.78017
1114.00000       49.82765      639.78017
1114.50000       47.42284      645.11083
1115.00000       41.65130      647.77617
1115.50000       35.55911      639.78017
1116.00000       31.23046      641.11283
1116.50000       32.83366      650.44150
1117.00000       39.08617      650.44150
1117.50000       45.49899      649.10884
1118.00000       51.43085      651.77417
1118.50000       54.79759      653.10684
1119.00000       51.91181      650.44150
1119.50000       45.17835      650.44150
1120.00000       36.04008      655.77217
1120.50000       30.74950      659.77017
1121.00000       30.26853      662.43551
1121.50000       31.07014      663.76817
1122.00000       32.03206      659.77017
1122.50000       32.67334      654.43950
1123.00000       33.63527      646.44350
1123.50000       35.07815      642.44550
1124.00000       36.84168      638.44750
1124.50000       39.88777      639.78017
1125.00000       43.25450      634.44950
1125.50000       43.89578      629.11883
1126.00000       39.40681      627.78616
1126.50000       32.83366      618.45749
1127.00000       28.02405      601.13282
1127.50000       26.26052      586.47348
1128.00000       25.61924      566.48347
1128.50000       26.58116      550.49147
1129.00000       27.86372      529.16879
1129.50000       28.82565      505.18078
1130.00000       32.35270      477.19477
1130.50000       38.92585      463.86810
1131.00000       47.42284      461.20277
1131.50000       52.39278      459.87010
1132.00000       54.95791      459.87010
1132.50000       55.27855      463.86810
1133.00000       54.47694      470.53144
1133.50000       52.55310      478.52744
1134.00000       49.34669      485.19077
1134.50000       46.14027      486.52344
1135.00000       45.01803      486.52344
1135.50000       46.78156      491.85411
1136.00000       49.50701      497.18478
1136.50000       50.30861      506.51345
1137.00000       48.70540      515.84212
1137.50000       46.14027      513.17678
1138.00000       43.09418      517.17479
1138.50000       41.97194      535.83213
