~Version ---------------------------------------------------
VERS. 2.0 : CWLS LOG ASCII STANDARD - VERSION 2.0
WRAP. NO  : One line per depth step
DLM . SPACE : Column Data Section Delimiter
~Well ------------------------------------------------------
STRT.F          194 : START DEPTH
STOP.F       1764.0 : STOP DEPTH
STEP.F          0.5 : STEP
NULL.       -999.25 : NULL VALUE
COMP.                 WALSH & WATTS, INC. : COMPANY
WELL.                         SALMON E 42 : WELL
FLD .                        NORTH NOCONA : FIELD
CNTY.                            MONTAGUE : COUNTY
STAT.                               TEXAS : STATE
CTRY.                                 USA : COUNTRY
SEC .                                     : SECTION
TWP .                                     : TOWNSHIP
RGE .                                     : RANGE
LOC . 150' FSL & 300' W OF WELL NO. 1, 407' E OF WELL NO. 5, F. ROBERTSON SURVEY : LOCATION
EKB .F                      880 : ELEVATION KELLY BUSHING
EDF .F                          : ELEVATION DERRICK FLOOR
EGL .F                      874 : ELEVATION GROUND LEVEL
PDAT.              GROUND LEVEL : PERMANENT DATUM
EPD .                       874 : ELEVATION PERMANENT DATUM
APD .                         6 : ABOVE PERMANENT DATUM
LMF .                        KB : LOG MEASURED FROM
DMF .                        KB : DRILLING MEASURED FROM
API .            42337037780000 : API NUMBER
UWI .            42337037780000 : UWI NUMBER
DIGC.                     NthDS : DIGITIZING COMPANY
~Params ----------------------------------------------------
SRVC.                LANE WELLS : LOGGING COMPANY
LOG .                       IEL : LOG
DATE.                1965-11-21 : RUN DATE
RUN .                         1 : RUN NUMBER
TDD .F                     1766 : TOTAL DEPTH DRILLER
TDL .F                     1768 : TOTAL DEPTH LOGGER
BOTL.F                     1764 : BOTTOM LOGGED INTERVAL
TOPL.F                      200 : TOP LOGGED INTERVAL
CSGS.IN                         : CASING SIZE
CSGD.F                          : CASING DRILLER
CSGL.F                          : CASING LOGGER
BS  .IN                   7.875 : BIT SIZE
MUD .              CHEMICAL GEL : MUD TYPE
MUDD.                       9.8 : MUD DENSITY
MUDV.                       123 : MUD VISCOSITY
PH  .                           : MUD PH
FL  .                           : FLUID LOSS
MUDS.                CIRCULATED : SOURCE OF SAMPLE
RM  .OHMM                   2.1 : MUD RESISTIVITY
RMT .DEGF                    70 : RM TEMPERATURE
RMF .OHMM                  1.81 : MUD FILTRATE RESISTIVITY
RMFT.DEGF                    70 : RMF TEMPERATURE
RMC .OHMM                  2.34 : MUD CAKE RESISTIVITY
RMCT.DEGF                    70 : RMC TEMPERATURE
RMFS.                  MEASURED : RMF SOURCE
RMCS.                           : RMC SOURCE
RMBH.OHMM                   1.5 : MUD RESISTIVITY AT BHT
BHT .DEGF                    98 : BOTTOM HOLE TEMPERATURE
TIMC.                           : TIME CIRCULATION STOPPED
TIML.                           : TIME LOGGER ON BOTTOM
TMAX.DEGF                    98 : MAXIMUM RECORDED TEMPERATURE
UNIT.                    L-4553 : EQUIPMENT NUMBER
BASE.                      W.F. : BASE LOCATION
ENG .                     ADAMS : RECORDED BY
WIT .   MR. HARRELSON & MR. NIX : WITNESSED BY
~Curve Information -----------------------------------------
DEPT.F          :DEPTH
CILD.MMHO       :
ILD.OHMM        :
ROP.MIN/FT      :
SN.OHMM         :
SP.MV           :
~ASCII ------------------------------------------------------
# ...
1612.50000      389.27515        2.56410        -999.25        3.82643      -53.92930
1613.00000      394.24039        2.56410        -999.25        3.78698      -53.92930
1613.50000      395.23344        2.56410        -999.25        3.74753      -54.81338
1614.00000      395.23344        2.56410        -999.25        3.66864      -55.40277
1614.50000      393.24734        2.56410        -999.25        3.58974      -53.63460
1615.00000      393.24734        2.56410        -999.25        3.55029      -50.68765
1615.50000      393.24734        2.56410        -999.25        3.55029      -48.33008
1616.00000      394.24039        2.56410        -999.25        3.55029      -45.67782
1616.50000      395.23344        2.56410        -999.25        3.51085      -44.20435
1617.00000      396.22649        2.56410        -999.25        3.51085      -42.14148
1617.50000      398.21259        2.56410        -999.25        3.51085      -39.48922
1618.00000      400.19868        2.56410        -999.25        3.55029      -37.13166
1618.50000      401.19173        2.52465        -999.25        3.55029      -35.95288
1619.00000      402.18478        2.52465        -999.25        3.51085      -35.06879
1619.50000      404.17088        2.52465        -999.25        3.47140      -34.18470
1620.00000      407.15002        2.52465        0.75580        3.43195      -33.59531
1620.50000      409.13612        2.48521        0.75471        3.43195      -34.18470
1621.00000      413.10831        2.44576        0.75363        3.43195      -35.95288
1621.50000      415.09441        2.44576        0.75265        3.43195      -37.72105
1622.00000      418.07356        2.44576        0.75157        3.39250      -40.07861
1622.50000      421.05270        2.40631        0.75049        3.35306      -42.14148
1623.00000      424.03185        2.40631        0.74951        3.31361      -43.02557
1623.50000      428.00404        2.36686        0.74823        3.27416      -43.32026
1624.00000      432.96928        2.36686        0.74715        3.27416      -43.61496
1624.50000      441.90672        2.24852        1.00246        3.27416      -43.32026
1625.00000      450.84416        2.24852        1.00511        3.27416      -45.08843
1625.50000      459.78160        2.16962        1.00766        3.35306      -50.09826
1626.00000      466.73294        2.20907        1.01022        3.43195      -53.92930
1626.50000      470.70513        2.13018        0.75638        3.55029      -58.34973
1627.00000      473.68427        2.01183        0.75334        3.74753      -63.65424
1627.50000      478.64952        2.13018        0.75088        3.78698      -69.25346
1628.00000      484.60781        2.05128        0.74833        3.74753      -73.96858
1628.50000      489.57305        2.09073        0.74578        3.55029      -74.85267
1629.00000      491.55915        2.01183        0.74332        3.43195      -71.61102
1629.50000      492.55220        2.13018        0.74077        3.51085      -65.76721
1630.00000      491.55915        2.13018        0.73821        3.70809      -61.59138
1630.50000      486.59391        2.20907        1.00196        3.94477      -68.95876
1631.00000      474.67732        2.44576        1.00196        4.14201      -75.73676
1631.50000      448.85806        2.56410        1.00196        4.33925      -78.38902
1632.00000      414.10136        2.99803        1.00196        4.69428      -76.32615
1632.50000      366.43503        3.27416        2.95884        5.56213      -71.90572
1633.00000      315.78956        3.86588        2.96238        6.54832      -67.19059
1633.50000      276.06762        4.29980        2.96591        7.85010      -64.83303
1634.00000      235.35263        5.20710        2.97446        9.58580      -67.19059
1634.50000      196.62373        5.68047        4.47937       11.28205      -71.02163
1635.00000      169.81142        6.54832        4.47937       12.58382      -73.67389
1635.50000      152.92960        6.90335        4.47937       13.25443      -75.73676
1636.00000      142.00606        7.33728        3.72790       13.88560      -76.62084
1636.50000      137.04082        7.45562        2.97878       14.47731      -76.32615
1637.00000      135.05472        7.69231        2.98163       15.22682      -75.44206
1637.50000      132.07558        7.81065        2.98448       16.29191      -73.96858
1638.00000      125.12424        8.36292        3.32682       17.19921      -72.49511
1638.50000      119.16595        8.75739        3.49656       18.34319      -71.90572
1639.00000      113.20766        9.19132        3.49607       19.05325      -71.61102
1639.50000      110.22851        9.50690        3.49558       19.32938      -71.90572
1640.00000      105.26327        9.94083        3.49509       19.32938      -71.90572
1640.50000      101.29107       10.21696        3.49460       19.32938      -72.20041
1641.00000       99.30498       10.49309        3.49411       19.59763      -72.49511
1641.50000       97.31888       10.76923        3.49361       20.27218      -72.78980
1642.00000       94.33973       11.16371        3.49312       20.94280      -72.78980
1642.50000       91.36059       11.40039        3.49253       21.75147      -72.49511
1643.00000       90.36754       11.55818        3.49214       22.42209      -71.90572
1643.50000       88.38144       11.63708        3.49165       23.09664      -69.84285
1644.00000       88.38144       11.67653        3.49116       23.76725      -68.36937
1644.50000       88.38144       11.63708        3.49067       24.43786      -66.60120
1645.00000       88.38144       11.51873        3.49018       25.11242      -65.12772
1645.50000       89.37449       11.43984        3.48968       25.07297      -63.65424
1646.00000       90.36754       11.28205        3.48919       24.85206      -62.18077
1646.50000       90.36754       11.20315        3.48860       24.58777      -60.70729
1647.00000       91.36059       11.08481        3.48811       24.37080      -59.23381
1647.50000       93.34668       11.08481        3.48762       24.14990      -58.05503
1648.00000       92.35364       11.00591        3.73281       24.36291      -56.87625
1648.50000       93.34668       11.00591        3.97800       24.86784      -55.10808
1649.00000       92.35364       11.00591        3.97750       25.36883      -54.22399
1649.50000       93.34668       11.00591        3.97711       25.87376      -53.04521
1650.00000       92.35364       11.08481        3.97662       26.37475      -52.16112
1650.50000       93.34668       11.12426        3.98571       26.97830      -51.58105
1651.00000       92.35364       11.16371        3.98522       27.48323      -50.98817
1651.50000       92.35364       11.12426        3.98472       27.98421      -50.39528
1652.00000       92.35364       10.84812        3.98432       28.48914      -49.80240
1652.50000       94.33973       10.53254        3.98383       28.99013      -49.50595
1653.00000       98.31193        9.86193        3.98333       27.85404      -49.20951
1653.50000      104.27022        9.42801        3.98274       25.62524      -49.20951
1654.00000      111.22156        8.67850        3.98224       23.39250      -49.20951
1654.50000      117.17985        8.32347        3.98184       21.16370      -49.20951
1655.00000      124.13119        7.81065        3.98135       18.93491      -48.61663
1655.50000      129.09643        7.61341        3.98085       19.72386      -48.32018
1656.00000      134.06167        7.33728        3.98036       19.01380      -47.72730
1656.50000      139.02692        7.06114        3.97986       18.14595      -47.72730
1657.00000      146.97131        6.50887        3.97936       17.27810      -47.43085
1657.50000      155.90874        6.19329        3.97887       16.17357      -47.43085
1658.00000      170.80447        5.40434        3.97837       14.28008      -47.43085
1658.50000      189.67239        5.04931        2.47024       11.55818      -47.43085
1659.00000      208.54032        4.37870        2.47024        9.27021      -46.83797
