~Version ---------------------------------------------------
VERS. 2.0 : CWLS LOG ASCII STANDARD - VERSION 2.0
WRAP. NO  : One line per depth step
DLM . SPACE : Column Data Section Delimiter
~Well ------------------------------------------------------
STRT.F          100 : START DEPTH
STOP.F       1786.5 : STOP DEPTH
STEP.F          0.5 : STEP
NULL.       -999.25 : NULL VALUE
COMP.                 WALSH & WATTS, INC. : COMPANY
WELL.                         SALMON E 41 : WELL
FLD .                        NORTH NOCONA : FIELD
CNTY.                            MONTAGUE : COUNTY
STAT.                               TEXAS : STATE
CTRY.                                 USA : COUNTRY
SEC .                                     : SECTION
TWP .                                     : TOWNSHIP
RGE .                                     : RANGE
LOC . 300' N OF NO. 40
150' W OF EL & 385' E OF NO. 87
F. ROBERTSON SURVEY : LOCATION
EKB .F                          : ELEVATION KELLY BUSHING
EDF .F                          : ELEVATION DERRICK FLOOR
EGL .F                      878 : ELEVATION GROUND LEVEL
PDAT.              GROUND LEVEL : PERMANENT DATUM
EPD .                       878 : ELEVATION PERMANENT DATUM
APD .                           : ABOVE PERMANENT DATUM
LMF .                        KB : LOG MEASURED FROM
DMF .                        KB : DRILLING MEASURED FROM
API .            42337037790000 : API NUMBER
UWI .            42337037790000 : UWI NUMBER
DIGC.                     NthDS : DIGITIZING COMPANY
~Params ----------------------------------------------------
SRVC.                LANE WELLS : LOGGING COMPANY
LOG .                       IEL : LOG
DATE.                1965-12-01 : RUN DATE
RUN .                         1 : RUN NUMBER
TDD .F                     1790 : TOTAL DEPTH DRILLER
TDL .F                     1791 : TOTAL DEPTH LOGGER
BOTL.F                     1787 : BOTTOM LOGGED INTERVAL
TOPL.F                      100 : TOP LOGGED INTERVAL
CSGS.IN                         : CASING SIZE
CSGD.F                          : CASING DRILLER
CSGL.F                          : CASING LOGGER
BS  .IN                       9 : BIT SIZE
MUD .                       GEL : MUD TYPE
MUDD.                        10 : MUD DENSITY
MUDV.                        80 : MUD VISCOSITY
PH  .                       9.0 : MUD PH
FL  .                       6.8 : FLUID LOSS
MUDS.                       PIT : SOURCE OF SAMPLE
RM  .OHMM                  1.95 : MUD RESISTIVITY
RMT .DEGF                    74 : RM TEMPERATURE
RMF .OHMM                   1.5 : MUD FILTRATE RESISTIVITY
RMFT.DEGF                    74 : RMF TEMPERATURE
RMC .OHMM                   2.3 : MUD CAKE RESISTIVITY
RMCT.DEGF                    74 : RMC TEMPERATURE
RMFS.                  MEASURED : RMF SOURCE
RMCS.                           : RMC SOURCE
RMBH.OHMM                   1.5 : MUD RESISTIVITY AT BHT
BHT .DEGF                    97 : BOTTOM HOLE TEMPERATURE
TIMC.                           : TIME CIRCULATION STOPPED
TIML.                           : TIME LOGGER ON BOTTOM
TMAX.DEGF                    97 : MAXIMUM RECORDED TEMPERATURE
UNIT.                    L-5172 : EQUIPMENT NUMBER
BASE.                      W.F. : BASE LOCATION
ENG .             ADAMS & BAKER : RECORDED BY
WIT .                   MR. NIX : WITNESSED BY
~Curve Information -----------------------------------------
DEPT.F          :DEPTH
CILD.MMHO       :
ILD.OHMM        :
ROP.FT/HR       :
SN.OHMM         :
SP.MV           :
~ASCII ------------------------------------------------------
# ...
1331.50000      527.49014        1.94121        -999.25        2.42668      -42.45936
1332.00000      575.64489        1.69026        -999.25        2.29143      -44.25709
1332.50000      623.79965        1.57250        -999.25        2.15658      -46.95842
1333.00000      671.95441        1.41499        -999.25        2.09091      -51.16574
1333.50000      720.10916        1.33699        -999.25        2.09275      -57.78265
1334.00000      753.64090        1.25931        -999.25        2.13403      -62.29117
1334.50000      759.17662        1.26083        -999.25        2.13556      -63.18341
1335.00000      734.92067        1.34188        -999.25        2.13709      -64.37874
1335.50000      682.40083        1.38317        -999.25        2.13861      -63.16448
1336.00000      627.59925        1.58350        -999.25        2.21966      -59.54064
1336.50000      572.79767        1.66454        -999.25        2.26095      -55.01319
1337.00000      517.99609        1.86487        -999.25        2.36187      -50.78695
1337.50000      469.99014        2.01271        -999.25        2.46280      -46.55881
1338.00000      432.16277        2.21573        -999.25        2.58391      -44.13975
1338.50000      413.09531        2.38465        -999.25        2.68484      -42.32310
1339.00000      398.71039        2.55357        -999.25        2.78577      -41.71124
1339.50000      392.85722        2.58849        -999.25        2.86682      -42.00297
1340.00000      396.16079        2.59002        -999.25        2.86834      -41.39111
1340.50000      402.59928        2.59155        -999.25        2.86987      -40.47806
1341.00000      412.06356        2.55133        -999.25        2.87140      -40.16550
1341.50000      423.61118        2.44828        -999.25        2.81726      -40.75844
1342.00000      443.45245        2.34484        -999.25        2.72614      -41.65257
1342.50000      463.29372        2.24180        -999.25        2.63463      -43.45030
1343.00000      522.81752        2.05566        -999.25        2.48498      -45.54923
1343.50000      617.06354        1.76605        -999.25        2.34337      -48.55176
1344.00000      727.84726        1.52464        -999.25        2.20176      -52.15668
1344.50000      836.86510        1.28323        -999.25        2.06015      -56.36400
1345.00000      938.81945        1.04182        -999.25        1.91854      -62.07731
1345.50000     1197.58938        0.86920        -999.25        1.91330      -68.09183
1346.00000     1266.86517        0.79956        -999.25        1.94187      -74.70874
1346.50000     1305.55564        0.72991        -999.25        1.97043      -78.01246
1347.00000     1283.33342        0.74058        -999.25        1.99899      -78.90660
1347.50000     1202.70843        0.80414        -999.25        2.00808      -78.89713
1348.00000     1124.75209        0.86769        -999.25        1.98734      -76.17499
1348.50000     1056.54773        0.93164        -999.25        1.96293      -72.55114
1349.00000      981.54762        0.99519        -999.25        1.94219      -67.42130
1349.50000      937.89683        1.07137        -999.25        2.03914      -64.70105
1350.00000      895.33731        1.05057        -999.25        2.05173      -65.83033
1350.50000      846.91851        1.10397        -999.25        2.14830      -67.93118
1351.00000      807.48511        1.15697        -999.25        2.24486      -70.63238
1351.50000      774.35390        1.20998        -999.25        2.34143      -70.32674
1352.00000      729.62230        1.26338        -999.25        2.30335      -69.12014
1352.50000      653.33006        1.39400        -999.25        2.26527      -65.50875
1353.00000      567.59449        1.54404        -999.25        2.22313      -57.98955
1353.50000      490.45732        1.82942        -999.25        2.40207      -50.16976
1354.00000      447.71379        2.15489        -999.25        2.58062      -46.55836
1354.50000      409.17502        2.39601        -999.25        2.75956      -44.44996
1355.00000      383.08159        2.51079        -999.25        2.87553      -43.24336
1355.50000      373.99610        2.62557        -999.25        2.89844      -42.03593
1356.00000      375.17900        2.67224        -999.25        2.92134      -41.12993
1356.50000      376.36191        2.67376        -999.25        2.94385      -40.52453
1357.00000      377.54481        2.67528        -999.25        2.96676      -40.52034
1357.50000      378.72771        2.67711        -999.25        2.99393      -41.71854
1358.00000      378.06171        2.67863        -999.25        2.99110      -42.31554
1358.50000      377.40564        2.68015        -999.25        2.98826      -42.61195
1359.00000      376.73964        2.68167        -999.25        2.98542      -42.90835
1359.50000      378.03189        2.68319        -999.25        2.98298      -43.20475
1360.00000      379.11538        2.68471        -999.25        2.98015      -43.20055
1360.50000      380.19888        2.68623        -999.25        2.97731      -42.89492
1361.00000      381.28238        2.68775        -999.25        2.97448      -42.89072
1361.50000      380.73566        2.68927        -999.25        2.97164      -43.48772
1362.00000      379.12532        2.69079        -999.25        2.96881      -44.08473
1362.50000      377.50505        2.69262        -999.25        2.98964      -44.98233
1363.00000      375.88477        2.69533        -999.25        3.01096      -45.87993
1363.50000      374.26449        2.70239        -999.25        3.03228      -46.47693
1364.00000      372.32612        2.70946        -999.25        3.05361      -47.37454
1364.50000      370.70584        2.71692        -999.25        3.02226      -46.76914
1365.00000      369.08556        2.72398        -999.25        2.99051      -45.26194
1365.50000      368.01201        2.73105        -999.25        2.95916      -43.75391
1366.00000      369.08556        2.73851        -999.25        2.94603      -42.84791
1366.50000      370.16906        2.74241        -999.25        2.95983      -42.24251
1367.00000      371.25256        2.73522        -999.25        2.97362      -41.63711
1367.50000      372.33606        2.72595        -999.25        2.99208      -41.03172
1368.00000      375.74560        2.71876        -999.25        3.00984      -41.02752
1368.50000      382.90266        2.71117        -999.25        3.02799      -41.32392
1369.00000      397.94242        2.62279        -999.25        2.92615      -41.31973
1369.50000      429.42353        2.53402        -999.25        2.82431      -42.21733
1370.00000      460.90464        2.36604        -999.25        2.72247      -44.31733
1370.50000      497.01795        2.17786        -999.25        2.62102      -47.61889
1371.00000      534.29429        1.98929        -999.25        2.56908      -51.22190
1371.50000      571.57063        1.80112        -999.25        2.59277      -55.72670
1372.00000      603.97619        1.61294        -999.25        2.63944      -60.83270
1372.50000      614.31416        1.61446        -999.25        2.71453      -64.73630
1373.00000      605.36784        1.61598        -999.25        2.76041      -65.03271
1373.50000      569.95035        1.64711        -999.25        2.74134      -62.92431
1374.00000      534.64220        1.79437        -999.25        2.72187      -60.81591
1374.50000      499.46328        1.94202        -999.25        2.70279      -56.60332
1375.00000      464.29430        2.08928        -999.25        2.71818      -49.38472
1375.50000      423.95633        2.27060        -999.25        2.78544      -42.16528
1376.00000      387.55475        2.50340        -999.25        2.85309      -39.75629
1376.50000      372.01797        2.73581        -999.25        2.92075      -39.45149
1377.00000      364.81121        2.76386        -999.25        2.97732      -40.04849
1377.50000      371.27244        2.79737        -999.25        2.99340      -41.24669
1378.00000      376.66012        2.81156        -999.25        3.00720      -42.14430
