~Version ---------------------------------------------------
VERS. 2.0 : CWLS LOG ASCII STANDARD - VERSION 2.0
WRAP. NO  : One line per depth step
DLM . SPACE : Column Data Section Delimiter
~Well ------------------------------------------------------
STRT.F          100 : START DEPTH
STOP.F       2271.5 : STOP DEPTH
STEP.F          0.5 : STEP
NULL.       -999.25 : NULL VALUE
COMP.                       WALSH & WATTS : COMPANY
WELL.                        SALMON E 24  : WELL
FLD .                               NORTH : FIELD
CNTY.                            MONTAGUE : COUNTY
STAT.                               TEXAS : STATE
CTRY.                                 USA : COUNTRY
SEC .                                     : SECTION
TWP .                                     : TOWNSHIP
RGE .                                     : RANGE
LOC .                 SW CORNER OF LEAGUE : LOCATION
EKB .F                          : ELEVATION KELLY BUSHING
EDF .F                          : ELEVATION DERRICK FLOOR
EGL .F                      850 : ELEVATION GROUND LEVEL
PDAT.                        GL : PERMANENT DATUM
EPD .                       850 : ELEVATION PERMANENT DATUM
APD .                         5 : ABOVE PERMANENT DATUM
LMF .                        RT : LOG MEASURED FROM
DMF .                        RT : DRILLING MEASURED FROM
API .            42337038630000 : API NUMBER
UWI .                           : UWI NUMBER
DIGC.                     NthDS : DIGITIZING COMPANY
~Params ----------------------------------------------------
SRVC.               HALLIBURTON : LOGGING COMPANY
LOG .                        EL : LOG
DATE.                1950-09-25 : RUN DATE
RUN .                         1 : RUN NUMBER
TDD .F                     2272 : TOTAL DEPTH DRILLER
TDL .F                     2272 : TOTAL DEPTH LOGGER
BOTL.F                     2272 : BOTTOM LOGGED INTERVAL
TOPL.F                          : TOP LOGGED INTERVAL
CSGS.IN                         : CASING SIZE
CSGD.F                          : CASING DRILLER
CSGL.F                          : CASING LOGGER
BS  .IN                       9 : BIT SIZE
MUD .        WATER BASE AQUAGEL : MUD TYPE
MUDD.                       9.8 : MUD DENSITY
MUDV.                        39 : MUD VISCOSITY
PH  .                           : MUD PH
FL  .                           : FLUID LOSS
MUDS.                           : SOURCE OF SAMPLE
RM  .OHMM                   2.3 : MUD RESISTIVITY
RMT .DEGF                    70 : RM TEMPERATURE
RMF .OHMM                       : MUD FILTRATE RESISTIVITY
RMFT.DEGF                       : RMF TEMPERATURE
RMC .OHMM                       : MUD CAKE RESISTIVITY
RMCT.DEGF                       : RMC TEMPERATURE
RMFS.                           : RMF SOURCE
RMCS.                           : RMC SOURCE
RMBH.OHMM                       : MUD RESISTIVITY AT BHT
BHT .DEGF                       : BOTTOM HOLE TEMPERATURE
TIMC.                           : TIME CIRCULATION STOPPED
TIML.                           : TIME LOGGER ON BOTTOM
TMAX.DEGF                       : MAXIMUM RECORDED TEMPERATURE
UNIT.                           : EQUIPMENT NUMBER
BASE.                           : BASE LOCATION
ENG .                  HARRISON : RECORDED BY
WIT .                    DAWSON : WITNESSED BY
~Curve Information -----------------------------------------
DEPT.F          :DEPTH
ILD.OHMM        :
SN.OHMM         :
SP.MV           :
~ASCII ------------------------------------------------------
# ...
1763.00000        2.28387        4.81556      -27.81562
1763.50000        2.14666        5.06815      -29.14307
1764.00000        2.00945        5.15381      -30.47053
1764.50000        1.87307        5.32294      -32.46712
1765.00000        1.73586        5.74248      -34.79828
1765.50000        1.59865        5.74467      -36.12574
1766.00000        1.47229        5.49644      -36.78407
1766.50000        1.38432        5.49862      -38.44609
1767.00000        1.29719        5.75166      -40.44268
1767.50000        1.21006        5.75384      -40.76644
1768.00000        1.12294        5.58909      -39.08281
1768.50000        1.03581        5.34086      -36.06092
1769.00000        0.94868        5.09263      -34.37729
1769.50000        0.84362        5.17829      -34.36649
1770.00000        0.75649        5.18047      -34.02112
1770.50000        0.85133        5.18266      -30.99923
1771.00000        0.94617        5.18484      -27.30604
1771.50000        1.04101        5.02009      -25.28785
1772.00000        1.13585        4.85533      -25.94618
1772.50000        1.23152        4.77404      -27.94277
1773.00000        1.34723        4.69276      -29.93936
1773.50000        1.47796        4.61147      -32.27051
1774.00000        1.60869        4.61366      -33.59797
1774.50000        1.73942        4.69931      -32.58347
1775.00000        1.87015        4.61803      -30.56528
1775.50000        1.95998        4.45327      -27.87795
1776.00000        1.98804        4.20504      -25.52519
1776.50000        2.01610        4.12375      -26.18352
1777.00000        2.03916        4.29288      -28.51467
1777.50000        2.04134        4.54592      -30.84583
1778.00000        2.04353        4.54810      -32.50785
1778.50000        2.04571        4.21640      -32.16248
1779.00000        2.04833        3.71776      -29.47516
1779.50000        2.01129        3.38606      -27.45696
1780.00000        1.96423        3.38825      -26.10790
1780.50000        1.91716        3.39043      -26.42950
1781.00000        1.87010        3.39262      -26.75326
1781.50000        1.82387        3.47827      -27.41159
1782.00000        1.77681        3.48046      -28.73905
1782.50000        1.72975        3.73306      -30.73564
1783.00000        1.75363        4.00652      -32.06310
1783.50000        1.77669        4.32173      -34.39425
1784.00000        1.80058        4.62191      -36.72541
1784.50000        1.82446        4.53478      -36.04548
1785.00000        1.84752        4.10542      -33.02358
1785.50000        1.87140        3.57088      -29.66713
1786.00000        1.89446        3.11397      -26.97980
1786.50000        1.91835        2.73219      -24.96160
1787.00000        1.93889        2.65090      -23.61254
1787.50000        1.96028        2.64474      -22.59804
1788.00000        1.98166        2.93908      -23.25637
1788.50000        2.00221        3.29228      -25.58752
1789.00000        1.97144        3.58661      -29.25694
1789.50000        1.93523        3.76321      -33.59549
1790.00000        1.81889        3.68280      -37.26491
1790.50000        1.68168        3.68499      -41.26889
1791.00000        1.54447        3.43676      -42.93091
1791.50000        1.53496        3.18853      -42.92011
1792.00000        1.55718        3.27419      -42.57474
1792.50000        1.57940        3.27637      -40.89111
1793.00000        1.60079        3.19509      -38.87076
1793.50000        1.63636        3.03033      -37.18713
1794.00000        1.68028        2.78210      -35.83806
1794.50000        1.72420        2.70082      -35.82726
1795.00000        1.76812        2.86994      -35.81646
1795.50000        1.79869        2.70519      -33.79826
1796.00000        1.82091        2.37349      -30.77637
1796.50000        1.84312        1.87484      -25.74708
1797.00000        1.86534        1.54314      -22.05606
1797.50000        1.88756        1.29535      -21.37613
1798.00000        1.88096        1.43065      -22.03446
1798.50000        1.95203        1.75838      -23.36192
1799.00000        2.01224        2.02310      -24.68937
1799.50000        2.07244        1.94933      -26.68596
1800.00000        2.13264        2.09891      -28.76994
1800.50000        2.19285        2.57855      -30.16766
1801.00000        2.25305        2.98223      -31.56538
1801.50000        2.31326        3.36671      -32.96309
1802.00000        2.24621        3.83717      -35.41804
1802.50000        2.16492        4.43534      -38.41832
1803.00000        2.08364        5.10530      -42.42231
1803.50000        2.00235        5.94220      -45.42259
1804.00000        1.95863        6.44521      -47.08462
1804.50000        2.06515        6.78128      -47.07165
1805.00000        2.17168        6.86737      -45.05346
1805.50000        2.57870        6.86956      -42.36613
1806.00000        3.06084        7.20563      -40.01337
1806.50000        3.63942        7.45823      -36.99148
1807.00000        4.12156        7.29347      -34.63872
1807.50000        3.75898        7.12871      -33.62422
1808.00000        3.36718        6.88048      -33.94798
1808.50000        2.93281        6.63226      -34.60631
1809.00000        2.49844        6.38403      -34.59551
1809.50000        2.06490        6.38621      -35.25384
1810.00000        1.63053        6.72228      -38.58869
1810.50000        1.68865        7.05835      -41.58897
1811.00000        1.74592        7.31095      -42.91643
1811.50000        1.80403        7.06272      -41.56737
1812.00000        2.06999        6.73102      -38.21091
1812.50000        2.33594        6.39932      -34.18316
1813.00000        2.60106        6.23457      -31.83040
1813.50000        2.76184        6.40413      -31.15047
1814.00000        2.50360        6.48979      -30.47053
1814.50000        2.24452        6.15809      -29.79060
1815.00000        1.98627        5.49250      -28.77610
1815.50000        1.72719        5.24428      -27.76160
1816.00000        1.55453        4.82910      -26.07797
1816.50000        1.52416        4.58088      -24.05978
1817.00000        1.49462        4.58306      -23.04528
1817.50000        1.49681        4.58525      -22.03078
1818.00000        1.49899        4.58743      -22.01998
1818.50000        1.50118        4.58962      -22.00917
1819.00000        1.58016        4.59180      -21.66380
1819.50000        1.71089        4.59399      -20.98171
1820.00000        1.84162        4.51270      -20.63634
1820.50000        1.97235        4.43142      -19.95641
1821.00000        2.10308        4.43360      -19.61104
1821.50000        2.18707        4.35231      -19.60024
1822.00000        2.20178        4.35450      -19.58943
1822.50000        2.21648        4.35669      -20.42843
1823.00000        2.23202        4.35931      -21.05999
1823.50000        2.24673        4.44496      -21.39714
1824.00000        2.26438        4.53062      -20.54992
1824.50000        2.27908        4.61628      -21.58296
1825.00000        2.39395        4.52831      -22.87027
1825.50000        2.58478        4.49544      -24.19773
1826.00000        2.77561        4.46257      -23.51780
1826.50000        2.96644        4.43721      -22.50330
1827.00000        3.15727        4.41352      -22.15793
1827.50000        3.34810        4.29550      -23.81995
1828.00000        3.46298        4.41705      -24.47828
1828.50000        3.46516        4.53860      -22.79465
1829.00000        3.46735        4.65014      -21.11102
1829.50000        3.46953        4.72160      -20.76349
1830.00000        3.36821        4.79307      -19.07986
1830.50000        3.34619        4.92046      -16.05797
1831.00000        3.32417        5.09003      -14.03978
1831.50000        3.34472        5.14814      -14.02897
1832.00000        3.44751        5.56768      -15.69100
1832.50000        3.53316        6.07069      -19.69498
1833.00000        3.61882        6.57370      -26.04092
1833.50000        3.57092        6.74283      -31.04860
1834.00000        3.43371        6.57807      -35.05258
