~Version ---------------------------------------------------
VERS. 2.0 : CWLS LOG ASCII STANDARD - VERSION 2.0
WRAP. NO  : One line per depth step
DLM . SPACE : Column Data Section Delimiter
~Well ------------------------------------------------------
STRT.F          100 : START DEPTH
STOP.F       1786.5 : STOP DEPTH
STEP.F          0.5 : STEP
NULL.       -999.25 : NULL VALUE
COMP.                 WALSH & WATTS, INC. : COMPANY
WELL.                         SALMON E 41 : WELL
FLD .                        NORTH NOCONA : FIELD
CNTY.                            MONTAGUE : COUNTY
STAT.                               TEXAS : STATE
CTRY.                                 USA : COUNTRY
SEC .                                     : SECTION
TWP .                                     : TOWNSHIP
RGE .                                     : RANGE
LOC . 300' N OF NO. 40
150' W OF EL & 385' E OF NO. 87
F. ROBERTSON SURVEY : LOCATION
EKB .F                          : ELEVATION KELLY BUSHING
EDF .F                          : ELEVATION DERRICK FLOOR
EGL .F                      878 : ELEVATION GROUND LEVEL
PDAT.              GROUND LEVEL : PERMANENT DATUM
EPD .                       878 : ELEVATION PERMANENT DATUM
APD .                           : ABOVE PERMANENT DATUM
LMF .                        KB : LOG MEASURED FROM
DMF .                        KB : DRILLING MEASURED FROM
API .            42337037790000 : API NUMBER
UWI .            42337037790000 : UWI NUMBER
DIGC.                     NthDS : DIGITIZING COMPANY
~Params ----------------------------------------------------
SRVC.                LANE WELLS : LOGGING COMPANY
LOG .                       IEL : LOG
DATE.                1965-12-01 : RUN DATE
RUN .                         1 : RUN NUMBER
TDD .F                     1790 : TOTAL DEPTH DRILLER
TDL .F                     1791 : TOTAL DEPTH LOGGER
BOTL.F                     1787 : BOTTOM LOGGED INTERVAL
TOPL.F                      100 : TOP LOGGED INTERVAL
CSGS.IN                         : CASING SIZE
CSGD.F                          : CASING DRILLER
CSGL.F                          : CASING LOGGER
BS  .IN                       9 : BIT SIZE
MUD .                       GEL : MUD TYPE
MUDD.                        10 : MUD DENSITY
MUDV.                        80 : MUD VISCOSITY
PH  .                       9.0 : MUD PH
FL  .                       6.8 : FLUID LOSS
MUDS.                       PIT : SOURCE OF SAMPLE
RM  .OHMM                  1.95 : MUD RESISTIVITY
RMT .DEGF                    74 : RM TEMPERATURE
RMF .OHMM                   1.5 : MUD FILTRATE RESISTIVITY
RMFT.DEGF                    74 : RMF TEMPERATURE
RMC .OHMM                   2.3 : MUD CAKE RESISTIVITY
RMCT.DEGF                    74 : RMC TEMPERATURE
RMFS.                  MEASURED : RMF SOURCE
RMCS.                           : RMC SOURCE
RMBH.OHMM                   1.5 : MUD RESISTIVITY AT BHT
BHT .DEGF                    97 : BOTTOM HOLE TEMPERATURE
TIMC.                           : TIME CIRCULATION STOPPED
TIML.                           : TIME LOGGER ON BOTTOM
TMAX.DEGF                    97 : MAXIMUM RECORDED TEMPERATURE
UNIT.                    L-5172 : EQUIPMENT NUMBER
BASE.                      W.F. : BASE LOCATION
ENG .             ADAMS & BAKER : RECORDED BY
WIT .                   MR. NIX : WITNESSED BY
~Curve Information -----------------------------------------
DEPT.F          :DEPTH
CILD.MMHO       :
ILD.OHMM        :
ROP.FT/HR       :
SN.OHMM         :
SP.MV           :
~ASCII ------------------------------------------------------
# ...
1002.50000      506.80945        1.99456        -999.25        2.79137      -46.95537
1003.00000      504.78790        1.95520        -999.25        2.67233      -47.24536
1003.50000      498.78236        2.03537        -999.25        2.63298      -45.73898
1004.00000      488.78691        2.03586        -999.25        2.63346      -43.93320
1004.50000      483.77737        2.03634        -999.25        2.67379      -42.72622
1005.00000      483.74782        1.99699        -999.25        2.79380      -42.11802
1005.50000      495.67025        1.99748        -999.25        2.91381      -43.00492
1006.00000      506.59667        1.87844        -999.25        3.11360      -44.49249
1006.50000      518.51910        1.83919        -999.25        3.19376      -46.57885
1007.00000      529.44553        1.79983        -999.25        3.19425      -49.26400
1007.50000      540.37196        1.80032        -999.25        2.95569      -50.75157
1008.00000      548.31039        1.76096        -999.25        2.79682      -50.14337
1008.50000      552.26483        1.76145        -999.25        2.71762      -48.63699
1009.00000      549.24138        1.80178        -999.25        2.67827      -46.83122
1009.50000      542.23984        1.84211        -999.25        2.63892      -46.52241
1010.00000      531.25430        1.84259        -999.25        2.67924      -46.51301
1010.50000      523.25676        1.84308        -999.25        2.60005      -45.90481
1011.00000      520.23922        1.84357        -999.25        2.49257      -44.99722
1011.50000      519.21367        1.84684        -999.25        2.32214      -44.38902
1012.00000      519.18411        1.86167        -999.25        2.27840      -44.08022
1012.50000      519.14865        1.87650        -999.25        2.23028      -43.47203
1013.00000      518.12310        1.89093        -999.25        2.16424      -40.76618
1013.50000      518.09355        1.90865        -999.25        2.08514      -38.36162
1014.00000      518.06400        1.92348        -999.25        2.12188      -36.85523
1014.50000      516.04245        1.93831        -999.25        2.15862      -34.75006
1015.00000      509.04091        1.95274        -999.25        2.19537      -32.64489
1015.50000      495.06147        1.96757        -999.25        2.23211      -30.53972
1016.00000      478.09995        2.02064        -999.25        2.28279      -28.73394
1016.50000      467.11441        2.07332        -999.25        2.34304      -29.02393
1017.00000      461.10887        2.12640        -999.25        2.40329      -30.21210
1017.50000      461.07932        2.16194        -999.25        2.46354      -32.29846
1018.00000      464.03776        2.12936        -999.25        2.45366      -33.78603
1018.50000      468.98820        2.09678        -999.25        2.39598      -35.27360
1019.00000      473.93273        2.06380        -999.25        2.33392      -34.96292
1019.50000      480.87517        2.03122        -999.25        2.27146      -34.35473
1020.00000      487.81760        1.99864        -999.25        2.20900      -34.64471
1020.50000      489.78005        1.98439        -999.25        2.17173      -34.93470
1021.00000      483.77450        2.05668        -999.25        2.17222      -33.72772
1021.50000      473.78497        2.11693        -999.25        2.30059      -32.82013
1022.00000      457.81944        2.17718        -999.25        2.42937      -33.70891
1022.50000      441.84801        2.24659        -999.25        2.54021      -34.59769
1023.00000      431.85847        2.33034        -999.25        2.58054      -34.28888
1023.50000      420.87294        2.41370        -999.25        2.62087      -33.98008
1024.00000      413.87140        2.40502        -999.25        2.65004      -34.56947
1024.50000      411.84985        2.39595        -999.25        2.63379      -35.15885
1025.00000      411.82030        2.38727        -999.25        2.61755      -35.14945
1025.50000      415.76883        2.37859        -999.25        2.60170      -34.54125
1026.00000      420.71927        2.36992        -999.25        2.58545      -33.03299
1026.50000      423.67771        2.36084        -999.25        2.56921      -32.42479
1027.00000      425.64016        2.35216        -999.25        2.55336      -31.81659
1027.50000      424.61461        2.34349        -999.25        2.54438      -31.20840
1028.00000      422.59306        2.31180        -999.25        2.58112      -31.79778
1028.50000      421.56751        2.26806        -999.25        2.61786      -32.68656
1029.00000      423.52995        2.25979        -999.25        2.57732      -32.97655
1029.50000      428.47448        2.26027        -999.25        2.53637      -32.06896
1030.00000      435.41692        2.25120        -999.25        2.49582      -30.56258
1030.50000      439.37136        2.23575        -999.25        2.45487      -30.25378
1031.00000      441.33380        2.22030        -999.25        2.41432      -31.74135
1031.50000      442.30025        2.20485        -999.25        2.38971      -33.22892
1032.00000      441.27470        2.18940        -999.25        2.43004      -36.21346
1032.50000      441.24514        2.19108        -999.25        2.47036      -39.49740
1033.00000      441.21559        2.20392        -999.25        2.51069      -41.58377
1033.50000      439.18813        2.21676        -999.25        2.54664      -42.77194
1034.00000      434.17859        2.23716        -999.25        2.56545      -43.66072
1034.50000      428.17305        2.26833        -999.25        2.58386      -42.45185
1035.00000      422.16751        2.30557        -999.25        2.60636      -41.54426
1035.50000      416.16196        2.33673        -999.25        2.62478      -41.53485
1036.00000      412.14842        2.36789        -999.25        2.63801      -41.82484
1036.50000      412.11887        2.38312        -999.25        2.65165      -43.01302
1037.00000      412.08340        2.37444        -999.25        2.66488      -44.20119
1037.50000      411.05785        2.36577        -999.25        2.67812      -43.89239
1038.00000      410.03230        2.35749        -999.25        2.69135      -43.28420
1038.50000      410.99875        2.34881        -999.25        2.70499      -42.67600
1039.00000      416.94519        2.33496        -999.25        2.65886      -41.76841
1039.50000      424.88362        2.32150        -999.25        2.59799      -42.05840
1040.00000      431.82606        2.30764        -999.25        2.55107      -43.24657
1040.50000      437.77249        2.29379        -999.25        2.55873      -43.83596
1041.00000      437.73703        2.27993        -999.25        2.56678      -43.52716
1041.50000      435.71548        2.26647        -999.25        2.57444      -43.21647
1042.00000      433.69393        2.24993        -999.25        2.58379      -42.90767
1042.50000      431.67238        2.23607        -999.25        2.59185      -42.59887
1043.00000      429.65084        2.22580        -999.25        2.52580      -45.17624
1043.50000      428.62528        2.21593        -999.25        2.47688      -47.75062
1044.00000      427.59973        2.20646        -999.25        2.49570      -46.06460
1044.50000      429.56218        2.19658        -999.25        2.51411      -43.30974
1045.00000      438.49070        2.18711        -999.25        2.45763      -42.07281
1045.50000      447.42513        2.17764        -999.25        2.40114      -43.11129
1046.00000      454.36757        2.16777        -999.25        2.36139      -43.73061
1046.50000      457.32601        2.15829        -999.25        2.38658      -44.32000
1047.00000      461.28045        2.14842        -999.25        2.41216      -45.20878
1047.50000      466.23089        2.13895        -999.25        2.43735      -46.99574
1048.00000      469.18933        2.12908        -999.25        2.46294      -49.38150
1048.50000      473.14377        2.11960        -999.25        2.47817      -51.46786
1049.00000      475.10622        2.09977        -999.25        2.45445      -53.55422
