~Version ---------------------------------------------------
VERS. 2.0 : CWLS LOG ASCII STANDARD - VERSION 2.0
WRAP. NO  : One line per depth step
DLM . SPACE : Column Data Section Delimiter
~Well ------------------------------------------------------
STRT.F          100 : START DEPTH
STOP.F       1218.0 : STOP DEPTH
STEP.F          0.5 : STEP
NULL.       -999.25 : NULL VALUE
COMP.                       WALSH & WATTS : COMPANY
WELL.                          SALMON A 6 : WELL
FLD .                          OLD NOCONA : FIELD
CNTY.                            MONTAGUE : COUNTY
STAT.                               TEXAS : STATE
CTRY.                                 USA : COUNTRY
SEC .                                     : SECTION
TWP .                                     : TOWNSHIP
RGE .                                     : RANGE
LOC .                                     : LOCATION
EKB .F                          : ELEVATION KELLY BUSHING
EDF .F                      884 : ELEVATION DERRICK FLOOR
EGL .F                      878 : ELEVATION GROUND LEVEL
PDAT.                           : PERMANENT DATUM
EPD .                           : ELEVATION PERMANENT DATUM
APD .                       5.5 : ABOVE PERMANENT DATUM
LMF .                       KDB : LOG MEASURED FROM
DMF .                       KDB : DRILLING MEASURED FROM
API .            42337039770000 : API NUMBER
UWI .                           : UWI NUMBER
DIGC.                     NthDS : DIGITIZING COMPANY
~Params ----------------------------------------------------
SRVC.     THE ELGEN CORPORATION : LOGGING COMPANY
LOG .                        EL : LOG
DATE.                1954-12-19 : RUN DATE
RUN .                         1 : RUN NUMBER
TDD .F                     1217 : TOTAL DEPTH DRILLER
TDL .F                     1219 : TOTAL DEPTH LOGGER
BOTL.F                     1218 : BOTTOM LOGGED INTERVAL
TOPL.F                      100 : TOP LOGGED INTERVAL
CSGS.IN                         : CASING SIZE
CSGD.F                          : CASING DRILLER
CSGL.F                          : CASING LOGGER
BS  .IN                    8.75 : BIT SIZE
MUD .                       GEL : MUD TYPE
MUDD.                        10 : MUD DENSITY
MUDV.                        60 : MUD VISCOSITY
PH  .                           : MUD PH
FL  .                           : FLUID LOSS
MUDS.                           : SOURCE OF SAMPLE
RM  .OHMM                   2.4 : MUD RESISTIVITY
RMT .DEGF                    58 : RM TEMPERATURE
RMF .OHMM                       : MUD FILTRATE RESISTIVITY
RMFT.DEGF                       : RMF TEMPERATURE
RMC .OHMM                       : MUD CAKE RESISTIVITY
RMCT.DEGF                       : RMC TEMPERATURE
RMFS.                           : RMF SOURCE
RMCS.                           : RMC SOURCE
RMBH.OHMM                       : MUD RESISTIVITY AT BHT
BHT .DEGF                       : BOTTOM HOLE TEMPERATURE
TIMC.                           : TIME CIRCULATION STOPPED
TIML.                           : TIME LOGGER ON BOTTOM
TMAX.DEGF                       : MAXIMUM RECORDED TEMPERATURE
UNIT.                           : EQUIPMENT NUMBER
BASE.                           : BASE LOCATION
ENG .                 STONE-302 : RECORDED BY
WIT .                      TODD : WITNESSED BY
~Curve Information -----------------------------------------
DEPT.F          :DEPTH
LAT.OHMM        :
LN.OHMM         :
SN.OHMM         :
SP.MV           :
~ASCII ------------------------------------------------------
# ...
272.50000        8.32697       10.87413       13.80147      -70.23176
273.00000        8.36681       11.12489       14.30516      -71.30128
273.50000        8.40664       11.37565       14.44988      -72.72730
274.00000        8.45541       11.54390       14.59954      -73.44031
274.50000        8.50774       11.71280       14.74116      -74.15333
275.00000        8.56008       11.96356       14.88367      -74.86634
275.50000        8.62181       12.04930       15.07530      -75.22284
276.00000        8.67415       12.13505       15.58834      -75.57935
276.50000        8.92559       12.22079       16.53352      -75.93586
277.00000        9.31096       12.38905       17.73410      -76.64887
277.50000        9.69543       12.55730       18.39888      -77.36188
278.00000       10.14509       12.72555       19.50656      -78.07489
278.50000       10.60992       13.22382       20.21068      -78.78791
279.00000       11.07564       13.47458       20.36569      -79.50092
279.50000       11.54047       13.72534       20.15375      -79.50092
280.00000       12.00620       13.89359       19.94269      -79.14441
280.50000       12.33978       13.81432       19.73164      -79.14441
281.00000       12.47604       13.48819       19.52059      -78.43140
281.50000       12.61231       13.32642       19.63453      -77.71839
282.00000       12.74857       13.16464       19.74848      -77.71839
282.50000       12.96162       12.83786       19.86242      -77.36188
283.00000       13.29074       12.67609       19.97636      -77.00537
283.50000       13.61897       12.59683       19.97156      -75.93586
284.00000       13.94719       12.43505       19.48997      -75.57935
284.50000       14.27631       12.10827       19.00839      -75.22284
285.00000       14.53132       11.78149       18.04735      -74.50983
285.50000       14.49438       11.37220       16.96488      -73.79682
286.00000       14.45743       11.04542       15.88330      -73.08381
286.50000       14.42048       10.71863       14.80172      -72.37079
287.00000       14.38353       10.39185       14.12104      -71.30128
287.50000       14.34658       10.06507       13.70909      -70.58826
288.00000       14.30874        9.90330       13.29715      -69.87525
288.50000       14.35394        9.57652       12.88521      -69.87525
289.00000       14.52056        9.49725       12.47237      -69.51875
289.50000       14.68718        9.41798       12.06043      -69.16224
290.00000       14.85380        9.33872       11.64849      -68.80573
290.50000       14.67043        9.25945       11.23565      -68.09272
291.00000       14.25223        9.09768       10.87103      -67.37971
291.50000       13.83404        9.01842       10.69748      -66.31019
292.00000       13.41674        8.93915       10.52303      -65.59718
292.50000       12.99855        8.85988       10.34859      -64.88417
293.00000       12.58125        8.69811       10.17503      -64.88417
293.50000       12.16306        8.53699       10.00059      -64.52766
294.00000       12.07522        8.37522        9.82614      -64.52766
294.50000       12.07041        8.13094        9.65259      -64.52766
295.00000       12.06471        7.96917        9.47814      -64.52766
295.50000       12.05991        7.88990        9.31441      -64.17115
296.00000       12.05421        7.72813        9.15693      -64.17115
296.50000       12.04941        7.56636        9.00034      -63.81465
297.00000       12.04371        7.48710        8.84286      -63.81465
297.50000       12.03890        7.40783        8.68627      -63.45814
298.00000       12.03320        7.41107        8.52879      -64.17115
298.50000       12.02840        7.49682        8.37131      -64.52766
299.00000       12.02270        7.58256        8.21472      -64.88417
299.50000       12.01790        7.66831        8.07152      -64.52766
300.00000       11.25299        7.50844        7.74768      -63.81465
300.50000       10.72230        7.59203        7.65895      -62.74513
301.00000       10.19071        7.67562        7.57022      -62.38862
301.50000        9.66002        7.84171        7.48059      -62.38862
302.00000        9.12933        7.84279        7.39186      -62.74513
302.50000        8.59864        7.84387        7.30312      -62.74513
303.00000        8.06706        7.76244        7.21439      -63.10163
303.50000        7.87386        7.76352        7.12477      -63.10163
304.00000        7.74274        7.68210        7.17621      -63.81465
304.50000        7.82365        7.60067        7.48883      -64.52766
305.00000        8.03045        7.35422        7.75010      -65.59718
305.50000        8.23725        7.27280        8.01046      -66.31019
306.00000        8.44405        7.10886        8.31994      -66.66670
306.50000        8.65085        6.94492        8.64102      -66.66670
307.00000        9.12103        6.86350        8.96211      -66.66670
307.50000        9.65640        6.78207        9.28319      -66.66670
308.00000       10.19176        6.78315        9.60427      -67.02320
308.50000       10.72713        6.94924        9.92536      -67.37971
309.00000       11.26339        6.95032       10.24733      -67.73621
309.50000       11.90547        7.11642       10.05324      -68.09272
310.00000       12.44173        7.28252        9.73059      -68.09272
310.50000       12.06372        7.44861        9.34411      -67.02320
311.00000       11.45713        7.61471        9.02145      -66.31019
311.50000       10.98448        7.78080        8.69969      -65.24067
312.00000       10.60200        7.78188        8.37703      -64.17115
312.50000       10.21952        7.78296        8.18473      -63.81465
313.00000        9.83704        7.70154        8.18706      -63.45814
313.50000        9.45456        7.62011        8.18940      -63.10163
314.00000        9.07208        7.37366        8.19174      -63.45814
314.50000        9.22531        7.04471        8.27086      -63.45814
315.00000        9.51157        6.79827        8.65534      -63.81465
315.50000        9.79784        6.71684        9.04070      -64.52766
316.00000       10.08410        6.63541        9.42518      -65.24067
316.50000       10.47393        6.63649        9.81055      -65.59718
317.00000       11.12940        6.55507       10.19591      -65.95368
317.50000       11.67548        6.47364       10.22818      -66.31019
318.00000       12.22067        6.47472       10.07517      -66.31019
318.50000       12.76675        6.47580        9.92304      -65.95368
319.00000       12.36017        6.72440        9.77092      -65.59718
319.50000       11.95269        6.89050        9.61879      -65.24067
320.00000       11.38450        7.05659        9.44702      -65.24067
320.50000       10.70917        7.05767        9.26276      -65.95368
321.00000       10.03383        7.05875        9.07760      -66.31019
321.50000        9.35850        7.05983        8.89244      -66.31019
322.00000        8.68228        7.06091        8.70728      -66.31019
322.50000        8.09177        7.12717        8.52301      -65.95368
323.00000        7.84232        7.04162        8.36374      -65.59718
323.50000        7.59198        6.95524        8.24287      -65.24067
324.00000        7.34254        6.86969        8.12199      -65.24067
324.50000        7.09220        6.78909        8.00112      -65.24067
325.00000        7.00704        6.71508        7.88024      -65.24067
325.50000        7.03170        6.57343        7.73573      -65.95368
326.00000        7.06129        6.57451        7.61307      -65.95368
326.50000        7.08595        6.57559        7.49041      -65.59718
327.00000        6.99989        6.49416        7.36775      -64.88417
327.50000        6.88705        6.49524        7.24509      -64.17115
328.00000        6.77332        6.49632        7.12242      -63.81465
328.50000        6.65959        6.57991        7.01048      -63.45814
329.00000        6.54675        6.58099        6.90121      -63.10163
329.50000        6.43302        6.58207        6.79194      -62.74513
