~Version ---------------------------------------------------
VERS. 2.0 : CWLS LOG ASCII STANDARD - VERSION 2.0
WRAP. NO  : One line per depth step
DLM . SPACE : Column Data Section Delimiter
~Well ------------------------------------------------------
STRT.F          780 : START DEPTH
STOP.F       1761.5 : STOP DEPTH
STEP.F          0.5 : STEP
NULL.       -999.25 : NULL VALUE
COMP.                 WALSH & WATTS, INC. : COMPANY
WELL.                         SALMON E 42 : WELL
FLD .                        NORTH NOCONA : FIELD
CNTY.                            MONTAGUE : COUNTY
STAT.                               TEXAS : STATE
CTRY.                                 USA : COUNTRY
SEC .                                     : SECTION
TWP .                                     : TOWNSHIP
RGE .                                     : RANGE
LOC . 150' FSL & 300' W OF WELL NO. 1, 407' E OF WELL NO. 5, F. ROBERTSON SURVEY : LOCATION
EKB .F                      880 : ELEVATION KELLY BUSHING
EDF .F                          : ELEVATION DERRICK FLOOR
EGL .F                      874 : ELEVATION GROUND LEVEL
PDAT.              GROUND LEVEL : PERMANENT DATUM
EPD .                       874 : ELEVATION PERMANENT DATUM
APD .                         6 : ABOVE PERMANENT DATUM
LMF .                        KB : LOG MEASURED FROM
DMF .                        KB : DRILLING MEASURED FROM
API .            42337037780000 : API NUMBER
UWI .            42337037780000 : UWI NUMBER
DIGC.                     NthDS : DIGITIZING COMPANY
~Params ----------------------------------------------------
SRVC.                LANE WELLS : LOGGING COMPANY
LOG .                        AC : LOG
DATE.                1965-11-21 : RUN DATE
RUN .                         1 : RUN NUMBER
TDD .F                     1766 : TOTAL DEPTH DRILLER
TDL .F                     1768 : TOTAL DEPTH LOGGER
BOTL.F                     1762 : BOTTOM LOGGED INTERVAL
TOPL.F                      790 : TOP LOGGED INTERVAL
CSGS.IN                         : CASING SIZE
CSGD.F                          : CASING DRILLER
CSGL.F                          : CASING LOGGER
BS  .IN                   7.875 : BIT SIZE
MUD .              CHEMICAL GEL : MUD TYPE
MUDD.                       9.8 : MUD DENSITY
MUDV.                       123 : MUD VISCOSITY
PH  .                           : MUD PH
FL  .                           : FLUID LOSS
MUDS.                CIRCULATED : SOURCE OF SAMPLE
RM  .OHMM                   2.1 : MUD RESISTIVITY
RMT .DEGF                    70 : RM TEMPERATURE
RMF .OHMM                  1.81 : MUD FILTRATE RESISTIVITY
RMFT.DEGF                    70 : RMF TEMPERATURE
RMC .OHMM                  2.34 : MUD CAKE RESISTIVITY
RMCT.DEGF                    70 : RMC TEMPERATURE
RMFS.                  MEASURED : RMF SOURCE
RMCS.                           : RMC SOURCE
RMBH.OHMM                   1.5 : MUD RESISTIVITY AT BHT
BHT .DEGF                    98 : BOTTOM HOLE TEMPERATURE
TIMC.                           : TIME CIRCULATION STOPPED
TIML.                           : TIME LOGGER ON BOTTOM
TMAX.DEGF                    98 : MAXIMUM RECORDED TEMPERATURE
UNIT.                    L-4553 : EQUIPMENT NUMBER
BASE.                      W.F. : BASE LOCATION
ENG .                     ADAMS : RECORDED BY
WIT .   MR. HARRELSON & MR. NIX : WITNESSED BY
~Curve Information -----------------------------------------
DEPT.F          :DEPTH
CALI.IN         :
DT.US/F         :
SP.MV           :
~ASCII ------------------------------------------------------
# ...
1571.00000        7.99465       97.11443      -42.17824
1571.50000        8.06653       98.00996      -41.28716
1572.00000        8.12871       98.75622      -40.99013
1572.50000        8.07921       99.50249      -42.17824
1573.00000        8.02970       99.99005      -43.06933
1573.50000        8.03564       99.44279      -43.06933
1574.00000        8.12475       98.51543      -42.17824
1574.50000        8.16376       96.06966      -40.99013
1575.00000        8.12733       93.62389      -40.69310
1575.50000        8.08376       93.71145      -40.99013
1576.00000        8.04752       95.78807      -41.58418
1576.50000        8.01129       98.44080      -42.47527
1577.00000        7.97485      100.36120      -42.77230
1577.50000        7.96040      101.79105      -43.06933
1578.00000        7.96040      100.11941      -42.77230
1578.50000        7.96040       97.33334      -41.88121
1579.00000        7.96040       96.21891      -40.99013
1579.50000        7.96040       96.75324      -40.39607
1580.00000        7.90871       97.64379      -40.39607
1580.50000        7.85703       98.53334      -40.69310
1581.00000        7.80535       99.42389      -40.39607
1581.50000        7.74337       98.49652      -40.09904
1582.00000        7.72277       97.11443      -40.39607
1582.50000        7.72277       97.84379      -40.09904
1583.00000        7.72277       98.24478      -40.39607
1583.50000        7.72277       98.33533      -40.39607
1584.00000        7.75584       98.25075      -39.50498
1584.50000        7.79545       97.46269      -37.72280
1585.00000        7.82832       96.67463      -36.53468
1585.50000        7.78218       97.79105      -35.64359
1586.00000        7.68317       99.70150      -35.94062
1586.50000        7.73069       97.91045      -36.53468
1587.00000        7.87584       96.11941      -37.12874
1587.50000        8.02119       97.55025      -36.83171
1588.00000        8.08139       97.98508      -37.12874
1588.50000        8.08396       96.92737      -37.12874
1589.00000        8.08653       97.15423      -36.83171
1589.50000        8.08911       98.76617      -36.53468
1590.00000        8.09168       99.15423      -35.94062
1590.50000        8.09426       98.90548      -35.94062
1591.00000        8.09743       98.96518      -36.23765
1591.50000        8.10257       99.23085      -36.53468
1592.00000        8.11168       99.49553      -36.53468
1592.50000        8.12059       99.15423      -36.23765
1593.00000        8.12970       98.25871      -35.94062
1593.50000        8.13861       97.51244      -35.64359
1594.00000        8.14950       96.76617      -35.94062
1594.50000        8.15842       96.01991      -35.94062
1595.00000        8.10891       95.27364      -35.64359
1595.50000        8.05941       95.87065      -35.34656
1596.00000        8.00990       96.38906      -34.75250
1596.50000        7.98158       95.02488      -35.04953
1597.00000        7.98574       96.30448      -35.64359
1597.50000        7.98911       97.58309      -36.23765
1598.00000        7.99247       98.34826      -37.12874
1598.50000        7.99584       97.46767      -37.72280
1599.00000        7.99941       98.23583      -37.72280
1599.50000        8.00277       99.00498      -37.12874
1600.00000        8.00614       98.25871      -35.04953
1600.50000        8.01030       97.62090      -35.04953
1601.00000        8.01366       98.16418      -35.94062
1601.50000        8.01703       98.70647      -37.12874
1602.00000        7.99465       98.20896      -38.31686
1602.50000        7.86851       97.71145      -38.91092
1603.00000        7.74257       98.10946      -38.91092
1603.50000        7.85564       98.50747      -37.72280
1604.00000        7.93267       98.98508      -36.53468
1604.50000        7.97228       99.30050      -36.53468
1605.00000        7.97663       99.28458      -37.12874
1605.50000        7.97188       99.26966      -38.31686
1606.00000        7.96733       99.25374      -38.01983
1606.50000        7.96277       99.23782      -37.42577
1607.00000        7.95822       99.22289      -37.12874
1607.50000        7.95287       99.20399      -37.72280
1608.00000        7.94812       97.62588      -38.61389
1608.50000        7.94356       95.92040      -40.09904
1609.00000        7.93901       92.76916      -43.66339
1609.50000        7.93445       89.85075      -50.79210
1610.00000        7.92990       83.83085      -52.57428
1610.50000        7.92535       88.95523      -53.46537
1611.00000        7.91782       94.72637      -54.65349
1611.50000        7.90337       95.85672      -54.65349
1612.00000        7.88871       96.98806      -54.65349
1612.50000        7.87426       95.97015      -55.24755
1613.00000        7.85960       94.92538      -55.24755
1613.50000        7.84515       95.92040      -54.35646
1614.00000        7.83049       94.85274      -52.27725
1614.50000        7.83663       92.95324      -49.00993
1615.00000        7.86139       92.10647      -46.93072
1615.50000        7.88614       92.92339      -43.66339
1616.00000        7.91089       94.72637      -42.47527
1616.50000        7.93564       97.07165      -41.58418
1617.00000        7.96040       98.00996      -40.99013
1617.50000        7.98515       98.00996      -39.20795
1618.00000        8.01485       97.20598      -35.94062
1618.50000        8.03960       96.40299      -33.26736
1619.00000        8.02851       96.49951      -33.26736
1619.50000        8.01762       97.94627      -33.86141
1620.00000        8.00653       98.70647      -35.34656
1620.50000        7.99564       96.71642      -37.42577
1621.00000        7.98455       94.72637      -38.91092
1621.50000        7.97148       92.63682      -40.09904
1622.00000        7.96040       92.95224      -40.69310
1622.50000        7.96396       94.30647      -40.99013
1623.00000        7.96752       95.66070      -42.77230
1623.50000        7.97109       97.01493      -45.14854
1624.00000        7.97445       95.16717      -45.74260
1624.50000        7.97802       94.70747      -46.63369
1625.00000        7.94455       95.17413      -48.71290
1625.50000        7.83762       95.73334      -51.68319
1626.00000        7.86139       97.19603      -56.13864
1626.50000        7.96040       99.32140      -61.88022
1627.00000        7.83505      100.19901      -68.42972
1627.50000        7.78733       99.20399      -70.69309
1628.00000        7.82911       97.52637      -71.88121
1628.50000        7.87069       94.82588      -70.09903
1629.00000        7.92079       92.82190      -66.53467
1629.50000        7.89109       95.23782      -63.26735
1630.00000        7.86139      100.09951      -67.08715
1630.50000        7.83168       99.57314      -71.28715
1631.00000        7.80198       97.14727      -73.36636
1631.50000        7.83327       93.83085      -72.89111
1632.00000        7.86455       89.29752      -69.35646
1632.50000        7.90198       82.02289      -65.34656
1633.00000        7.92198       71.99006      -64.75250
1633.50000        7.92475       62.45474      -67.42576
1634.00000        7.92752       60.49752      -69.80200
1634.50000        7.93049       62.48757      -72.47527
1635.00000        7.93327       64.47762      -73.96041
1635.50000        7.93604       65.63882      -74.55447
1636.00000        7.93941       66.61692      -74.25744
1636.50000        7.90495       66.16916      -73.66338
1637.00000        7.84554       61.69155      -73.06933
1637.50000        7.78614       59.40299      -72.47527
1638.00000        7.79703       61.53533      -71.58418
1638.50000        7.85485       63.10449      -71.28715
1639.00000        7.90099       62.81493      -70.99012
1639.50000        7.90099       61.27961      -71.58418
1640.00000        7.90099       60.00001      -72.17824
1640.50000        7.90099       57.34628      -72.17824
1641.00000        7.90099       54.69354      -72.77230
1641.50000        7.90099       52.03981      -72.17824
1642.00000        7.90099       53.97414      -71.28715
