~Version ---------------------------------------------------
VERS. 2.0 : CWLS LOG ASCII STANDARD - VERSION 2.0
WRAP. NO  : One line per depth step
DLM . SPACE : Column Data Section Delimiter
~Well ------------------------------------------------------
STRT.F        986.5 : START DEPTH
STOP.F       1761.0 : STOP DEPTH
STEP.F          0.5 : STEP
NULL.       -999.25 : NULL VALUE
COMP.                 WALSH & WATTS, INC. : COMPANY
WELL.                       SALMON D E 6D : WELL
FLD .                             REGULAR : FIELD
CNTY.                            MONTAGUE : COUNTY
STAT.                               TEXAS : STATE
CTRY.                                 USA : COUNTRY
SEC .                                     : SECTION
TWP .                                     : TOWNSHIP
RGE .                                     : RANGE
LOC .  460 FSL 755 FEL
F. ROBERTSON A-620 : LOCATION
EKB .F                      880 : ELEVATION KELLY BUSHING
EDF .F                      878 : ELEVATION DERRICK FLOOR
EGL .F                      874 : ELEVATION GROUND LEVEL
PDAT.                        GL : PERMANENT DATUM
EPD .                       874 : ELEVATION PERMANENT DATUM
APD .                           : ABOVE PERMANENT DATUM
LMF .                        KB : LOG MEASURED FROM
DMF .                        KB : DRILLING MEASURED FROM
API .            42337016430000 : API NUMBER
UWI .            42337016430000 : UWI NUMBER
DIGC.                     NthDS : DIGITIZING COMPANY
~Params ----------------------------------------------------
SRVC.              SCHLUMBERGER : LOGGING COMPANY
LOG .                      DIFL : LOG
DATE.                2005-08-03 : RUN DATE
RUN .                         1 : RUN NUMBER
TDD .F                     1750 : TOTAL DEPTH DRILLER
TDL .F                     1750 : TOTAL DEPTH LOGGER
BOTL.F                     1750 : BOTTOM LOGGED INTERVAL
TOPL.F                      980 : TOP LOGGED INTERVAL
CSGS.IN                       7 : CASING SIZE
CSGD.F                      980 : CASING DRILLER
CSGL.F                      980 : CASING LOGGER
BS  .IN                     6.5 : BIT SIZE
MUD .                       FGM : MUD TYPE
MUDD.                       0.2 : MUD DENSITY
MUDV.                        80 : MUD VISCOSITY
PH  .                        11 : MUD PH
FL  .                         7 : FLUID LOSS
MUDS.                       PIT : SOURCE OF SAMPLE
RM  .OHMM                  1.70 : MUD RESISTIVITY
RMT .DEGF                    70 : RM TEMPERATURE
RMF .OHMM                  1.33 : MUD FILTRATE RESISTIVITY
RMFT.DEGF                    70 : RMF TEMPERATURE
RMC .OHMM                  2.67 : MUD CAKE RESISTIVITY
RMCT.DEGF                    70 : RMC TEMPERATURE
RMFS.                      MEAS : RMF SOURCE
RMCS.                       CAL : RMC SOURCE
RMBH.OHMM                  1.41 : MUD RESISTIVITY AT BHT
BHT .DEGF                    98 : BOTTOM HOLE TEMPERATURE
TIMC.                     2100  : TIME CIRCULATION STOPPED
TIML.                     0300  : TIME LOGGER ON BOTTOM
TMAX.DEGF                    98 : MAXIMUM RECORDED TEMPERATURE
UNIT.                       303 : EQUIPMENT NUMBER
BASE.                  WITCHATA : BASE LOCATION
ENG .              DAVID PARKER : RECORDED BY
WIT .              MR. BURLESON : WITNESSED BY
~Curve Information -----------------------------------------
DEPT.F          :DEPTH
GRR.API         :
ILD.OHMM        :
ILM.OHMM        :
SFL.OHMM        :
SP.MV           :
~ASCII ------------------------------------------------------
986.50000       44.33197        -999.25        -999.25        -999.25     -163.56276
987.00000       46.98885        -999.25        -999.25        7.85814     -163.43726
987.50000       51.82286        -999.25        -999.25     2010.90906     -163.28341
988.00000       55.38460        -999.25        -999.25     2519.19498     -163.46155
988.50000       51.92306      292.05902        -999.25     1959.85531     -164.97977
989.00000       45.64675        0.93206        -999.25        6.46853     -166.80163
989.50000       39.77732        0.43458     1050.04631        0.75971     -168.04859
990.00000       35.01922        0.76384       20.92958        0.99878     -168.20244
990.50000       33.36133       36.44867      794.98985      374.74502     -168.36033
991.00000       34.67610     1432.25951      918.86371     2090.24898     -169.28746
991.50000       35.99088     1373.74907      885.39367     2471.30797     -170.52632
992.00000       37.44837     1072.57455      666.07075     1849.49609     -171.01215
992.50000       36.64068        0.36433      501.07682        1.49265     -171.83402
993.00000       34.97368        0.34784      235.89268        0.57668     -173.27936
993.50000       33.04250        0.36025       24.70283        0.57898     -174.72470
994.00000       29.75708        0.48367        0.53412        0.60013     -175.38462
994.50000       32.71760        1.15552        0.64555        1.11500     -175.54656
995.00000       32.61133        3.25909        1.15905        5.27146     -175.68017
995.50000       30.36436        3.82518        2.08102        6.61735     -174.08908
996.00000       27.98684        3.96417        3.33467        6.89148     -174.25102
996.50000       25.83400        4.05266        3.83039        6.89081     -174.76519
997.00000       23.68420        4.13632        4.03171        7.17879     -174.08908
997.50000       21.86234        4.20612        4.17589        7.40874     -173.27936
998.00000       21.71052        4.19755        4.32522        7.35886     -172.99191
998.50000       23.31376        4.13856        4.47989        7.13436     -172.08908
999.00000       26.18016        4.03500        4.45714        7.03475     -170.77734
999.50000       28.69432        3.81043        4.28963        6.76035     -169.46964
1000.00000       30.97165        3.51568        4.16701        6.18001     -168.04049
1000.50000       32.86390        3.55491        3.99754        6.16118     -165.48791
1001.00000       35.45866        3.58794        3.85629        6.23743     -163.59275
1001.50000       39.11189        3.64243        3.87632        6.35386     -161.69356
1002.00000       42.79233        3.78563        3.89608        6.65454     -159.67743
1002.50000       46.57257        3.93446        3.91631        6.86709     -158.06453
1003.00000       49.17337        3.98794        3.93810        6.93088     -158.06453
1003.50000       49.62700        3.97689        3.96294        6.92000     -158.06453
1004.00000       48.34475        3.85629        3.98315        6.79822     -158.92743
1004.50000       44.45563        3.82681        3.96991        6.67796     -160.09275
1005.00000       43.32156        3.93119        3.98315        6.80388     -160.16533
1005.50000       42.18749        4.03878        3.99643        6.99527     -160.23388
1006.00000       44.24092        4.20573        4.06013        7.33783     -160.30243
1006.50000       47.69454        4.30887        4.15893        7.59465     -160.37098
1007.00000       51.15120        4.30887        4.26053        7.64467     -160.44356
1007.50000       54.63809        4.18052        4.36461        7.24345     -161.29033
1008.00000       52.19757        3.97469        4.47123        6.93730     -163.30646
1008.50000       45.06047        3.75773        4.25266        6.62813     -167.11291
1009.00000       40.78426        3.52219        4.04514        6.20464     -171.37097
1009.50000       35.38306        3.43216        3.85629        6.07800     -173.11694
1010.00000       32.86390        3.54506        3.68205        6.14184     -174.86694
1010.50000       30.34173        3.51568        3.48332        6.17031     -176.61291
1011.00000       27.82257        3.35683        3.32593        5.84646     -176.61291
1011.50000       28.12499        2.90508        3.12901        5.24838     -177.68952
1012.00000       28.42741        2.46646        2.77459        4.60850     -178.31855
1012.50000       25.57257        2.03413        2.43789        3.70391     -178.47581
1013.00000       22.30342        1.67774        2.06522        2.97660     -178.74597
1013.50000       19.84475        1.46044        1.74951        2.62120     -179.31855
1014.00000       19.62399        1.33502        1.48207        2.30823     -178.28226
1014.50000       19.95967        1.26098        1.34792        2.12528     -177.21775
1015.00000       19.52721        1.19094        1.24799        2.01597     -176.71372
1015.50000       19.09475        1.13776        1.17573        1.91210     -176.20968
1016.00000       19.43044        1.14684        1.13681        1.94528     -174.96775
1016.50000       22.83266        1.19314        1.11248        2.01392     -173.72985
1017.00000       24.34475        1.24143        1.14229        2.11508     -172.58065
1017.50000       24.19354        1.34381        1.17290        2.26971     -171.57259
1018.00000       23.43749        1.47264        1.22387        2.43586     -172.08872
1018.50000       22.68145        1.56388        1.30838        2.61393     -172.98388
1019.00000       21.92540        1.64046        1.39871        2.75592     -172.98388
1019.50000       23.15624        1.68551        1.49543        2.87143     -172.98388
1020.00000       23.68850        1.61891        1.51547        2.73890     -172.98388
1020.50000       22.33971        1.50583        1.51547        2.56983     -172.90323
1021.00000       20.64012        1.45882        1.47401        2.51762     -172.50001
1021.50000       19.50604        1.41314        1.40741        2.42037     -172.09678
1022.00000       18.31754        1.36890        1.30463        2.29758     -171.56049
1022.50000       17.44052        1.22512        1.20045        2.10766     -170.48388
1023.00000       17.08669        1.16082        1.13986        2.01858     -169.40727
1023.50000       16.33064        1.09979        1.09088        1.90381     -168.44759
1024.00000       15.57459        1.08134        1.04400        1.81494     -167.94356
1024.50000       14.81854        1.08967        0.99914        1.80991     -167.43952
1025.00000       15.06048        1.09867        0.99618        1.86082     -166.12904
1025.50000       16.51209        1.11001        1.00349        1.91317     -164.31452
1026.00000       18.78326        1.11279        1.01084        1.92274     -163.10485
1026.50000       22.64818        1.09847        1.01826        1.86737     -162.09678
1027.00000       25.25201        1.07964        1.02184        1.81359     -161.20969
1027.50000       27.01511        1.05663        1.02553        1.76136     -160.76614
1028.00000       28.79939        1.03592        1.02534        1.75713     -160.56453
1028.50000       30.65927        1.05438        1.01948        1.78448     -159.77420
1029.00000       32.52217        1.10030        1.01356        1.83468     -158.58469
1029.50000       34.98991        1.14833        1.01197        1.98159     -157.39920
1030.00000       37.86289        1.25958        1.02772        2.14026     -156.08066
1030.50000       39.65926        1.40741        1.16976        2.34502     -154.23388
1031.00000       40.12197        1.53111        1.27966        2.53022     -152.38711
1031.50000       38.10483        1.61189        1.36221        2.70792     -153.62904
1032.00000       34.47580        1.66907        1.45021        2.80607     -155.45162
1032.50000       28.42741        1.68645        1.54376        2.90750     -157.27824
1033.00000       24.79838        1.67263        1.57651        2.84579     -159.10082
