~Version ---------------------------------------------------
VERS. 2.0 : CWLS LOG ASCII STANDARD - VERSION 2.0
WRAP. NO  : One line per depth step
DLM . SPACE : Column Data Section Delimiter
~Well ------------------------------------------------------
STRT.F          780 : START DEPTH
STOP.F       1761.5 : STOP DEPTH
STEP.F          0.5 : STEP
NULL.       -999.25 : NULL VALUE
COMP.                 WALSH & WATTS, INC. : COMPANY
WELL.                         SALMON E 42 : WELL
FLD .                        NORTH NOCONA : FIELD
CNTY.                            MONTAGUE : COUNTY
STAT.                               TEXAS : STATE
CTRY.                                 USA : COUNTRY
SEC .                                     : SECTION
TWP .                                     : TOWNSHIP
RGE .                                     : RANGE
LOC . 150' FSL & 300' W OF WELL NO. 1, 407' E OF WELL NO. 5, F. ROBERTSON SURVEY : LOCATION
EKB .F                      880 : ELEVATION KELLY BUSHING
EDF .F                          : ELEVATION DERRICK FLOOR
EGL .F                      874 : ELEVATION GROUND LEVEL
PDAT.              GROUND LEVEL : PERMANENT DATUM
EPD .                       874 : ELEVATION PERMANENT DATUM
APD .                         6 : ABOVE PERMANENT DATUM
LMF .                        KB : LOG MEASURED FROM
DMF .                        KB : DRILLING MEASURED FROM
API .            42337037780000 : API NUMBER
UWI .            42337037780000 : UWI NUMBER
DIGC.                     NthDS : DIGITIZING COMPANY
~Params ----------------------------------------------------
SRVC.                LANE WELLS : LOGGING COMPANY
LOG .                        AC : LOG
DATE.                1965-11-21 : RUN DATE
RUN .                         1 : RUN NUMBER
TDD .F                     1766 : TOTAL DEPTH DRILLER
TDL .F                     1768 : TOTAL DEPTH LOGGER
BOTL.F                     1762 : BOTTOM LOGGED INTERVAL
TOPL.F                      790 : TOP LOGGED INTERVAL
CSGS.IN                         : CASING SIZE
CSGD.F                          : CASING DRILLER
CSGL.F                          : CASING LOGGER
BS  .IN                   7.875 : BIT SIZE
MUD .              CHEMICAL GEL : MUD TYPE
MUDD.                       9.8 : MUD DENSITY
MUDV.                       123 : MUD VISCOSITY
PH  .                           : MUD PH
FL  .                           : FLUID LOSS
MUDS.                CIRCULATED : SOURCE OF SAMPLE
RM  .OHMM                   2.1 : MUD RESISTIVITY
RMT .DEGF                    70 : RM TEMPERATURE
RMF .OHMM                  1.81 : MUD FILTRATE RESISTIVITY
RMFT.DEGF                    70 : RMF TEMPERATURE
RMC .OHMM                  2.34 : MUD CAKE RESISTIVITY
RMCT.DEGF                    70 : RMC TEMPERATURE
RMFS.                  MEASURED : RMF SOURCE
RMCS.                           : RMC SOURCE
RMBH.OHMM                   1.5 : MUD RESISTIVITY AT BHT
BHT .DEGF                    98 : BOTTOM HOLE TEMPERATURE
TIMC.                           : TIME CIRCULATION STOPPED
TIML.                           : TIME LOGGER ON BOTTOM
TMAX.DEGF                    98 : MAXIMUM RECORDED TEMPERATURE
UNIT.                    L-4553 : EQUIPMENT NUMBER
BASE.                      W.F. : BASE LOCATION
ENG .                     ADAMS : RECORDED BY
WIT .   MR. HARRELSON & MR. NIX : WITNESSED BY
~Curve Information -----------------------------------------
DEPT.F          :DEPTH
CALI.IN         :
DT.US/F         :
SP.MV           :
~ASCII ------------------------------------------------------
# ...
926.00000        8.35439      127.65500      -45.83440
926.50000        8.36805      122.84781      -45.54474
927.00000        8.36771      120.69335      -45.25405
927.50000        8.34764      121.16408      -45.25921
928.00000        8.22888      124.05137      -45.56023
928.50000        8.12992      129.38442      -46.45296
929.00000        8.18875      128.99213      -47.04984
929.50000        8.28702      127.17000      -47.64672
930.00000        8.32613      129.33625      -47.94774
930.50000        8.32578      131.14195      -48.54461
931.00000        8.20710      132.94666      -48.54978
931.50000        8.07953      129.56534      -48.25908
932.00000        8.23146      117.04675      -47.96839
932.50000        8.38358      113.74801      -47.97356
933.00000        8.39467      114.09104      -47.68390
933.50000        8.38072      116.43804      -47.39320
934.00000        8.36393      124.89743      -47.99008
934.50000        8.34978      132.24275      -49.47452
935.00000        8.33583      130.99574      -51.25482
935.50000        8.32168      122.26619      -55.40197
936.00000        8.30773      113.90977      -57.47813
936.50000        8.17957      111.17520      -57.18744
937.00000        7.97548      113.52220      -56.30503
937.50000        7.77119      116.58163      -55.71848
938.00000        7.79728      120.11568      -55.13194
938.50000        7.97681      123.66103      -55.43399
939.00000        8.15635      121.38019      -56.32672
939.50000        8.26291      119.09936      -57.81116
940.00000        8.04159      116.81852      -61.36660
940.50000        7.85722      119.06999      -60.78005
941.00000        7.77463      122.45479      -59.60179
941.50000        7.84470      126.51655      -58.42353
942.00000        7.98341      129.90135      -56.65356
942.50000        8.12192      126.34988      -55.17944
943.00000        8.26063      125.52674      -55.18460
943.50000        8.39914      122.90860      -56.96490
944.00000        8.36901      110.40593      -60.52034
944.50000        8.22607       97.07407      -66.14780
945.00000        8.27621       96.06223      -69.70324
945.50000        8.31808       98.52067      -70.89183
946.00000        8.13470      100.97911      -70.89699
946.50000        7.91436      101.97686      -70.01459
947.00000        7.84006      101.58059      -68.54047
947.50000        7.83833      100.66691      -67.36221
948.00000        7.83680      103.20629      -65.29638
948.50000        7.83508      105.32244      -63.82227
949.00000        7.83335      107.43859      -62.93986
949.50000        7.83183      106.07218      -63.24088
950.00000        7.84172      105.75561      -64.36959
950.50000        7.84000      105.70869      -65.26160
951.00000        7.83847      105.01635      -66.44784
951.50000        7.83649      104.23554      -67.92937
952.00000        7.83477      102.52733      -69.11561
952.50000        7.83304       99.26149      -70.59714
953.00000        7.83152       90.31886      -71.78339
953.50000        7.82980       83.25322      -72.67436
954.00000        7.82808       74.42092      -72.97582
954.50000        7.84722       87.36711      -72.68570
955.00000        7.87148       99.01016      -71.50976
955.50000        7.88584      106.53929      -70.03854
956.00000        7.88549      108.39927      -68.56733
956.50000        7.88515      110.34902      -66.21029
957.00000        7.94032      112.90014      -63.55798
957.50000        8.07895      110.45237      -60.90567
958.00000        8.21758      106.75613      -58.54966
958.50000        8.35621      116.48173      -58.25954
959.00000        8.33618      124.88460      -58.26470
959.50000        8.22849      127.99008      -58.56513
960.00000        8.13858      113.18208      -58.86555
960.50000        8.24886      106.03493      -59.16598
961.00000        8.35935      103.34165      -58.87586
961.50000        8.46963      106.59325      -58.29047
962.00000        8.36555      111.80434      -56.82028
962.50000        8.20773      117.52407      -56.23489
963.00000        8.24341      115.43316      -56.24004
963.50000        8.34417      113.34225      -55.94992
964.00000        8.39639      112.78112      -55.65980
964.50000        8.32065      118.34211      -55.07441
965.00000        8.24511      123.00918      -55.67011
965.50000        8.16938      119.43351      -56.85636
966.00000        8.21844      117.08416      -57.74836
966.50000        8.29861      124.44401      -57.45824
967.00000        8.26158      129.08653      -57.16812
967.50000        8.22089      125.41216      -57.46855
968.00000        8.36385      110.90306      -57.76898
968.50000        8.50661      108.61961      -58.65995
969.00000        8.46690      111.90401      -59.55092
969.50000        8.26971      106.48942      -60.14766
970.00000        8.13157       98.39170      -60.74336
970.50000        8.22965      101.47661      -61.33906
971.00000        8.23770      109.45771      -61.93476
971.50000        8.06157      108.45623      -62.23519
972.00000        7.88544      104.32064      -63.12616
972.50000        7.91600      112.12710      -63.72186
973.00000        8.03535      119.12215      -63.72702
973.50000        7.95843      111.83653      -63.14265
974.00000        8.03820      109.11343      -62.55726
974.50000        8.35282      113.23509      -61.08604
975.00000        8.46914      107.17509      -60.50065
975.50000        8.34852      103.20251      -59.91526
976.00000        8.56038      104.29939      -60.21568
976.50000        8.53051      103.63986      -60.81138
977.00000        8.28410      102.98132      -61.40708
977.50000        8.17943      102.32178      -62.59436
978.00000        8.16924      100.43663      -62.89479
978.50000        8.15702      102.42812      -62.60467
979.00000        8.14683      103.15225      -62.31455
979.50000        8.09787       98.80692      -62.02443
980.00000        8.03926       97.84620      -61.43904
980.50000        7.98045       96.17973      -61.44419
981.00000        7.92184       92.53816      -62.04092
981.50000        7.86323       90.06356      -62.04608
982.00000        7.82922       90.34535      -62.64178
982.50000        7.83294       96.49250      -62.64693
983.00000        7.83595      102.46004      -62.65208
983.50000        7.83895      109.62109      -63.24778
984.00000        7.84195      118.27246      -63.25294
984.50000        7.84515      122.08667      -63.25809
985.00000        7.90445      117.28608      -63.26428
985.50000        8.02045      114.39002      -62.97416
986.00000        8.13644      114.27818      -62.09349
986.50000        7.88032      118.48930      -60.03172
987.00000        7.83077      117.42421      -57.67469
987.50000        7.83869      112.00237      -55.61293
988.00000        7.88677      106.79026      -54.14171
988.50000        7.99548      103.29411      -54.44214
989.00000        8.10419      104.68989      -55.92469
989.50000        8.21271      107.84935      -57.11094
990.00000        8.32142      118.24888      -58.88774
990.50000        8.45171      119.08136      -59.77871
991.00000        8.44310      119.91284      -60.37441
991.50000        8.43469      123.29595      -60.67484
992.00000        8.57273      126.21953      -60.67999
992.50000        8.60782      123.92484      -61.27569
993.00000        8.50905      121.44328      -62.16770
993.50000        8.41028      115.63109      -62.76340
994.00000        8.35731      107.40912      -63.35910
994.50000        8.42272      107.73763      -63.06898
995.00000        8.48792      111.76287      -62.48359
995.50000        8.32105      112.09207      -61.01237
996.00000        8.15417      109.31162      -58.95061
996.50000        8.10756      113.02245      -57.77467
997.00000        8.24147      112.84799      -56.00921
997.50000        8.30904      109.62092      -55.42381
998.00000        8.07241      112.41558      -56.01952
998.50000        8.43289      115.20924      -57.20576
