~Version ---------------------------------------------------
VERS. 2.0 : CWLS LOG ASCII STANDARD - VERSION 2.0
WRAP. NO  : One line per depth step
DLM . SPACE : Column Data Section Delimiter
~Well ------------------------------------------------------
STRT.F          500 : START DEPTH
STOP.F       2022.5 : STOP DEPTH
STEP.F          0.5 : STEP
NULL.       -999.25 : NULL VALUE
COMP.                 WALSH & WATTS, INC. : COMPANY
WELL.                          HYNDS A 10 : WELL
FLD .                           N. NOCONA : FIELD
CNTY.                            MONTAGUE : COUNTY
STAT.                               TEXAS : STATE
CTRY.                                 USA : COUNTRY
SEC .                                     : SECTION
TWP .                                     : TOWNSHIP
RGE .                                     : RANGE
LOC .  244' SE OF NO. 5A J.J. WALL SURVEY : LOCATION
EKB .F                    903.5 : ELEVATION KELLY BUSHING
EDF .F                          : ELEVATION DERRICK FLOOR
EGL .F                      897 : ELEVATION GROUND LEVEL
PDAT.                        GL : PERMANENT DATUM
EPD .                           : ELEVATION PERMANENT DATUM
APD .                         6 : ABOVE PERMANENT DATUM
LMF .                           : LOG MEASURED FROM
DMF .                           : DRILLING MEASURED FROM
API .            42337037830000 : API NUMBER
UWI .            42337037830000 : UWI NUMBER
DIGC.                     NthDS : DIGITIZING COMPANY
~Params ----------------------------------------------------
SRVC.                LANE WELLS : LOGGING COMPANY
LOG .                       GRN : LOG
DATE.                1957-11-30 : RUN DATE
RUN .                         1 : RUN NUMBER
TDD .F                     2039 : TOTAL DEPTH DRILLER
TDL .F                     2015 : TOTAL DEPTH LOGGER
BOTL.F                     2023 : BOTTOM LOGGED INTERVAL
TOPL.F                      500 : TOP LOGGED INTERVAL
CSGS.IN                     5.5 : CASING SIZE
CSGD.F                     2038 : CASING DRILLER
CSGL.F                          : CASING LOGGER
BS  .IN                    8.75 : BIT SIZE
MUD .                     WATER : MUD TYPE
MUDD.                           : MUD DENSITY
MUDV.                           : MUD VISCOSITY
PH  .                           : MUD PH
FL  .                           : FLUID LOSS
MUDS.                           : SOURCE OF SAMPLE
RM  .OHMM                       : MUD RESISTIVITY
RMT .DEGF                       : RM TEMPERATURE
RMF .OHMM                       : MUD FILTRATE RESISTIVITY
RMFT.DEGF                       : RMF TEMPERATURE
RMC .OHMM                       : MUD CAKE RESISTIVITY
RMCT.DEGF                       : RMC TEMPERATURE
RMFS.                           : RMF SOURCE
RMCS.                           : RMC SOURCE
RMBH.OHMM                       : MUD RESISTIVITY AT BHT
BHT .DEGF                       : BOTTOM HOLE TEMPERATURE
TIMC.                           : TIME CIRCULATION STOPPED
TIML.                           : TIME LOGGER ON BOTTOM
TMAX.DEGF                       : MAXIMUM RECORDED TEMPERATURE
UNIT.                           : EQUIPMENT NUMBER
BASE.                           : BASE LOCATION
ENG .                   ROBERTS : RECORDED BY
WIT .                       NIX : WITNESSED BY
~Curve Information -----------------------------------------
DEPT.F          :DEPTH
GRN.GAPI        :
NEUT.API        :
~ASCII ------------------------------------------------------
# ...
1686.00000       39.95582     2300.88308
1686.50000       38.98924     2287.69503
1687.00000       37.40783     2258.01198
1687.50000       36.86620     2255.66402
1688.00000       38.04248     2282.74689
1688.50000       37.90772     2296.58680
1689.00000       38.17984     2281.26340
1689.50000       36.59860     2275.46467
1690.00000       36.18175     2279.06069
1690.50000       36.69075     2260.48873
1691.00000       36.11025     2194.83466
1691.50000       34.56139     2129.18059
1692.00000       34.07130     2069.41283
1692.50000       36.29188     2094.27349
1693.00000       38.51155     2147.75198
1693.50000       37.05780     2201.24853
1694.00000       35.84710     2165.09756
1694.50000       36.70601     2177.72699
1695.00000       37.77559     2162.35286
1695.50000       38.50792     2169.55877
1696.00000       37.73121     2186.25323
1696.50000       37.40207     2194.51049
1697.00000       37.87779     2213.31876
1697.50000       37.51699     2202.00966
1698.00000       36.61370     2177.15045
1698.50000       35.48890     2186.16651
1699.00000       34.21490     2210.99104
1699.50000       33.73838     2207.04973
1700.00000       34.62940     2152.21191
1700.50000       33.87710     2164.84134
1701.00000       34.26947     2191.92421
1701.50000       36.53090     2194.61689
1702.00000       36.95401     2202.72962
1702.50000       35.71890     2235.23254
1703.00000       34.73695     2240.03903
1703.50000       35.69803     2269.97646
1704.00000       35.51083     2303.83439
1704.50000       34.55691     2296.98779
1705.00000       35.27116     2270.88197
1705.50000       35.95919     2273.59272
1706.00000       35.30906     2303.24108
1706.50000       36.08208     2311.57061
1707.00000       35.50898     2312.76374
1707.50000       35.03065     2285.80531
1708.00000       34.55322     2252.11143
1708.50000       35.79730     2252.85290
1709.00000       36.18243     2276.55728
1709.50000       35.27914     2267.18132
1710.00000       36.02956     2283.58671
1710.50000       37.18956     2299.99210
1711.00000       38.34594     2281.90795
1711.50000       38.71841     2293.63403
1712.00000       37.06196     2325.23361
1712.50000       35.07386     2315.04465
1713.00000       33.83874     2332.42565
1713.50000       34.83418     2351.37846
1714.00000       36.19129     2328.77760
1714.50000       36.91548     2345.47206
1715.00000       36.19302     2343.19637
1715.50000       34.59624     2368.47256
1716.00000       34.47686     2346.77157
1716.50000       34.38731     2367.53106
1717.00000       34.60518     2398.96804
1717.50000       33.67838     2430.15208
1718.00000       31.93603     2449.23136
1718.50000       32.81501     2442.43896
1719.00000       32.60973     2455.06839
1719.50000       31.68022     2435.17755
1720.00000       31.42793     2495.37689
1720.50000       30.40619     2518.25020
1721.00000       28.79947     2506.48943
1721.50000       29.17466     2477.69166
1722.00000       31.03357     2449.18295
1722.50000       31.48923     2453.59198
1723.00000       30.96297     2423.69213
1723.50000       31.60669     2359.15820
1724.00000       32.45132     2281.70303
1724.50000       32.32198     2312.79674
1725.00000       31.50911     2367.81090
1725.50000       32.48647     2380.76553
1726.00000       34.08769     2413.26845
1726.50000       33.51894     2414.15445
1727.00000       33.59214     2463.82084
1727.50000       32.83352     2517.10059
1728.00000       34.04596     2540.38944
1728.50000       34.86057     2504.54561
1729.00000       32.96271     2452.91138
1729.50000       34.18436     2472.76753
1730.00000       33.54147     2455.20731
1730.50000       31.79008     2466.78886
1731.00000       32.87594     2452.84201
1731.50000       33.27463     2438.00988
1732.00000       34.50515     2434.14431
1732.50000       33.61995     2423.88308
1733.00000       33.85590     2450.36975
1733.50000       34.41734     2481.21052
1734.00000       35.68403     2503.77323
1734.50000       35.53390     2477.64934
1735.00000       34.83603     2443.30505
1735.50000       35.21032     2459.90918
1736.00000       36.23034     2481.12034
1736.50000       36.65328     2456.26113
1737.00000       36.27711     2467.08387
1737.50000       35.76804     2429.12623
1738.00000       35.96239     2397.79910
1738.50000       36.88279     2401.08798
1739.00000       39.21910     2389.58015
1739.50000       39.66210     2336.66318
1740.00000       40.98954     2348.10019
1740.50000       39.29421     2349.16686
1741.00000       36.89906     2379.44756
1741.50000       36.49306     2396.46375
1742.00000       37.37096     2356.33809
1742.50000       36.22354     2332.47255
1743.00000       37.05624     2337.04418
1743.50000       37.87085     2324.12713
1744.00000       37.29938     2353.01669
1744.50000       36.15468     2356.61271
1745.00000       37.96387     2370.59715
1745.50000       38.55261     2357.48136
1746.00000       39.38259     2337.28339
1746.50000       38.71981     2358.35002
1747.00000       37.96751     2385.43289
1747.50000       38.51087     2372.76878
1748.00000       40.32006     2348.54191
1748.50000       39.41677     2366.41071
1749.00000       37.99720     2378.66073
1749.50000       37.76841     2366.67969
1750.00000       36.87703     2376.12849
1750.50000       36.66997     2397.50349
1751.00000       37.70343     2403.21849
1751.50000       36.85985     2389.63877
1752.00000       36.09855     2349.58532
1752.50000       36.68263     2346.56616
1753.00000       37.00994     2347.99546
1753.50000       35.67811     2348.88226
1754.00000       36.38607     2369.20844
1754.50000       37.67721     2361.50574
1755.00000       38.96925     2331.64772
1755.50000       38.76220     2335.50015
1756.00000       39.69258     2311.12480
1756.50000       36.98010     2267.90680
1757.00000       35.69439     2214.03783
1757.50000       36.54791     2192.91743
1758.00000       36.25677     2304.05718
1758.50000       37.27395     2355.03430
1759.00000       37.88426     2380.33335
1759.50000       37.01627     2409.24902
1760.00000       35.93128     2403.80325
1760.50000       35.95569     2358.57802
1761.00000       36.34719     2343.31657
1761.50000       35.96292     2373.00982
1762.00000       34.94574     2369.97258
1762.50000       33.41500     2391.05825
1763.00000       31.94665     2381.09516
1763.50000       32.09764     2347.17190
1764.00000       33.40325     2353.03157
1764.50000       34.41862     2360.24747
1765.00000       33.81554     2392.77630
1765.50000       33.90596     2424.40445
1766.00000       33.27305     2421.67462
1766.50000       32.36889     2450.59030
1767.00000       31.46473     2437.91474
1767.50000       31.64556     2420.60989
1768.00000       33.07413     2368.36840
1768.50000       34.74683     2357.08524
1769.00000       35.94936     2373.14380
1769.50000       37.03435     2359.81725
1770.00000       37.41410     2362.76205
1770.50000       36.40777     2395.47519
1771.00000       37.25135     2414.86105
1771.50000       37.52260     2410.52182
1772.00000       34.26762     2455.13367
1772.50000       33.63471     2499.76360
1773.00000       31.55515     2544.39353
1773.50000       32.18806     2520.86808
1774.00000       33.09222     2527.17982
1774.50000       32.11573     2522.64168
1775.00000       31.12929     2537.09084
1775.50000       31.25768     2471.80793
1776.00000       32.42947     2410.14512
1776.50000       33.86075     2433.96135
1777.00000       34.11663     2479.15186
1777.50000       32.98372     2468.28461
1778.00000       33.33363     2433.00512
1778.50000       33.32730     2430.27529
1779.00000       32.47739     2478.48568
1779.50000       32.27847     2497.14822
1780.00000       33.59403     2460.96456
1780.50000       34.90867     2440.14811
1781.00000       35.71428     2448.01501
1781.50000       33.72513     2410.52937
1782.00000       33.77034     2466.51551
1782.50000       29.97287     2545.86509
1783.00000       30.65099     2619.68122
1783.50000       29.10488     2693.51544
