~Version ---------------------------------------------------
VERS. 2.0 : CWLS LOG ASCII STANDARD - VERSION 2.0
WRAP. NO  : One line per depth step
DLM . SPACE : Column Data Section Delimiter
~Well ------------------------------------------------------
STRT.F          100 : START DEPTH
STOP.F       1786.5 : STOP DEPTH
STEP.F          0.5 : STEP
NULL.       -999.25 : NULL VALUE
COMP.                 WALSH & WATTS, INC. : COMPANY
WELL.                         SALMON E 41 : WELL
FLD .                        NORTH NOCONA : FIELD
CNTY.                            MONTAGUE : COUNTY
STAT.                               TEXAS : STATE
CTRY.                                 USA : COUNTRY
SEC .                                     : SECTION
TWP .                                     : TOWNSHIP
RGE .                                     : RANGE
LOC . 300' N OF NO. 40
150' W OF EL & 385' E OF NO. 87
F. ROBERTSON SURVEY : LOCATION
EKB .F                          : ELEVATION KELLY BUSHING
EDF .F                          : ELEVATION DERRICK FLOOR
EGL .F                      878 : ELEVATION GROUND LEVEL
PDAT.              GROUND LEVEL : PERMANENT DATUM
EPD .                       878 : ELEVATION PERMANENT DATUM
APD .                           : ABOVE PERMANENT DATUM
LMF .                        KB : LOG MEASURED FROM
DMF .                        KB : DRILLING MEASURED FROM
API .            42337037790000 : API NUMBER
UWI .            42337037790000 : UWI NUMBER
DIGC.                     NthDS : DIGITIZING COMPANY
~Params ----------------------------------------------------
SRVC.                LANE WELLS : LOGGING COMPANY
LOG .                       IEL : LOG
DATE.                1965-12-01 : RUN DATE
RUN .                         1 : RUN NUMBER
TDD .F                     1790 : TOTAL DEPTH DRILLER
TDL .F                     1791 : TOTAL DEPTH LOGGER
BOTL.F                     1787 : BOTTOM LOGGED INTERVAL
TOPL.F                      100 : TOP LOGGED INTERVAL
CSGS.IN                         : CASING SIZE
CSGD.F                          : CASING DRILLER
CSGL.F                          : CASING LOGGER
BS  .IN                       9 : BIT SIZE
MUD .                       GEL : MUD TYPE
MUDD.                        10 : MUD DENSITY
MUDV.                        80 : MUD VISCOSITY
PH  .                       9.0 : MUD PH
FL  .                       6.8 : FLUID LOSS
MUDS.                       PIT : SOURCE OF SAMPLE
RM  .OHMM                  1.95 : MUD RESISTIVITY
RMT .DEGF                    74 : RM TEMPERATURE
RMF .OHMM                   1.5 : MUD FILTRATE RESISTIVITY
RMFT.DEGF                    74 : RMF TEMPERATURE
RMC .OHMM                   2.3 : MUD CAKE RESISTIVITY
RMCT.DEGF                    74 : RMC TEMPERATURE
RMFS.                  MEASURED : RMF SOURCE
RMCS.                           : RMC SOURCE
RMBH.OHMM                   1.5 : MUD RESISTIVITY AT BHT
BHT .DEGF                    97 : BOTTOM HOLE TEMPERATURE
TIMC.                           : TIME CIRCULATION STOPPED
TIML.                           : TIME LOGGER ON BOTTOM
TMAX.DEGF                    97 : MAXIMUM RECORDED TEMPERATURE
UNIT.                    L-5172 : EQUIPMENT NUMBER
BASE.                      W.F. : BASE LOCATION
ENG .             ADAMS & BAKER : RECORDED BY
WIT .                   MR. NIX : WITNESSED BY
~Curve Information -----------------------------------------
DEPT.F          :DEPTH
CILD.MMHO       :
ILD.OHMM        :
ROP.FT/HR       :
SN.OHMM         :
SP.MV           :
~ASCII ------------------------------------------------------
# ...
1519.50000      340.50974        2.94721        -999.25        3.28859      -43.72033
1520.00000      340.52362        2.95359        -999.25        3.30091      -44.01673
1520.50000      340.53750        2.96036        -999.25        3.31283      -44.31313
1521.00000      340.55138        2.96673        -999.25        3.32277      -44.91014
1521.50000      340.56526        2.97350        -999.25        3.32360      -45.50714
1522.00000      340.57914        2.97987        -999.25        3.32442      -45.50294
1522.50000      340.59301        2.98664        -999.25        3.32525      -45.49791
1523.00000      340.60689        2.99302        -999.25        3.32965      -46.09491
1523.50000      338.78181        3.00114        -999.25        3.35124      -46.99251
1524.00000      337.98059        3.00752        -999.25        3.36910      -46.98831
1524.50000      335.51216        3.02141        -999.25        3.38735      -45.78172
1525.00000      333.45846        3.04601        -999.25        3.40521      -45.17632
1525.50000      331.40475        3.07060        -999.25        3.40960      -45.47272
1526.00000      329.55979        3.09519        -999.25        3.41043      -46.97153
1526.50000      329.66313        3.11978        -999.25        3.41126      -47.26793
1527.00000      334.09051        3.07784        -999.25        3.41209      -46.96313
1527.50000      339.10437        3.03510        -999.25        3.37332      -46.05713
1528.00000      343.73056        2.99277        -999.25        3.32464      -46.05210
1528.50000      349.50982        2.94148        -999.25        3.26623      -45.14610
1529.00000      355.28909        2.89875        -999.25        3.21756      -43.63890
1529.50000      361.06835        2.85601        -999.25        3.16888      -41.53051
1530.00000      367.93388        2.81368        -999.25        3.12021      -40.62451
1530.50000      370.07499        2.77094        -999.25        3.08817      -40.92091
1531.00000      372.21610        2.74563        -999.25        3.06682      -42.11911
1531.50000      371.61368        2.74646        -999.25        3.07002      -44.21912
1532.00000      370.31544        2.74729        -999.25        3.07957      -45.71792
1532.50000      369.02713        2.74812        -999.25        3.08911      -47.21672
1533.00000      367.72889        2.74895        -999.25        3.09865      -47.81373
1533.50000      368.17020        2.74978        -999.25        3.10994      -48.71133
1534.00000      368.60158        2.75078        -999.25        3.11909      -49.90869
1534.50000      369.04289        2.75160        -999.25        3.12863      -50.80629
1535.00000      369.47426        2.75243        -999.25        3.13817      -51.10270
1535.50000      369.91558        2.75326        -999.25        3.14772      -50.49730
1536.00000      370.34695        2.75409        -999.25        3.14736      -48.99010
1536.50000      370.87056        2.75492        -999.25        3.14462      -47.48291
1537.00000      371.31187        2.75575        -999.25        3.14189      -45.37451
1537.50000      371.74325        2.75658        -999.25        3.13915      -44.16791
1538.00000      372.17462        2.75741        -999.25        3.13681      -42.96131
1538.50000      372.60599        2.75824        -999.25        3.13345      -42.05532
1539.00000      373.03736        2.75924        -999.25        3.13072      -42.35088
1539.50000      373.45880        2.76007        -999.25        3.12798      -42.64728
1540.00000      373.89017        2.76089        -999.25        3.12525      -42.64309
1540.50000      373.38715        2.76172        -999.25        3.12291      -42.33829
1541.00000      372.89407        2.76255        -999.25        3.12017      -42.03349
1541.50000      372.39106        2.76338        -999.25        3.11744      -41.72870
1542.00000      371.88804        2.76421        -999.25        3.11470      -41.72450
1542.50000      371.28840        2.76504        -999.25        3.11197      -41.72030
1543.00000      371.23269        2.76587        -999.25        3.10923      -41.41550
1543.50000      371.84299        2.76670        -999.25        3.10627      -41.11071
1544.00000      372.45329        2.76770        -999.25        3.10354      -40.80591
1544.50000      373.06359        2.76853        -999.25        3.10080      -40.80087
1545.00000      373.67389        2.76936        -999.25        3.09807      -40.79668
1545.50000      373.68777        2.77018        -999.25        3.09533      -40.79248
1546.00000      372.79708        2.77101        -999.25        3.09260      -41.08888
1546.50000      371.91633        2.77184        -999.25        3.09026      -41.08468
1547.00000      371.03558        2.77267        -999.25        3.10653      -41.68169
1547.50000      370.14489        2.77350        -999.25        3.13548      -41.67749
1548.00000      369.26414        2.77433        -999.25        3.16482      -41.67329
1548.50000      368.38339        2.77516        -999.25        3.17136      -42.87149
1549.00000      367.31655        2.77616        -999.25        3.17219      -44.37030
1549.50000      366.43580        2.78847        -999.25        3.17302      -46.77090
1550.00000      363.51222        2.71856        -999.25        3.08925      -50.29898
1550.50000      362.62064        2.73364        -999.25        3.11503      -50.29396
1551.00000      361.73902        2.74873        -999.25        3.14041      -48.79278
1551.50000      360.84744        2.76342        -999.25        3.16619      -46.99220
1552.00000      359.96582        2.77415        -999.25        3.15514      -45.79042
1552.50000      359.08419        2.76746        -999.25        3.13498      -44.28924
1553.00000      358.19261        2.76076        -999.25        3.11521      -42.78806
1553.50000      357.31099        2.75446        -999.25        3.09505      -42.18508
1554.00000      359.60348        2.74777        -999.25        3.09588      -41.58210
1554.50000      361.89597        2.73965        -999.25        3.09688      -41.57792
1555.00000      364.18846        2.73296        -999.25        3.09771      -42.17254
1555.50000      366.49090        2.72626        -999.25        3.09854      -42.16836
1556.00000      368.03991        2.71996        -999.25        3.09937      -41.86478
1556.50000      367.34733        2.71327        -999.25        3.10020      -41.85976
1557.00000      366.65476        2.70657        -999.25        3.11053      -41.55618
1557.50000      363.63384        2.72681        -999.25        3.13433      -41.55200
1558.00000      359.07064        2.75417        -999.25        3.15853      -41.24842
1558.50000      354.50744        2.78154        -999.25        3.18272      -41.24424
1559.00000      349.94423        2.80850        -999.25        3.26276      -41.53946
1559.50000      345.38103        2.83587        -999.25        3.34279      -41.53528
1560.00000      344.55911        2.86323        -999.25        3.42283      -41.23170
1560.50000      346.23468        2.86921        -999.25        3.33155      -41.22752
1561.00000      349.47245        2.85991        -999.25        3.25515      -41.22334
1561.50000      353.10821        2.83539        -999.25        3.17915      -41.51856
1562.00000      356.73403        2.81048        -999.25        3.14354      -41.81378
1562.50000      360.36980        2.78596        -999.25        3.13566      -41.80876
1563.00000      364.72477        2.76105        -999.25        3.12738      -41.20578
1563.50000      368.36053        2.73653        -999.25        3.11910      -41.50100
1564.00000      370.35452        2.71598        -999.25        3.11082      -41.49682
1564.50000      369.89080        2.71324        -999.25        3.10294      -41.19324
1565.00000      369.43704        2.71011        -999.25        3.09466      -40.88966
1565.50000      368.97332        2.70737        -999.25        3.08638      -39.98728
1566.00000      368.67876        2.70464        -999.25        3.07850      -38.78550
