~Version ---------------------------------------------------
VERS. 2.0 : CWLS LOG ASCII STANDARD - VERSION 2.0
WRAP. NO  : One line per depth step
DLM . SPACE : Column Data Section Delimiter
~Well ------------------------------------------------------
STRT.F        986.5 : START DEPTH
STOP.F       1761.0 : STOP DEPTH
STEP.F          0.5 : STEP
NULL.       -999.25 : NULL VALUE
COMP.                 WALSH & WATTS, INC. : COMPANY
WELL.                       SALMON D E 6D : WELL
FLD .                             REGULAR : FIELD
CNTY.                            MONTAGUE : COUNTY
STAT.                               TEXAS : STATE
CTRY.                                 USA : COUNTRY
SEC .                                     : SECTION
TWP .                                     : TOWNSHIP
RGE .                                     : RANGE
LOC .  460 FSL 755 FEL
F. ROBERTSON A-620 : LOCATION
EKB .F                      880 : ELEVATION KELLY BUSHING
EDF .F                      878 : ELEVATION DERRICK FLOOR
EGL .F                      874 : ELEVATION GROUND LEVEL
PDAT.                        GL : PERMANENT DATUM
EPD .                       874 : ELEVATION PERMANENT DATUM
APD .                           : ABOVE PERMANENT DATUM
LMF .                        KB : LOG MEASURED FROM
DMF .                        KB : DRILLING MEASURED FROM
API .            42337016430000 : API NUMBER
UWI .            42337016430000 : UWI NUMBER
DIGC.                     NthDS : DIGITIZING COMPANY
~Params ----------------------------------------------------
SRVC.              SCHLUMBERGER : LOGGING COMPANY
LOG .                      DIFL : LOG
DATE.                2005-08-03 : RUN DATE
RUN .                         1 : RUN NUMBER
TDD .F                     1750 : TOTAL DEPTH DRILLER
TDL .F                     1750 : TOTAL DEPTH LOGGER
BOTL.F                     1750 : BOTTOM LOGGED INTERVAL
TOPL.F                      980 : TOP LOGGED INTERVAL
CSGS.IN                       7 : CASING SIZE
CSGD.F                      980 : CASING DRILLER
CSGL.F                      980 : CASING LOGGER
BS  .IN                     6.5 : BIT SIZE
MUD .                       FGM : MUD TYPE
MUDD.                       0.2 : MUD DENSITY
MUDV.                        80 : MUD VISCOSITY
PH  .                        11 : MUD PH
FL  .                         7 : FLUID LOSS
MUDS.                       PIT : SOURCE OF SAMPLE
RM  .OHMM                  1.70 : MUD RESISTIVITY
RMT .DEGF                    70 : RM TEMPERATURE
RMF .OHMM                  1.33 : MUD FILTRATE RESISTIVITY
RMFT.DEGF                    70 : RMF TEMPERATURE
RMC .OHMM                  2.67 : MUD CAKE RESISTIVITY
RMCT.DEGF                    70 : RMC TEMPERATURE
RMFS.                      MEAS : RMF SOURCE
RMCS.                       CAL : RMC SOURCE
RMBH.OHMM                  1.41 : MUD RESISTIVITY AT BHT
BHT .DEGF                    98 : BOTTOM HOLE TEMPERATURE
TIMC.                     2100  : TIME CIRCULATION STOPPED
TIML.                     0300  : TIME LOGGER ON BOTTOM
TMAX.DEGF                    98 : MAXIMUM RECORDED TEMPERATURE
UNIT.                       303 : EQUIPMENT NUMBER
BASE.                  WITCHATA : BASE LOCATION
ENG .              DAVID PARKER : RECORDED BY
WIT .              MR. BURLESON : WITNESSED BY
~Curve Information -----------------------------------------
DEPT.F          :DEPTH
GRR.API         :
ILD.OHMM        :
ILM.OHMM        :
SFL.OHMM        :
SP.MV           :
~ASCII ------------------------------------------------------
# ...
1691.50000      102.44436        3.62064        3.85179        6.18045      -78.20916
1692.00000      111.90048        3.60008        3.81934        6.17598      -76.62080
1692.50000      117.48320        3.57930        3.78752        6.17151      -76.40311
1693.00000      121.11115        3.55897        3.75596        6.16705      -77.02354
1693.50000      118.21517        3.54593        3.72432        6.16259      -77.36687
1694.00000      115.31918        3.54336        3.69329        6.15813      -77.13189
1694.50000      113.18222        3.54080        3.67367        6.15368      -78.46717
1695.00000      112.10848        3.53824        3.67101        6.14923      -78.76632
1695.50000      112.35097        3.53568        3.66836        6.14478      -79.98513
1696.00000      112.59045        3.53313        3.66570        6.14034      -81.13847
1696.50000      111.71851        3.53057        3.66305        6.13590      -80.88463
1697.00000      112.99110        3.52997        3.66040        6.13146      -81.05928
1697.50000      115.69136        3.53294        3.65776        6.12614      -81.36245
1698.00000      115.56037        3.53560        3.65511        6.12792      -81.66160
1698.50000      113.54086        3.53825        3.65920        6.13421      -81.52302
1699.00000      113.12976        3.54090        3.66769        6.13995      -81.38041
1699.50000      114.29090        3.54403        3.67653        6.14625      -81.14143
1700.00000      116.06920        3.56202        3.70184        6.18653      -80.80700
1700.50000      119.47450        3.56307        3.71106        6.19235      -80.70372
1701.00000      120.14709        3.56438        3.72066        6.19977      -81.09314
1701.50000      117.74991        3.56569        3.72993        6.20662      -81.41901
1702.00000      115.03998        3.56700        3.73923        6.21406      -82.85011
1702.50000      107.13484        3.56831        3.74890        6.22093      -84.28121
1703.00000      106.21121        3.56962        3.75131        6.22839      -85.03217
1703.50000      109.23698        3.57093        3.74923        6.22723      -85.78312
1704.00000      110.44092        3.57224        3.74715        6.22090      -87.10087
1704.50000      110.86452        3.57355        3.74506        6.21457      -88.56031
1705.00000      108.29427        3.57486        3.74471        6.20826      -90.01975
1705.50000      102.86073        3.57717        3.74574        6.20194      -91.55206
1706.00000       99.58908        3.57914        3.74677        6.19564      -93.08437
1706.50000       98.69793        3.58111        3.74780        6.18934      -93.53169
1707.00000       95.92424        3.58309        3.74848        6.18305      -93.51749
1707.50000       88.80643        3.58507        3.74951        6.17676      -94.70568
1708.00000       82.72311        3.58738        3.75054        6.17048      -96.13678
1708.50000       78.15797        3.58936        3.75158        6.16296      -97.92820
1709.00000       75.41464        3.59134        3.75226        6.15669     -100.25401
1709.50000       75.61963        3.58306        3.75329        6.15043     -102.57983
1710.00000       76.97235        3.57479        3.75432        6.14418     -103.82470
1710.50000       79.51230        3.56622        3.75120        6.13794     -104.34489
1711.00000       81.21724        3.55799        3.73117        6.13170     -105.71000
1711.50000       81.43225        3.54979        3.71159        6.12546     -107.98318
1712.00000       79.06847        3.54650        3.69211        6.11924     -109.84747
1712.50000       74.73106        3.54453        3.67273        6.11301     -111.70771
1713.00000       74.49273        3.54217        3.65312        6.10680     -113.57200
1713.50000       77.13895        3.54020        3.63019        6.10735     -115.43224
1714.00000       80.16471        3.53824        3.61114        6.11016     -115.21561
1714.50000       83.79775        3.53301        3.62716        6.11240     -113.50104
1715.00000       90.16351        3.52291        3.66721        6.11465     -111.71764
1715.50000       96.83291        3.51284        3.65470        6.11689     -111.10021
1716.00000      102.49120        3.50280        3.64223        6.11970     -109.54353
1716.50000      107.87622        3.49601        3.62948        6.12195     -107.16906
1717.00000      111.81592        3.49407        3.61710        6.12420     -105.36947
1717.50000      115.39431        3.49213        3.60476        6.12701     -104.43626
1718.00000      117.16301        3.49019        3.59247        6.12926     -103.50710
1718.50000      117.72022        3.48954        3.59611        6.13151     -102.95444
1719.00000      114.36962        3.49436        3.61073        6.13433     -102.96857
1719.50000      112.58882        3.49919        3.62542        6.13658     -101.36331
1720.00000      108.09351        3.50403        3.64016        6.13883     -101.78229
1720.50000      105.53237        3.50888        3.65496        6.14166     -102.20127
1721.00000      104.60874        3.51860        3.66983        6.14391     -103.90362
1721.50000      103.47165        3.53617        3.68475        6.14617     -104.25378
1722.00000      100.85585        3.55383        3.69973        6.14899     -105.42578
1722.50000       96.92531        3.57158        3.71684        6.15125     -107.48034
1723.00000       92.72453        3.58941        3.73540        6.16601     -110.12599
1723.50000       88.91848        3.60434        3.75405        6.19909     -111.09961
1724.00000       86.17303        3.61466        3.77280        6.23292     -110.95585
1724.50000       84.96914        3.62501        3.79164        6.26636     -110.81614
1725.00000       85.39275        3.63539        3.80460        6.30056     -109.61573
1725.50000       87.05215        3.64579        3.81338        6.34126     -108.41532
1726.00000       89.31882        3.65623        3.82218        6.36059     -106.83840
1726.50000       98.46892        3.64612        3.83135        6.35705     -105.26147
1727.00000      101.74671        3.63603        3.84019        6.35352     -104.36470
1727.50000      103.00227        3.62630        3.84905        6.34999     -106.53950
1728.00000      102.18096        3.61627        3.85651        6.35408     -110.05152
1728.50000      100.04491        3.63232        3.85757        6.38699     -114.22749
1729.00000       94.72068        3.65517        3.85863        6.42066     -116.55736
1729.50000       88.88937        3.67818        3.85969        6.45391     -118.88317
1730.00000       92.17019        3.70132        3.86075        6.48794     -120.28593
1730.50000       97.11797        3.72496        3.86146        6.52154     -118.88310
1731.00000       99.05975        3.73417        3.86252        6.55592     -117.48026
1731.50000      100.92259        3.72590        3.86387        6.58988     -117.49439
1732.00000      103.61435        3.71800        3.86493        6.60447     -117.10368
1732.50000      106.26057        3.71011        3.86599        6.54017     -115.76966
1733.00000      111.98566        3.70223        3.86705        6.47650     -114.43160
1733.50000      116.79073        3.69404        3.86847        6.43359     -113.90729
1734.00000      113.36210        3.70803        3.87204        6.47050     -113.92142
1734.50000      112.29485        3.72758        3.87525        6.50761     -113.93555
1735.00000      112.42392        3.74688        3.87882        6.54494     -113.94968
1735.50000      111.88803        3.76455        3.88239        6.58248     -114.54275
1736.00000      110.35925        3.78056        3.88561        6.62084     -116.00219
1736.50000      108.56024        3.79698        3.88919        6.65882     -114.66818
1737.00000      105.68331        3.81313        3.92162        6.69701     -114.94951
1737.50000      102.64850        3.83854        3.96198        6.73543     -116.08507
1738.00000       98.58223        3.86591        4.00277        6.79409     -117.51617
