~Version ---------------------------------------------------
VERS. 2.0 : CWLS LOG ASCII STANDARD - VERSION 2.0
WRAP. NO  : One line per depth step
DLM . SPACE : Column Data Section Delimiter
~Well ------------------------------------------------------
STRT.F          500 : START DEPTH
STOP.F       2022.5 : STOP DEPTH
STEP.F          0.5 : STEP
NULL.       -999.25 : NULL VALUE
COMP.                 WALSH & WATTS, INC. : COMPANY
WELL.                          HYNDS A 10 : WELL
FLD .                           N. NOCONA : FIELD
CNTY.                            MONTAGUE : COUNTY
STAT.                               TEXAS : STATE
CTRY.                                 USA : COUNTRY
SEC .                                     : SECTION
TWP .                                     : TOWNSHIP
RGE .                                     : RANGE
LOC .  244' SE OF NO. 5A J.J. WALL SURVEY : LOCATION
EKB .F                    903.5 : ELEVATION KELLY BUSHING
EDF .F                          : ELEVATION DERRICK FLOOR
EGL .F                      897 : ELEVATION GROUND LEVEL
PDAT.                        GL : PERMANENT DATUM
EPD .                           : ELEVATION PERMANENT DATUM
APD .                         6 : ABOVE PERMANENT DATUM
LMF .                           : LOG MEASURED FROM
DMF .                           : DRILLING MEASURED FROM
API .            42337037830000 : API NUMBER
UWI .            42337037830000 : UWI NUMBER
DIGC.                     NthDS : DIGITIZING COMPANY
~Params ----------------------------------------------------
SRVC.                LANE WELLS : LOGGING COMPANY
LOG .                       GRN : LOG
DATE.                1957-11-30 : RUN DATE
RUN .                         1 : RUN NUMBER
TDD .F                     2039 : TOTAL DEPTH DRILLER
TDL .F                     2015 : TOTAL DEPTH LOGGER
BOTL.F                     2023 : BOTTOM LOGGED INTERVAL
TOPL.F                      500 : TOP LOGGED INTERVAL
CSGS.IN                     5.5 : CASING SIZE
CSGD.F                     2038 : CASING DRILLER
CSGL.F                          : CASING LOGGER
BS  .IN                    8.75 : BIT SIZE
MUD .                     WATER : MUD TYPE
MUDD.                           : MUD DENSITY
MUDV.                           : MUD VISCOSITY
PH  .                           : MUD PH
FL  .                           : FLUID LOSS
MUDS.                           : SOURCE OF SAMPLE
RM  .OHMM                       : MUD RESISTIVITY
RMT .DEGF                       : RM TEMPERATURE
RMF .OHMM                       : MUD FILTRATE RESISTIVITY
RMFT.DEGF                       : RMF TEMPERATURE
RMC .OHMM                       : MUD CAKE RESISTIVITY
RMCT.DEGF                       : RMC TEMPERATURE
RMFS.                           : RMF SOURCE
RMCS.                           : RMC SOURCE
RMBH.OHMM                       : MUD RESISTIVITY AT BHT
BHT .DEGF                       : BOTTOM HOLE TEMPERATURE
TIMC.                           : TIME CIRCULATION STOPPED
TIML.                           : TIME LOGGER ON BOTTOM
TMAX.DEGF                       : MAXIMUM RECORDED TEMPERATURE
UNIT.                           : EQUIPMENT NUMBER
BASE.                           : BASE LOCATION
ENG .                   ROBERTS : RECORDED BY
WIT .                       NIX : WITNESSED BY
~Curve Information -----------------------------------------
DEPT.F          :DEPTH
GRN.GAPI        :
NEUT.API        :
~ASCII ------------------------------------------------------
# ...
700.00000       32.53989     2265.93402
700.50000       31.48380     2261.39358
701.00000       31.88249     2194.29857
701.50000       31.87432     2090.04518
702.00000       32.04969     2021.26691
702.50000       31.46919     2080.99541
703.00000       30.54799     2125.33930
703.50000       29.90419     2104.52482
704.00000       31.20072     2103.43885
704.50000       31.65366     2079.90944
705.00000       35.92396     1986.87777
705.50000       39.61198     1899.99996
706.00000       40.40851     1811.31218
706.50000       38.79094     1817.95472
707.00000       36.48620     1876.47055
707.50000       34.95904     1957.91850
708.00000       36.54219     2021.26691
708.50000       34.64433     2093.66509
709.00000       31.25460     2147.96373
709.50000       29.24734     2192.30762
710.00000       29.31240     2193.21259
710.50000       27.66951     2192.12662
711.00000       26.02662     2158.82346
711.50000       27.44069     2108.14473
712.00000       30.05565     2038.40718
712.50000       33.30515     1968.66963
713.00000       36.82229     1884.99543
713.50000       35.85480     1875.74656
714.00000       36.01028     1874.66059
714.50000       36.33665     1827.60177
715.00000       35.43336     1855.34838
715.50000       34.65665     1858.73299
716.00000       33.97940     1903.61986
716.50000       33.21173     1977.82800
717.00000       33.45401     2030.31668
717.50000       34.05705     2071.69224
718.00000       34.11850     2084.61532
718.50000       33.06421     2081.90039
719.00000       32.01083     2098.73297
719.50000       32.35817     2083.71034
720.00000       32.87621     2091.85514
720.50000       31.62121     2130.22617
721.00000       31.23057     2129.86418
721.50000       32.13560     2126.24427
722.00000       32.54334     2140.72391
722.50000       33.07133     2133.48409
723.00000       34.12735     2153.39359
723.50000       33.29910     2120.81441
724.00000       34.76199     2075.56555
724.50000       34.08474     2004.97732
725.00000       34.60098     1923.52936
725.50000       33.92102     1808.97734
726.00000       34.34684     1743.05880
726.50000       35.76091     1781.33934
727.00000       35.79161     1845.70132
727.50000       34.34600     1836.65155
728.00000       34.50419     1841.35743
728.50000       35.57106     1892.76014
729.00000       36.63703     1966.96827
729.50000       36.27533     2037.55650
730.00000       33.39374     2118.09948
730.50000       32.35031     2160.03613
731.00000       31.23002     2171.49314
731.50000       29.24174     2139.69224
732.00000       29.31494     2109.35740
732.50000       30.25614     2133.48409
733.00000       29.62409     2157.61079
733.50000       31.13219     2173.90038
734.00000       33.13396     2109.50219
734.50000       35.25960     2017.64700
735.00000       35.18813     1961.53841
735.50000       34.63114     2017.64700
736.00000       36.66653     2069.04971
736.50000       36.14028     2115.20355
737.00000       36.27677     2109.95468
737.50000       35.14744     2114.47957
738.00000       37.04704     2026.69677
738.50000       39.00721     1957.91850
739.00000       38.09759     1902.40720
739.50000       38.91401     1905.42982
740.00000       40.55412     1881.17643
740.50000       40.88500     1891.85516
741.00000       39.65170     1869.23073
741.50000       39.13267     1885.52032
742.00000       37.32523     1851.13118
742.50000       37.05485     1834.84159
743.00000       37.61448     1858.37100
743.50000       38.99617     1898.19000
744.00000       37.56395     1948.86873
744.50000       37.93281     2017.64700
745.00000       36.31795     2115.38455
745.50000       35.04848     2154.67866
746.00000       33.04664     2165.46599
746.50000       33.80700     2026.69677
747.00000       35.52577     1930.76918
747.50000       37.29607     1880.99543
748.00000       38.91176     1880.99543
748.50000       39.23541     1905.42982
749.00000       37.15672     1985.06782
749.50000       38.06175     2052.03614
750.00000       37.02541     2083.52935
750.50000       36.96299     2023.03517
751.00000       35.17363     1966.12461
751.50000       32.97468     1886.63049
752.00000       33.58766     1879.40375
752.50000       35.14639     1895.66391
753.00000       37.06425     1890.24386
753.50000       38.70435     1884.82381
754.00000       39.33813     1868.88885
754.50000       38.43484     1906.66662
755.00000       37.89322     1944.44440
755.50000       38.07492     1933.60429
756.00000       35.58935     2011.29172
756.50000       35.29998     2087.17247
757.00000       32.13992     2163.41456
757.50000       29.98618     2224.84183
758.00000       30.62900     2178.71718
758.50000       32.11268     2014.90509
759.00000       33.92187     1848.09391
759.50000       35.81333     1812.55642
760.00000       37.70479     1906.75696
760.50000       38.30963     1941.19236
761.00000       35.49224     1976.06137
761.50000       34.90270     2008.76236
762.00000       35.78060     2112.46606
762.50000       34.67116     2188.34681
763.00000       33.11507     2172.77319
763.50000       34.83384     2085.92586
764.00000       36.55260     1999.06047
764.50000       35.58512     1961.06589
765.00000       36.22884     1938.77141
765.50000       36.12138     1915.17611
766.00000       34.68012     1925.25741
766.50000       35.41607     1910.56906
767.00000       33.39343     1920.95750
767.50000       34.87350     1913.36942
768.00000       36.35448     1933.60429
768.50000       35.67903     1985.99814
769.00000       34.48189     2043.81204
769.50000       34.12110     2107.04600
770.00000       30.41492     2144.98638
770.50000       29.96371     2197.90417
771.00000       28.60834     2253.38745
771.50000       27.34339     2237.57896
772.00000       29.15257     2176.78403
772.50000       32.54403     2108.85269
773.00000       35.03133     2096.20590
773.50000       35.48428     2049.23210
774.00000       33.97792     2000.19868
774.50000       34.71748     2025.99813
775.00000       35.15506     2008.03969
775.50000       34.07094     2044.40825
776.00000       32.86656     2039.83734
776.50000       31.60161     2064.04691
777.00000       30.24624     2109.10562
777.50000       29.34295     2151.00264
778.00000       29.29861     2142.72802
778.50000       30.64667     2067.29894
779.00000       32.70919     1992.14087
779.50000       34.42796     1948.05776
780.00000       34.04908     1984.64313
780.50000       34.53187     2045.61873
781.00000       33.71176     2092.59253
781.50000       30.95133     2139.56632
782.00000       29.29036     2179.31338
782.50000       30.69538     2193.98366
783.00000       31.55882     2200.09026
783.50000       32.04974     2130.53290
784.00000       33.81733     1991.41819
784.50000       35.09668     1925.47421
785.00000       34.41943     1940.37935
785.50000       35.23403     1940.83103
786.00000       37.65804     1977.56092
786.50000       38.15168     1971.54466
787.00000       36.62904     2018.51846
787.50000       34.92105     2081.75242
788.00000       33.33964     2134.14627
788.50000       29.67868     2178.28357
789.00000       26.01771     2173.11646
789.50000       26.63973     2290.60515
790.00000       25.35037     2475.93485
790.50000       21.40911     2670.56898
791.00000       17.70293     2838.15703
791.50000       14.17759     2987.69631
792.00000       11.55640     3154.92303
792.50000        9.71278     3168.05763
793.00000        9.56899     3098.26541
793.50000        8.66570     3028.45511
794.00000        8.69279     2954.52558
794.50000        9.08968     3009.48493
795.00000        9.69271     3064.44427
795.50000        9.39250     3062.78212
796.00000        9.75503     3073.62223
796.50000        8.67091     3014.90498
797.00000       10.11843     3027.55177
797.50000        9.73972     3050.73154
798.00000        9.54800     3023.93840
798.50000       10.03079     3017.01880
799.00000       11.50091     2985.09469
799.50000       12.23234     2944.26362
