~Version ---------------------------------------------------
VERS. 2.0 : CWLS LOG ASCII STANDARD - VERSION 2.0
WRAP. NO  : One line per depth step
DLM . SPACE : Column Data Section Delimiter
~Well ------------------------------------------------------
STRT.F          100 : START DEPTH
STOP.F       1786.5 : STOP DEPTH
STEP.F          0.5 : STEP
NULL.       -999.25 : NULL VALUE
COMP.                 WALSH & WATTS, INC. : COMPANY
WELL.                         SALMON E 41 : WELL
FLD .                        NORTH NOCONA : FIELD
CNTY.                            MONTAGUE : COUNTY
STAT.                               TEXAS : STATE
CTRY.                                 USA : COUNTRY
SEC .                                     : SECTION
TWP .                                     : TOWNSHIP
RGE .                                     : RANGE
LOC . 300' N OF NO. 40
150' W OF EL & 385' E OF NO. 87
F. ROBERTSON SURVEY : LOCATION
EKB .F                          : ELEVATION KELLY BUSHING
EDF .F                          : ELEVATION DERRICK FLOOR
EGL .F                      878 : ELEVATION GROUND LEVEL
PDAT.              GROUND LEVEL : PERMANENT DATUM
EPD .                       878 : ELEVATION PERMANENT DATUM
APD .                           : ABOVE PERMANENT DATUM
LMF .                        KB : LOG MEASURED FROM
DMF .                        KB : DRILLING MEASURED FROM
API .            42337037790000 : API NUMBER
UWI .            42337037790000 : UWI NUMBER
DIGC.                     NthDS : DIGITIZING COMPANY
~Params ----------------------------------------------------
SRVC.                LANE WELLS : LOGGING COMPANY
LOG .                       IEL : LOG
DATE.                1965-12-01 : RUN DATE
RUN .                         1 : RUN NUMBER
TDD .F                     1790 : TOTAL DEPTH DRILLER
TDL .F                     1791 : TOTAL DEPTH LOGGER
BOTL.F                     1787 : BOTTOM LOGGED INTERVAL
TOPL.F                      100 : TOP LOGGED INTERVAL
CSGS.IN                         : CASING SIZE
CSGD.F                          : CASING DRILLER
CSGL.F                          : CASING LOGGER
BS  .IN                       9 : BIT SIZE
MUD .                       GEL : MUD TYPE
MUDD.                        10 : MUD DENSITY
MUDV.                        80 : MUD VISCOSITY
PH  .                       9.0 : MUD PH
FL  .                       6.8 : FLUID LOSS
MUDS.                       PIT : SOURCE OF SAMPLE
RM  .OHMM                  1.95 : MUD RESISTIVITY
RMT .DEGF                    74 : RM TEMPERATURE
RMF .OHMM                   1.5 : MUD FILTRATE RESISTIVITY
RMFT.DEGF                    74 : RMF TEMPERATURE
RMC .OHMM                   2.3 : MUD CAKE RESISTIVITY
RMCT.DEGF                    74 : RMC TEMPERATURE
RMFS.                  MEASURED : RMF SOURCE
RMCS.                           : RMC SOURCE
RMBH.OHMM                   1.5 : MUD RESISTIVITY AT BHT
BHT .DEGF                    97 : BOTTOM HOLE TEMPERATURE
TIMC.                           : TIME CIRCULATION STOPPED
TIML.                           : TIME LOGGER ON BOTTOM
TMAX.DEGF                    97 : MAXIMUM RECORDED TEMPERATURE
UNIT.                    L-5172 : EQUIPMENT NUMBER
BASE.                      W.F. : BASE LOCATION
ENG .             ADAMS & BAKER : RECORDED BY
WIT .                   MR. NIX : WITNESSED BY
~Curve Information -----------------------------------------
DEPT.F          :DEPTH
CILD.MMHO       :
ILD.OHMM        :
ROP.FT/HR       :
SN.OHMM         :
SP.MV           :
~ASCII ------------------------------------------------------
# ...
1754.50000      326.29490        3.03810        -999.25        4.07155      -50.26052
1755.00000      327.68933        3.12618        -999.25        4.23175      -54.74734
1755.50000      337.22120        3.15012        -999.25        4.43195      -61.92792
1756.00000      353.58574        2.86746        -999.25        4.55231      -68.21114
1756.50000      397.95824        2.61093        -999.25        4.55314      -74.49436
1757.00000      451.19529        2.35439        -999.25        4.47429      -78.68178
1757.50000      495.56779        2.09786        -999.25        4.27593      -80.17460
1758.00000      539.93034        1.84132        -999.25        3.91820      -80.46982
1758.50000      579.88053        1.66407        -999.25        3.56047      -79.26803
1759.00000      592.62953        1.60515        -999.25        3.12323      -77.76685
1759.50000      584.33272        1.62112        -999.25        2.92486      -75.06807
1760.00000      552.89846        1.77471        -999.25        2.80618      -70.27349
1760.50000      508.22715        1.90303        -999.25        2.76717      -62.48408
1761.00000      471.00604        2.03096        -999.25        2.72816      -55.29430
1761.50000      436.63354        2.15888        -999.25        2.80549      -49.30212
1762.00000      413.59569        2.28721        -999.25        2.88322      -46.60334
1762.50000      400.19928        2.41513        -999.25        2.93960      -45.70096
1763.00000      393.22717        2.49263        -999.25        2.95637      -46.29558
1763.50000      390.43832        2.49346        -999.25        2.97314      -46.29140
1764.00000      397.60964        2.49430        -999.25        2.98991      -46.58662
1764.50000      399.40246        2.49513        -999.25        3.00668      -46.88100
1765.00000      398.28693        2.49596        -999.25        3.02345      -46.27802
1765.50000      392.71920        2.49680        -999.25        3.04022      -45.37564
1766.00000      387.16143        2.54003        -999.25        3.06034      -44.17386
1766.50000      381.59370        2.57592        -999.25        3.07712      -42.97208
1767.00000      377.62956        2.61182        -999.25        3.09389      -41.17150
1767.50000      375.54789        2.62540        -999.25        3.13456      -40.56852
1768.00000      373.97418        2.63341        -999.25        3.18161      -40.26494
1768.50000      372.40048        2.64141        -999.25        3.21193      -39.96052
1769.00000      370.83673        2.64942        -999.25        3.17770      -39.65694
1769.50000      367.74908        2.65879        -999.25        3.13647      -39.05396
1770.00000      364.28295        2.67835        -999.25        3.10225      -37.85218
1770.50000      360.12956        2.71543        -999.25        3.16005      -37.54860
1771.00000      356.66343        2.75252        -999.25        3.21786      -37.84382
1771.50000      354.91044        2.78961        -999.25        3.25973      -38.43844
1772.00000      355.74709        2.82670        -999.25        3.23825      -38.73366
1772.50000      356.57378        2.80642        -999.25        3.21296      -39.02888
1773.00000      356.26502        2.78232        -999.25        3.19148      -39.92290
1773.50000      355.94629        2.76244        -999.25        3.17040      -40.51668
1774.00000      355.57777        2.76049        -999.25        3.14893      -40.81190
1774.50000      358.74510        2.78642        -999.25        3.12745      -40.80772
1775.00000      361.91243        2.74303        -999.25        3.09442      -41.10294
1775.50000      372.79888        2.68251        -999.25        3.01398      -41.39816
1776.00000      387.31083        2.57674        -999.25        2.91738      -41.69338
1776.50000      404.38254        2.43256        -999.25        2.83694      -41.98860
1777.00000      434.66142        2.28837        -999.25        2.75650      -42.88262
1777.50000      459.89050        2.14459        -999.25        2.67606      -44.07604
1778.00000      482.79887        2.00040        -999.25        2.59562      -46.76562
1778.50000      496.41440        1.94865        -999.25        2.51518      -49.75544
1779.00000      510.02994        1.89729        -999.25        2.43474      -53.34406
1779.50000      521.53392        1.84554        -999.25        2.33813      -54.83688
1780.00000      524.65145        1.80471        -999.25        2.33697      -53.03630
1780.50000      529.57177        1.80554        -999.25        2.35613      -50.93632
1781.00000      534.17336        1.80637        -999.25        2.30996      -49.73454
1781.50000      540.50802        1.80721        -999.25        2.21995      -48.23336
1782.00000      553.78492        1.73992        -999.25        2.15226      -46.73218
1782.50000      567.06181        1.67223        -999.25        2.11724      -46.72800
1783.00000      593.89447        1.60493        -999.25        2.07561      -50.20800
1783.50000      624.10363        1.52386        -999.25        2.04059      -54.55709
1784.00000      660.35861        1.45657        -999.25        2.00557      -54.49902
1784.50000      673.51598        1.38888        -999.25        1.97055      -53.29724
1785.00000      686.68331        1.33115        -999.25        1.93593      -54.09246
1785.50000      697.63948        1.31206        -999.25        1.90090      -56.32180
1786.00000      699.77095        1.29696        -999.25        1.81505      -59.49725
1786.50000        -999.25        1.31294        -999.25        1.89557      -59.32840
