~Version ---------------------------------------------------
VERS. 2.0 : CWLS LOG ASCII STANDARD - VERSION 2.0
WRAP. NO  : One line per depth step
DLM . SPACE : Column Data Section Delimiter
~Well ------------------------------------------------------
STRT.F          572 : START DEPTH
STOP.F       1770.0 : STOP DEPTH
STEP.F          0.5 : STEP
NULL.       -999.25 : NULL VALUE
COMP.         WALSH & WATTS, INCORPORATED : COMPANY
WELL.                         SALMON E 44 : WELL
FLD .                             REGULAR : FIELD
CNTY.                            MONTAGUE : COUNTY
STAT.                               TEXAS : STATE
CTRY.                                 USA : COUNTRY
SEC .                                     : SECTION
TWP .                                     : TOWNSHIP
RGE .                                     : RANGE
LOC . 300' WEST OF NO 23, 300' SOUTH OF D-9, F.ROBERTSON SURV. : LOCATION
EKB .F                      862 : ELEVATION KELLY BUSHING
EDF .F                          : ELEVATION DERRICK FLOOR
EGL .F                      856 : ELEVATION GROUND LEVEL
PDAT.                        GL : PERMANENT DATUM
EPD .                       856 : ELEVATION PERMANENT DATUM
APD .                         6 : ABOVE PERMANENT DATUM
LMF .                        KB : LOG MEASURED FROM
DMF .                        KB : DRILLING MEASURED FROM
API .            42337038720000 : API NUMBER
UWI .                           : UWI NUMBER
DIGC.                     NthDS : DIGITIZING COMPANY
~Params ----------------------------------------------------
SRVC.              SCHLUMBERGER : LOGGING COMPANY
LOG .                     SONIC : LOG
DATE.                1965-11-28 : RUN DATE
RUN .                         1 : RUN NUMBER
TDD .F                     1179 : TOTAL DEPTH DRILLER
TDL .F                     1179 : TOTAL DEPTH LOGGER
BOTL.F                     1170 : BOTTOM LOGGED INTERVAL
TOPL.F                      600 : TOP LOGGED INTERVAL
CSGS.IN                         : CASING SIZE
CSGD.F                          : CASING DRILLER
CSGL.F                          : CASING LOGGER
BS  .IN                   7.875 : BIT SIZE
MUD .                       GEL : MUD TYPE
MUDD.                        10 : MUD DENSITY
MUDV.                        98 : MUD VISCOSITY
PH  .                           : MUD PH
FL  .                           : FLUID LOSS
MUDS.                CIRCULATED : SOURCE OF SAMPLE
RM  .OHMM                   2.0 : MUD RESISTIVITY
RMT .DEGF                    81 : RM TEMPERATURE
RMF .OHMM                   1.5 : MUD FILTRATE RESISTIVITY
RMFT.DEGF                    81 : RMF TEMPERATURE
RMC .OHMM                       : MUD CAKE RESISTIVITY
RMCT.DEGF                       : RMC TEMPERATURE
RMFS.                         M : RMF SOURCE
RMCS.                           : RMC SOURCE
RMBH.OHMM                   1.6 : MUD RESISTIVITY AT BHT
BHT .DEGF                   100 : BOTTOM HOLE TEMPERATURE
TIMC.                           : TIME CIRCULATION STOPPED
TIML.                           : TIME LOGGER ON BOTTOM
TMAX.DEGF                   100 : MAXIMUM RECORDED TEMPERATURE
UNIT.                      4559 : EQUIPMENT NUMBER
BASE.                       WFS : BASE LOCATION
ENG .                      FINK : RECORDED BY
WIT .                       NIX : WITNESSED BY
~Curve Information -----------------------------------------
DEPT.F          :DEPTH
CALS.IN         :
DT.US/F         :
SP.MV           :
~ASCII ------------------------------------------------------
# ...
1653.50000        7.82342       94.85927      -55.16095
1654.00000        7.85022       95.09050      -54.41838
1654.50000        7.85410       94.84460      -53.67580
1655.00000        7.85873       94.59870      -52.93323
1655.50000        7.86262       94.98797      -52.19065
1656.00000        7.86651       95.48659      -51.56760
1656.50000        7.85406       96.42059      -51.12382
1657.00000        7.81751       96.49775      -50.26173
1657.50000        7.77976       95.97451      -49.50122
1658.00000        7.73684       95.40953      -49.84032
1658.50000        7.60846       94.08710      -50.87263
1659.00000        7.46613       94.02310      -52.37108
1659.50000        7.32898       97.18172      -51.62851
1660.00000        7.00996       98.89953      -51.86899
1660.50000        6.51166       98.59200      -53.57959
1661.00000        6.01336       98.15425      -51.71651
1661.50000        5.71426       97.52466      -51.19803
1662.00000        5.71397       97.06106      -51.35187
1662.50000        5.71367       97.06665      -52.10331
1663.00000        5.71337       96.28795      -51.27707
1663.50000        5.71308       95.50925      -50.70481
1664.00000        5.71278       95.18283      -51.13354
1664.50000        5.71249       95.53334      -51.82224
1665.00000        5.71219       95.34708      -52.78284
1665.50000        5.71190       94.87255      -53.88687
1666.00000        5.71154       96.64451      -52.20904
1666.50000        5.71125       98.23755      -54.23128
1667.00000        5.71095       98.83657      -54.23571
1667.50000        5.71066       98.26761      -55.79393
1668.00000        5.71036       98.91632      -57.74058
1668.50000        5.71006       98.84489      -56.04183
1669.00000        5.70977       97.08012      -54.36102
1669.50000        5.70947       95.93463      -56.40329
1670.00000        5.70918       97.26227      -58.44556
1670.50000        5.70888       97.94080      -58.26175
1671.00000        5.70859       97.64520      -58.45442
1671.50000        6.06686       97.11103      -59.32240
1672.00000        6.59783       95.64944      -60.65352
1672.50000        7.06228       94.00793      -61.05835
1673.00000        7.39066       95.06618      -59.24905
1673.50000        7.44017       95.06481      -55.71266
1674.00000        7.50362       94.73441      -58.63042
1674.50000        7.62284       95.91195      -60.51732
1675.00000        7.71976       97.08948      -59.98390
1675.50000        7.72783       96.38236      -58.49432
1676.00000        7.73590       93.56591      -58.83640
1676.50000        7.74855       88.94631      -59.63864
1677.00000        7.80164       86.62986      -60.44088
1677.50000        7.91350       89.12149      -58.45229
1678.00000        7.93551       91.78708      -56.59219
1678.50000        7.93522       92.90796      -54.93528
1679.00000        7.93492       92.78034      -54.69170
1679.50000        7.93463       92.24272      -54.44514
1680.00000        7.93433       91.74831      -54.20157
1680.50000        7.93404       92.24792      -53.95799
1681.00000        7.93374       92.94634      -53.92956
1681.50000        7.93345       93.19745      -54.76168
1682.00000        7.93315       92.10663      -55.59678
1682.50000        7.91473       90.76730      -56.59712
1683.00000        7.89630       91.36632      -58.26290
1683.50000        7.84601       88.72482      -61.36891
1684.00000        7.78755       80.53668      -64.47791
1684.50000        7.81215       69.80332      -66.82197
1685.00000        7.82441       67.15487      -65.95091
1685.50000        7.83646       69.51032      -66.86371
1686.00000        7.84871       76.98201      -67.75260
1686.50000        7.86077       84.88065      -66.51102
1687.00000        7.87302       87.01344      -64.27443
1687.50000        7.88508       89.07466      -62.62050
1688.00000        7.88319       91.88987      -63.30621
1688.50000        7.86949       89.34726      -63.98892
1689.00000        7.85804       85.98012      -65.15570
1689.50000        7.85336       90.47722      -65.19300
1690.00000        7.87518       92.44699      -63.50920
1690.50000        7.86831       87.82739      -63.68992
1691.00000        7.85048       83.75398      -63.87065
1691.50000        7.96234       88.15068      -63.66293
1692.00000        8.00686       93.42160      -61.91040
1692.50000        7.97469       94.16674      -60.15787
1693.00000        7.80707       90.19325      -58.40534
1693.50000        7.88645       90.02985      -59.25240
1694.00000        7.84353       89.33664      -60.67017
1694.50000        7.82610       86.42378      -61.75926
1695.00000        7.82581       86.06157      -62.85134
1695.50000        7.82551       84.20834      -64.64859
1696.00000        7.82522       83.78053      -66.44584
1696.50000        7.73946       87.53159      -69.27098
1697.00000        7.65391       89.87809      -71.33505
1697.50000        7.58588       85.00104      -76.41914
1698.00000        7.58878       73.99982      -80.95642
1698.50000        7.59147       59.04187      -82.30547
1699.00000        7.59436       58.29896      -79.72824
1699.50000        7.59725       74.25613      -77.15400
1700.00000        7.62967       92.34492      -75.79815
1700.50000        7.63257       99.48317      -75.30358
1701.00000        7.70378       98.58759      -70.92457
1701.50000        7.79193       96.96847      -63.95792
1702.00000        7.67206       93.76953      -69.86372
1702.50000        7.63192       92.82704      -77.89999
1703.00000        7.60673       94.46237      -83.09464
1703.50000        7.58153       92.24645      -86.20663
1704.00000        7.57944       92.16623      -82.65530
1704.50000        7.59269       94.38590      -72.55121
1705.00000        7.60594       94.21786      -66.22998
1705.50000        7.61919       92.68057      -66.08589
1706.00000        7.60595       92.09437      -65.86622
1706.50000        7.54111       95.14384      -68.48519
1707.00000        7.69560      100.11645      -61.61714
1707.50000        7.77239      104.61054      -57.13952
1708.00000        7.70829      103.01637      -58.63797
1708.50000        7.64166      100.22409      -68.50292
1709.00000        7.62702       95.20781      -83.26226
1709.50000        7.62533       93.14358      -93.81147
1710.00000        7.62365       96.69505      -96.67036
1710.50000        7.62196       98.71811      -95.34811
1711.00000        7.62046       96.67485      -94.97007
1711.50000        7.61877       96.12857      -95.22251
1712.00000        7.61708       96.72798      -95.12834
1712.50000        7.61539       95.67671      -93.63875
1713.00000        7.61390       97.25415      -97.87723
1713.50000        7.61221       99.12001     -103.50813
1714.00000        7.61052       99.62162     -106.07331
1714.50000        7.60858       98.45958     -105.90742
1715.00000        7.60689       95.11194     -103.91884
1715.50000        7.60520       91.12958     -100.98603
1716.00000        7.61167       87.82884      -92.62486
1716.50000        7.65002       90.00707      -84.41220
1717.00000        7.68857       91.88591      -77.39386
1717.50000        7.72692       92.88651      -70.45200
1718.00000        7.67643       93.88711      -70.38174
1718.50000        7.56657       92.55941      -67.80451
1719.00000        7.56508       90.77861      -65.23027
1719.50000        7.62435       90.30219      -65.91298
1720.00000        7.63700       91.75189      -66.98415
1720.50000        7.65238       93.12726      -66.34914
1721.00000        7.66503       91.60794      -65.71413
1721.50000        7.67769       89.81364      -65.63191
1722.00000        7.67520       87.87017      -67.84151
1722.50000        7.66913       90.17567      -71.01924
1723.00000        7.66305       91.86788      -68.86631
1723.50000        7.65678       92.13796      -67.01219
1724.00000        7.65071       91.68748      -66.21970
1724.50000        7.64444       91.47653      -66.40640
