~Version ---------------------------------------------------
VERS. 2.0 : CWLS LOG ASCII STANDARD - VERSION 2.0
WRAP. NO  : One line per depth step
DLM . SPACE : Column Data Section Delimiter
~Well ------------------------------------------------------
STRT.F          100 : START DEPTH
STOP.F       2271.5 : STOP DEPTH
STEP.F          0.5 : STEP
NULL.       -999.25 : NULL VALUE
COMP.                       WALSH & WATTS : COMPANY
WELL.                        SALMON E 24  : WELL
FLD .                               NORTH : FIELD
CNTY.                            MONTAGUE : COUNTY
STAT.                               TEXAS : STATE
CTRY.                                 USA : COUNTRY
SEC .                                     : SECTION
TWP .                                     : TOWNSHIP
RGE .                                     : RANGE
LOC .                 SW CORNER OF LEAGUE : LOCATION
EKB .F                          : ELEVATION KELLY BUSHING
EDF .F                          : ELEVATION DERRICK FLOOR
EGL .F                      850 : ELEVATION GROUND LEVEL
PDAT.                        GL : PERMANENT DATUM
EPD .                       850 : ELEVATION PERMANENT DATUM
APD .                         5 : ABOVE PERMANENT DATUM
LMF .                        RT : LOG MEASURED FROM
DMF .                        RT : DRILLING MEASURED FROM
API .            42337038630000 : API NUMBER
UWI .                           : UWI NUMBER
DIGC.                     NthDS : DIGITIZING COMPANY
~Params ----------------------------------------------------
SRVC.               HALLIBURTON : LOGGING COMPANY
LOG .                        EL : LOG
DATE.                1950-09-25 : RUN DATE
RUN .                         1 : RUN NUMBER
TDD .F                     2272 : TOTAL DEPTH DRILLER
TDL .F                     2272 : TOTAL DEPTH LOGGER
BOTL.F                     2272 : BOTTOM LOGGED INTERVAL
TOPL.F                          : TOP LOGGED INTERVAL
CSGS.IN                         : CASING SIZE
CSGD.F                          : CASING DRILLER
CSGL.F                          : CASING LOGGER
BS  .IN                       9 : BIT SIZE
MUD .        WATER BASE AQUAGEL : MUD TYPE
MUDD.                       9.8 : MUD DENSITY
MUDV.                        39 : MUD VISCOSITY
PH  .                           : MUD PH
FL  .                           : FLUID LOSS
MUDS.                           : SOURCE OF SAMPLE
RM  .OHMM                   2.3 : MUD RESISTIVITY
RMT .DEGF                    70 : RM TEMPERATURE
RMF .OHMM                       : MUD FILTRATE RESISTIVITY
RMFT.DEGF                       : RMF TEMPERATURE
RMC .OHMM                       : MUD CAKE RESISTIVITY
RMCT.DEGF                       : RMC TEMPERATURE
RMFS.                           : RMF SOURCE
RMCS.                           : RMC SOURCE
RMBH.OHMM                       : MUD RESISTIVITY AT BHT
BHT .DEGF                       : BOTTOM HOLE TEMPERATURE
TIMC.                           : TIME CIRCULATION STOPPED
TIML.                           : TIME LOGGER ON BOTTOM
TMAX.DEGF                       : MAXIMUM RECORDED TEMPERATURE
UNIT.                           : EQUIPMENT NUMBER
BASE.                           : BASE LOCATION
ENG .                  HARRISON : RECORDED BY
WIT .                    DAWSON : WITNESSED BY
~Curve Information -----------------------------------------
DEPT.F          :DEPTH
ILD.OHMM        :
SN.OHMM         :
SP.MV           :
~ASCII ------------------------------------------------------
# ...
1334.00000        2.79080        2.89514      -20.79222
1334.50000        2.67686        2.91558      -20.85167
1335.00000        2.56291        2.93603      -20.91113
1335.50000        2.44897        2.95647      -20.97059
1336.00000        2.44020        3.01364      -21.96348
1336.50000        2.58751        3.09585      -22.62181
1337.00000        2.73567        3.17889      -23.28014
1337.50000        2.88382        3.26110      -23.60174
1338.00000        3.03197        3.30158      -23.59093
1338.50000        3.15174        3.27778      -22.91100
1339.00000        3.26484        3.23395      -22.90020
1339.50000        3.37710        3.21349      -24.22766
1340.00000        3.49019        3.19304      -24.55142
1340.50000        3.55738        3.17341      -24.87518
1341.00000        3.62456        3.14461      -24.86438
1341.50000        3.63415        3.10328      -24.51901
1342.00000        3.55777        3.06279      -24.17364
1342.50000        3.48055        3.02147      -23.49371
1343.00000        3.40417        3.02021      -22.81378
1343.50000        3.33864        3.04482      -23.13754
1344.00000        3.31901        3.06944      -23.12674
1344.50000        3.29856        3.09489      -23.78506
1345.00000        3.27810        3.01851      -24.77796
1345.50000        3.25764        3.02142      -25.77085
1346.00000        3.23359        3.02492      -25.76005
1346.50000        3.21313        2.86089      -25.08011
1347.00000        3.19435        2.86380      -25.06931
1347.50000        3.18223        2.86672      -24.72394
1348.00000        3.16929        2.86963      -24.71314
1348.50000        3.15718        2.87254      -24.70234
1349.00000        3.14423        2.87546      -24.35697
1349.50000        3.13212        2.87837      -23.67704
1350.00000        2.90067        2.67112      -23.41473
1350.50000        2.97913        2.66778      -22.73480
1351.00000        3.05676        2.65192      -22.72400
1351.50000        3.09182        2.63606      -24.38602
1352.00000        3.09766        2.61937      -24.37522
1352.50000        3.10434        2.60351      -25.03355
1353.00000        3.11018        2.58765      -25.35731
1353.50000        3.11603        2.58765      -25.34651
1354.00000        3.12187        2.58765      -25.00114
1354.50000        3.12771        2.58765      -23.65207
1355.00000        3.13356        2.58765      -22.97214
1355.50000        3.13940        2.58765      -22.96134
1356.00000        3.14608        2.58765      -23.28510
1356.50000        3.15192        2.58765      -23.27430
1357.00000        3.15776        2.60017      -23.59806
1357.50000        3.16361        2.61185      -23.92182
1358.00000        3.16945        2.62437      -23.57645
1358.50000        3.10601        2.63689      -23.56565
1359.00000        2.99499        2.64942      -23.88941
1359.50000        2.88481        2.66110      -24.21318
1360.00000        2.77462        2.67529      -24.53694
1360.50000        2.66361        2.69783      -25.19311
1361.00000        2.55342        2.71953      -25.51687
1361.50000        2.44240        2.74123      -25.50607
1362.00000        2.43406        2.67112      -25.16070
1362.50000        2.45075        2.75459      -24.48076
1363.00000        2.47078        2.75459      -23.46626
1363.50000        2.48748        2.75459      -23.12090
1364.00000        2.50417        2.75459      -23.11009
1364.50000        2.52087        2.75459      -23.76842
1365.00000        2.53756        2.75459      -23.75762
1365.50000        2.55426        2.75459      -23.41225
1366.00000        2.57095        2.77212      -23.40145
1366.50000        2.58765        2.79382      -23.05608
1367.00000        2.58765        2.81636      -23.04528
1367.50000        2.58765        2.83806      -23.36904
1368.00000        2.58765        2.67112      -23.69280
1368.50000        2.58765        2.75459      -24.01657
1369.00000        2.58765        2.67112      -24.34033
1369.50000        2.58765        2.67112      -24.99866
1370.00000        2.58765        2.67112      -25.32242
1370.50000        2.58765        2.74624      -25.30946
1371.00000        2.58765        2.73122      -24.62952
1371.50000        2.58765        2.71703      -24.28415
1372.00000        2.67112        2.70284      -23.93878
1372.50000        2.87980        2.68865      -24.26255
1373.00000        3.08848        2.67362      -24.25174
1373.50000        3.16277        2.68197      -23.90638
1374.00000        3.14691        2.69449      -23.89557
1374.50000        3.13189        2.70785      -23.88477
1375.00000        3.11603        2.72037      -24.20853
1375.50000        3.09766        2.73623      -25.20143
1376.00000        3.08848        2.74958      -25.52519
1376.50000        3.08848        2.74541      -25.51439
1377.00000        3.08848        2.73038      -25.16902
1377.50000        3.08848        2.71619      -24.82365
1378.00000        3.08848        2.70117      -24.47828
1378.50000        3.07262        2.68614      -24.13291
1379.00000        3.04674        2.67112      -23.78755
1379.50000        3.02087        2.67112      -23.77674
1380.00000        2.91068        2.67112      -24.76964
1380.50000        2.67613        2.67112      -26.09493
1381.00000        2.44157        2.67112      -27.08783
1381.50000        2.25376        2.67112      -26.74246
1382.00000        2.25376        2.67112      -26.06253
1382.50000        2.25376        2.74708      -26.05172
1383.00000        2.25376        2.82304      -26.37549
1383.50000        2.25376        2.89900      -26.69925
1384.00000        2.25376        2.97496      -26.35388
1384.50000        2.25376        3.08264      -26.00851
1385.00000        2.30384        3.21202      -25.32858
1385.50000        2.42905        3.34140      -25.31778
1386.00000        3.63606        3.47162      -25.30697
1386.50000        6.46411        3.60100      -25.29617
1387.00000        8.93906        3.73038      -24.95080
1387.50000       11.17779        3.83973      -24.94000
1388.00000       12.02003        3.57763      -24.92920
1388.50000       10.33556        3.30133      -24.91839
1389.00000        7.37562        3.11102      -24.90759
1389.50000        3.43656        2.92154      -24.56222
1390.00000        2.25376        2.92154      -23.21100
1390.50000        1.96160        2.92154      -22.57121
1391.00000        1.66945        2.92154      -22.06860
1391.50000        1.63689        2.92154      -21.56598
1392.00000        1.60351        2.83806      -21.17043
1392.50000        1.57095        2.92154      -21.21316
1393.00000        1.53756        2.92154      -21.25254
1393.50000        1.50501        2.92154      -21.29527
1394.00000        1.47162        2.92154      -21.33800
1394.50000        1.43906        2.92154      -21.37738
1395.00000        1.41903        2.92154      -21.42011
1395.50000        1.41903        2.83806      -21.75174
1396.00000        1.41903        2.83806      -21.74310
1396.50000        1.41903        2.83806      -22.40143
1397.00000        1.43740        2.83806      -23.05976
1397.50000        1.46077        2.75459      -23.38352
1398.00000        1.48414        2.91152      -22.70359
1398.50000        1.51002        2.88481      -22.35822
1399.00000        1.54841        2.85893      -22.68198
1399.50000        1.58598        2.83806      -23.00574
1400.00000        2.06260        2.83806      -23.74930
1400.50000        3.00501        3.00501      -24.07306
1401.00000        3.58931        3.00501      -24.73139
1401.50000        3.58931        3.00501      -25.38972
1402.00000        3.58931        3.00501      -25.37891
1402.50000        3.58931        2.99750      -24.69898
1403.00000        3.58931        2.97997      -24.35361
1403.50000        3.56344        2.96160      -24.00824
1404.00000        3.53172        2.94324      -23.99744
1404.50000        3.49916        2.92487      -23.31751
1405.00000        3.46745        2.90734      -23.30670
