~Version ---------------------------------------------------
VERS. 2.0 : CWLS LOG ASCII STANDARD - VERSION 2.0
WRAP. NO  : One line per depth step
DLM . SPACE : Column Data Section Delimiter
~Well ------------------------------------------------------
STRT.F        986.5 : START DEPTH
STOP.F       1761.0 : STOP DEPTH
STEP.F          0.5 : STEP
NULL.       -999.25 : NULL VALUE
COMP.                 WALSH & WATTS, INC. : COMPANY
WELL.                       SALMON D E 6D : WELL
FLD .                             REGULAR : FIELD
CNTY.                            MONTAGUE : COUNTY
STAT.                               TEXAS : STATE
CTRY.                                 USA : COUNTRY
SEC .                                     : SECTION
TWP .                                     : TOWNSHIP
RGE .                                     : RANGE
LOC .  460 FSL 755 FEL
F. ROBERTSON A-620 : LOCATION
EKB .F                      880 : ELEVATION KELLY BUSHING
EDF .F                      878 : ELEVATION DERRICK FLOOR
EGL .F                      874 : ELEVATION GROUND LEVEL
PDAT.                        GL : PERMANENT DATUM
EPD .                       874 : ELEVATION PERMANENT DATUM
APD .                           : ABOVE PERMANENT DATUM
LMF .                        KB : LOG MEASURED FROM
DMF .                        KB : DRILLING MEASURED FROM
API .            42337016430000 : API NUMBER
UWI .            42337016430000 : UWI NUMBER
DIGC.                     NthDS : DIGITIZING COMPANY
~Params ----------------------------------------------------
SRVC.              SCHLUMBERGER : LOGGING COMPANY
LOG .                      DIFL : LOG
DATE.                2005-08-03 : RUN DATE
RUN .                         1 : RUN NUMBER
TDD .F                     1750 : TOTAL DEPTH DRILLER
TDL .F                     1750 : TOTAL DEPTH LOGGER
BOTL.F                     1750 : BOTTOM LOGGED INTERVAL
TOPL.F                      980 : TOP LOGGED INTERVAL
CSGS.IN                       7 : CASING SIZE
CSGD.F                      980 : CASING DRILLER
CSGL.F                      980 : CASING LOGGER
BS  .IN                     6.5 : BIT SIZE
MUD .                       FGM : MUD TYPE
MUDD.                       0.2 : MUD DENSITY
MUDV.                        80 : MUD VISCOSITY
PH  .                        11 : MUD PH
FL  .                         7 : FLUID LOSS
MUDS.                       PIT : SOURCE OF SAMPLE
RM  .OHMM                  1.70 : MUD RESISTIVITY
RMT .DEGF                    70 : RM TEMPERATURE
RMF .OHMM                  1.33 : MUD FILTRATE RESISTIVITY
RMFT.DEGF                    70 : RMF TEMPERATURE
RMC .OHMM                  2.67 : MUD CAKE RESISTIVITY
RMCT.DEGF                    70 : RMC TEMPERATURE
RMFS.                      MEAS : RMF SOURCE
RMCS.                       CAL : RMC SOURCE
RMBH.OHMM                  1.41 : MUD RESISTIVITY AT BHT
BHT .DEGF                    98 : BOTTOM HOLE TEMPERATURE
TIMC.                     2100  : TIME CIRCULATION STOPPED
TIML.                     0300  : TIME LOGGER ON BOTTOM
TMAX.DEGF                    98 : MAXIMUM RECORDED TEMPERATURE
UNIT.                       303 : EQUIPMENT NUMBER
BASE.                  WITCHATA : BASE LOCATION
ENG .              DAVID PARKER : RECORDED BY
WIT .              MR. BURLESON : WITNESSED BY
~Curve Information -----------------------------------------
DEPT.F          :DEPTH
GRR.API         :
ILD.OHMM        :
ILM.OHMM        :
SFL.OHMM        :
SP.MV           :
~ASCII ------------------------------------------------------
# ...
1456.50000      102.46737        3.10421        3.22425        5.50126      -10.73405
1457.00000      102.77852        3.14647        3.29655        5.59880      -10.30316
1457.50000      104.28001        3.18930        3.37048        5.33005       -9.87227
1458.00000      105.71838        3.46197        3.76112        6.08017       -9.44138
1458.50000      106.08363        3.75795        4.19704        7.49849       -9.39125
1459.00000      105.77254        3.92122        4.14779        6.89625       -9.34111
1459.50000      105.98749        3.90530        4.09913        6.34239       -9.29098
1460.00000      107.66634        3.88910        4.05103        6.89541       -9.23683
1460.50000      110.57161        3.74908        4.00350        6.69138       -9.18670
1461.00000      114.77844        3.65460        3.96455        6.00450       -9.13656
1461.50000      118.66875        3.72419        3.92815        6.22856       -8.06841
1462.00000      121.02093        3.68457        3.89208        6.27337       -6.74777
1462.50000      114.20590        3.61827        3.85670        6.21577       -6.91406
1463.00000      114.40582        3.55350        3.82094        6.19681       -7.08436
1463.50000      117.85216        3.55050        3.78481        6.20243       -7.03021
1464.00000      120.30653        3.58857        3.74903        6.20805       -6.64341
1464.50000      120.59663        3.58555        3.72180        6.21368       -6.25661
1465.00000      120.64626        3.58252        3.72620        6.21931       -5.78965
1465.50000      119.97446        3.57950        3.73095        6.22552       -5.20245
1466.00000      121.22646        3.57648        3.73571        6.23116       -5.08418
1466.50000      125.37919        3.57346        3.74013        6.23680       -5.67131
1467.00000      124.59317        3.57045        3.74489        6.24246       -4.48572
1467.50000      122.27712        3.56744        3.74967        6.24869       -4.49691
1468.00000      120.76366        3.57758        3.75445        6.25781       -4.51090
1468.50000      117.44663        3.60763        3.75889        6.27965       -4.52489
1469.00000      119.08941        3.63794        3.76750        6.30215       -4.53888
1469.50000      123.91847        3.66850        3.78204        6.32414       -4.95367
1470.00000      122.67555        3.68775        3.79664        6.34680       -4.80734
1470.50000      116.35258        3.68973        3.81129        6.36954       -4.82935
1471.00000      111.98348        3.69211        3.82600        6.39177       -5.45655
1471.50000      110.31972        3.69444        3.84113        6.41467       -6.08776
1472.00000      110.72104        3.69642        3.85595        6.43706       -6.22599
1472.50000      115.03309        3.69841        3.87084        6.44646       -6.23998
1473.00000      119.54653        3.70040        3.88578        6.45289       -6.25397
1473.50000      124.19524        3.71365        3.90078        6.45874       -5.66958
1474.00000      124.50338        3.72730        3.91445        6.46588       -5.15452
1474.50000      121.91680        3.74066        3.92378        6.47174       -5.53323
1475.00000      119.32721        3.75440        3.93349        6.48059       -5.91194
1475.50000      117.08631        3.76786        3.94322        6.49005       -6.29065
1476.00000      116.98865        3.78135        3.95261        6.49952       -6.66936
1476.50000      119.38290        3.76081        3.95765        6.50900       -7.25649
1477.00000      120.95053        3.73177        3.94377        6.48796       -7.89571
1477.50000      121.87789        3.70296        3.92957        6.45984       -8.53494
1478.00000      124.20301        3.67437        3.91578        6.43599       -8.94972
1478.50000      126.87682        3.67432        3.90169        6.43056       -9.21621
1479.00000      129.55063        3.68104        3.88800        6.42514       -9.61095
1479.50000      130.61326        3.68777        3.87436        6.41972      -10.00570
1480.00000      130.78612        3.69485        3.86895        6.41431      -10.40445
1480.50000      130.36682        3.70194        3.87638        6.40889      -10.79919
1481.00000      129.44253        3.70940        3.88418        6.40349      -10.88933
1481.50000      127.76073        3.71652        3.89164        6.39809      -11.30691
1482.00000      124.33339        3.72366        3.89912        6.39269      -12.11969
1482.50000      120.81798        3.73115        3.90697        6.38730      -12.30201
1483.00000      116.77352        3.73832        3.91447        6.40251      -12.48032
1483.50000      112.08578        3.74171        3.91694        6.44857      -12.89110
1484.00000      108.55233        3.74406        3.91832        6.49496      -13.45017
1484.50000      106.28739        3.74642        3.91970        6.54168      -13.79281
1485.00000      106.57749        3.74878        3.92109        6.58874      -13.80680
1485.50000      107.31848        3.75114        3.92247        6.59349      -13.82079
1486.00000      109.13259        3.75385        3.92350        6.58793      -13.83478
1486.50000      111.21122        3.74550        3.92488        6.58237      -13.84877
1487.00000      113.29286        3.72996        3.92627        6.57682      -13.86276
1487.50000      115.37150        3.71448        3.90674        6.57127      -14.48875
1488.00000      117.23671        3.69906        3.88694        6.56573      -15.26825
1488.50000      118.22719        3.68405        3.86760        6.50185      -16.04375
1489.00000      117.17665        3.66876        3.84800        6.43860      -16.82325
1489.50000      116.12610        3.65892        3.82886        6.37654      -17.31418
1490.00000      114.88918        3.64910        3.80946        6.31451      -17.75702
1490.50000      113.88974        3.63932        3.79295        6.25308      -18.77299
1491.00000      113.66582        3.62956        3.78069        6.19224      -19.78896
1491.50000      116.36067        3.61982        3.76846        6.17620      -20.80493
1492.00000      119.05553        3.60082        3.75628        6.17099      -21.82090
1492.50000      122.26439        3.58224        3.74379        6.16579      -22.83687
1493.00000      122.94226        3.56343        3.73169        6.16059      -23.60034
1493.50000      121.93079        3.54505        3.71962        6.15539      -24.36782
1494.00000      121.08465        3.53326        3.70726        6.15020      -25.13129
1494.50000      120.90582        3.52379        3.69323        6.14501      -26.63222
1495.00000      120.73000        3.51213        3.67892        6.09981      -28.31751
1495.50000      120.55118        3.50238        3.66466        6.05439      -29.23328
1496.00000      120.98857        3.48432        3.65012        6.00986      -28.99477
1496.50000      122.09929        3.43362        3.63302        5.95642      -30.22717
1497.00000      124.26209        3.38366        3.61894        5.91261      -31.82429
1497.50000      125.79364        3.33443        3.54990        5.83786      -33.41740
1498.00000      125.87032        3.28621        3.48218        5.74392      -35.01452
1498.50000      125.17748        3.24078        3.41575        5.62656      -37.73665
1499.00000      123.31624        3.12210        3.35059        5.41401      -38.65242
1499.50000      120.26975        2.99063        3.28667        5.20950      -39.04316
1500.00000      117.53553        2.75887        3.09364        4.73531      -41.69647
1500.50000      114.82989        2.52818        2.88509        4.37838      -43.59779
1501.00000      110.94721        2.31678        2.55911        4.04834      -45.49912
1501.50000      103.53344        2.12403        2.36577        3.68969      -45.87130
1502.00000       92.91753        1.95074        2.18684        3.36281      -47.67203
1502.50000       76.72823        1.89446        2.02854        3.26095      -49.14278
1503.00000       72.06992        1.87823        1.90740        3.17829      -50.11052
