~Version ---------------------------------------------------
VERS. 2.0 : CWLS LOG ASCII STANDARD - VERSION 2.0
WRAP. NO  : One line per depth step
DLM . SPACE : Column Data Section Delimiter
~Well ------------------------------------------------------
STRT.F          194 : START DEPTH
STOP.F       1764.0 : STOP DEPTH
STEP.F          0.5 : STEP
NULL.       -999.25 : NULL VALUE
COMP.                 WALSH & WATTS, INC. : COMPANY
WELL.                         SALMON E 42 : WELL
FLD .                        NORTH NOCONA : FIELD
CNTY.                            MONTAGUE : COUNTY
STAT.                               TEXAS : STATE
CTRY.                                 USA : COUNTRY
SEC .                                     : SECTION
TWP .                                     : TOWNSHIP
RGE .                                     : RANGE
LOC . 150' FSL & 300' W OF WELL NO. 1, 407' E OF WELL NO. 5, F. ROBERTSON SURVEY : LOCATION
EKB .F                      880 : ELEVATION KELLY BUSHING
EDF .F                          : ELEVATION DERRICK FLOOR
EGL .F                      874 : ELEVATION GROUND LEVEL
PDAT.              GROUND LEVEL : PERMANENT DATUM
EPD .                       874 : ELEVATION PERMANENT DATUM
APD .                         6 : ABOVE PERMANENT DATUM
LMF .                        KB : LOG MEASURED FROM
DMF .                        KB : DRILLING MEASURED FROM
API .            42337037780000 : API NUMBER
UWI .            42337037780000 : UWI NUMBER
DIGC.                     NthDS : DIGITIZING COMPANY
~Params ----------------------------------------------------
SRVC.                LANE WELLS : LOGGING COMPANY
LOG .                       IEL : LOG
DATE.                1965-11-21 : RUN DATE
RUN .                         1 : RUN NUMBER
TDD .F                     1766 : TOTAL DEPTH DRILLER
TDL .F                     1768 : TOTAL DEPTH LOGGER
BOTL.F                     1764 : BOTTOM LOGGED INTERVAL
TOPL.F                      200 : TOP LOGGED INTERVAL
CSGS.IN                         : CASING SIZE
CSGD.F                          : CASING DRILLER
CSGL.F                          : CASING LOGGER
BS  .IN                   7.875 : BIT SIZE
MUD .              CHEMICAL GEL : MUD TYPE
MUDD.                       9.8 : MUD DENSITY
MUDV.                       123 : MUD VISCOSITY
PH  .                           : MUD PH
FL  .                           : FLUID LOSS
MUDS.                CIRCULATED : SOURCE OF SAMPLE
RM  .OHMM                   2.1 : MUD RESISTIVITY
RMT .DEGF                    70 : RM TEMPERATURE
RMF .OHMM                  1.81 : MUD FILTRATE RESISTIVITY
RMFT.DEGF                    70 : RMF TEMPERATURE
RMC .OHMM                  2.34 : MUD CAKE RESISTIVITY
RMCT.DEGF                    70 : RMC TEMPERATURE
RMFS.                  MEASURED : RMF SOURCE
RMCS.                           : RMC SOURCE
RMBH.OHMM                   1.5 : MUD RESISTIVITY AT BHT
BHT .DEGF                    98 : BOTTOM HOLE TEMPERATURE
TIMC.                           : TIME CIRCULATION STOPPED
TIML.                           : TIME LOGGER ON BOTTOM
TMAX.DEGF                    98 : MAXIMUM RECORDED TEMPERATURE
UNIT.                    L-4553 : EQUIPMENT NUMBER
BASE.                      W.F. : BASE LOCATION
ENG .                     ADAMS : RECORDED BY
WIT .   MR. HARRELSON & MR. NIX : WITNESSED BY
~Curve Information -----------------------------------------
DEPT.F          :DEPTH
CILD.MMHO       :
ILD.OHMM        :
ROP.MIN/FT      :
SN.OHMM         :
SP.MV           :
~ASCII ------------------------------------------------------
# ...
1189.50000      408.14307        2.48521        1.98396        3.31361      -50.98817
1190.00000      394.24039        2.60355        1.50975        3.43195      -50.39528
1190.50000      380.33771        2.64300        1.50285        3.55029      -50.09884
1191.00000      370.40723        2.72189        1.49721        3.70809      -50.09884
1191.50000      359.48369        2.80079        1.49148        3.78698      -50.98817
1192.00000      348.56016        2.91913        1.98446        4.02367      -52.76682
1192.50000      338.62967        2.95858        1.98455        4.26035      -55.43481
1193.00000      328.69919        3.03747        1.98465        4.57594      -58.99212
1193.50000      327.70614        2.99803        1.98474        4.93097      -65.51385
1194.00000      334.65748        2.91913        1.50065        5.36489      -75.29646
1194.50000      344.58796        2.84024        1.50074        5.60158      -82.41108
1195.00000      354.51845        2.72189        1.50086        5.44379      -84.78262
1195.50000      370.40723        2.64300        1.50095        5.00986      -83.00397
1196.00000      380.33771        2.60355        1.96547        4.57594      -78.55733
1196.50000      388.28210        2.56410        1.96557        4.33925      -72.33203
1197.00000      389.27515        2.56410        1.96566        4.45759      -66.10674
1197.50000      387.28905        2.60355        1.96576        4.69428      -61.95654
1198.00000      382.32381        2.64300        1.51131        5.20710      -61.36366
1198.50000      377.35857        2.64300        1.51140        5.95661      -64.03164
1199.00000      373.38637        2.68245        1.51152        6.70611      -69.07117
1199.50000      371.40028        2.64300        1.51161        7.17949      -75.29646
1200.00000      372.39332        2.68245        1.50795        7.29783      -82.11464
1200.50000      374.37942        2.64300        1.50805        6.30375      -82.70753
1201.00000      375.37247        2.68245        1.50814        5.48323      -80.03954
1201.50000      373.38637        2.72189        1.50824        5.16765      -75.59290
1202.00000      365.44198        2.84024        1.96468        5.28599      -68.77472
1202.50000      350.54626        2.91913        1.96152        5.83826      -63.43876
1203.00000      332.67138        2.99803        1.95884        6.62722      -63.73520
1203.50000      317.67635        3.19527        1.95616        7.41617      -69.36761
1204.00000      301.58896        3.31361        2.96706        8.59960      -82.11464
1204.50000      302.38340        3.27416        2.96716        8.67850      -89.22926
1205.00000      317.63663        3.03747        2.96725        8.00789      -92.19369
1205.50000      344.58796        2.87968        2.96737        6.94280      -92.19369
1206.00000      372.39332        2.72189        1.98532        5.58422      -89.82215
1206.50000      406.15697        2.40631        1.98413        4.45759      -85.37551
1207.00000      436.94148        2.28797        1.98293        3.82643      -79.15021
1207.50000      458.78855        2.13018        1.98184        3.58974      -72.33203
1208.00000      479.64257        2.05128        1.98064        3.35306      -66.10674
1208.50000      489.57305        2.09073        1.97945        3.19527      -63.73520
1209.00000      485.60086        2.01183        1.97826        3.19527      -61.95654
1209.50000      474.67732        2.13018        1.97688        3.15582      -58.99212
1210.00000      459.78160        2.20907        2.46229        3.11637      -56.91702
1210.50000      445.87892        2.28797        2.46527        3.07692      -55.73125
1211.00000      436.94148        2.28797        2.46834        3.03747      -54.84192
1211.50000      434.95538        2.28797        2.47131        3.03747      -54.24904
1212.00000      435.94843        2.32742        3.07378        2.99803      -52.17394
1212.50000      439.92062        2.20907        3.47469        2.99803      -50.09884
1213.00000      443.89282        2.24852        3.47479        3.03747      -48.91307
1213.50000      447.86501        2.20907        3.47488        2.99803      -47.72730
1214.00000      454.81635        2.20907        2.97895        3.03747      -48.02374
1214.50000      462.76074        2.13018        2.97904        2.99803      -48.32018
1215.00000      470.70513        2.09073        2.97914        3.03747      -48.61663
1215.50000      476.66342        2.09073        2.97923        3.07692      -49.20951
1216.00000      476.66342        2.16962        2.47338        3.15582      -49.80240
1216.50000      464.74684        2.16962        2.47498        3.19527      -51.28461
1217.00000      447.86501        2.24852        2.47626        3.23471      -51.87749
1217.50000      426.01794        2.40631        2.47755        3.27416      -50.98817
1218.00000      404.17088        2.52465        2.47884        3.35306      -48.91307
1218.50000      385.30295        2.64300        2.48012        3.51085      -47.43085
1219.00000      373.38637        2.68245        2.48151        3.66864      -46.83797
1219.50000      360.47674        2.80079        2.48279        3.86588      -48.61663
1220.00000      348.56016        2.84024        2.48408        4.18146      -51.58105
1220.50000      349.55321        2.80079        -999.25        4.33925      -54.24904
1221.00000      361.46979        2.72189        -999.25        4.10256      -54.54548
1221.50000      379.34466        2.56410        -999.25        3.82643      -55.73125
1222.00000      400.19868        2.44576        -999.25        3.55029      -56.62058
1222.50000      419.06661        2.36686        -999.25        3.39250      -56.32413
1223.00000      429.99014        2.32742        -999.25        3.35306      -55.73125
1223.50000      436.94148        2.28797        -999.25        3.27416      -54.84192
1224.00000      441.90672        2.24852        -999.25        3.23471      -54.54548
1224.50000      449.85111        2.16962        -999.25        3.15582      -55.73125
1225.00000      455.80940        2.20907        -999.25        2.99803      -56.62058
1225.50000      458.78855        2.13018        -999.25        2.95858      -57.50990
1226.00000      456.80245        2.20907        -999.25        2.99803      -56.91702
1226.50000      454.81635        2.13018        -999.25        3.07692      -56.02769
1227.00000      454.81635        2.16962        -999.25        3.11637      -57.21346
1227.50000      456.80245        2.13018        -999.25        3.03747      -59.28856
1228.00000      459.78160        2.16962        -999.25        2.95858      -60.17789
1228.50000      466.73294        2.13018        -999.25        2.95858      -59.88144
1229.00000      469.71208        2.05128        -999.25        2.91913      -59.88144
1229.50000      470.70513        2.09073        -999.25        2.91913      -59.88144
1230.00000      471.69818        2.09073        -999.25        2.91913      -58.69567
1230.50000      472.69123        2.09073        -999.25        2.91913      -56.32413
1231.00000      470.70513        2.09073        -999.25        2.84024      -52.47038
1231.50000      468.71903        2.09073        -999.25        2.84024      -48.61663
1232.00000      461.76769        2.20907        -999.25        2.84024      -42.98422
1232.50000      450.84416        2.20907        -999.25        2.91913      -41.20556
1233.00000      438.92758        2.28797        -999.25        3.03747      -41.50200
1233.50000      429.99014        2.32742        -999.25        3.11637      -41.50200
1234.00000      420.05965        2.32742        -999.25        3.31361      -42.39133
1234.50000      411.12222        2.44576        -999.25        3.47140      -43.87354
1235.00000      402.18478        2.52465        -999.25        3.58974      -44.46643
1235.50000      392.25429        2.52465        -999.25        3.62919      -44.16999
1236.00000      384.30991        2.56410        -999.25        3.66864      -43.87354
