~Version ---------------------------------------------------
VERS. 2.0 : CWLS LOG ASCII STANDARD - VERSION 2.0
WRAP. NO  : One line per depth step
DLM . SPACE : Column Data Section Delimiter
~Well ------------------------------------------------------
STRT.F          800 : START DEPTH
STOP.F       1756.5 : STOP DEPTH
STEP.F          0.5 : STEP
NULL.       -999.25 : NULL VALUE
COMP.                 WALSH & WATTS, INC. : COMPANY
WELL.                       SALMON D E 6D : WELL
FLD .                             REGULAR : FIELD
CNTY.                            MONTAGUE : COUNTY
STAT.                               TEXAS : STATE
CTRY.                                 USA : COUNTRY
SEC .                                     : SECTION
TWP .                                     : TOWNSHIP
RGE .                                     : RANGE
LOC .  460 FSL 755 FEL
F. ROBERTSON A-620 : LOCATION
EKB .F                      880 : ELEVATION KELLY BUSHING
EDF .F                      878 : ELEVATION DERRICK FLOOR
EGL .F                      874 : ELEVATION GROUND LEVEL
PDAT.                        GL : PERMANENT DATUM
EPD .                       874 : ELEVATION PERMANENT DATUM
APD .                           : ABOVE PERMANENT DATUM
LMF .                        KB : LOG MEASURED FROM
DMF .                        KB : DRILLING MEASURED FROM
API .            42337016430000 : API NUMBER
UWI .            42337016430000 : UWI NUMBER
DIGC.                     NthDS : DIGITIZING COMPANY
~Params ----------------------------------------------------
SRVC.              SCHLUMBERGER : LOGGING COMPANY
LOG .                   CNFD/ML : LOG
DATE.                2005-08-03 : RUN DATE
RUN .                         1 : RUN NUMBER
TDD .F                     1750 : TOTAL DEPTH DRILLER
TDL .F                     1750 : TOTAL DEPTH LOGGER
BOTL.F                     1750 : BOTTOM LOGGED INTERVAL
TOPL.F                      980 : TOP LOGGED INTERVAL
CSGS.IN                       7 : CASING SIZE
CSGD.F                      880 : CASING DRILLER
CSGL.F                      880 : CASING LOGGER
BS  .IN                     6.5 : BIT SIZE
MUD .                       FGM : MUD TYPE
MUDD.                       0.2 : MUD DENSITY
MUDV.                        80 : MUD VISCOSITY
PH  .                        11 : MUD PH
FL  .                         7 : FLUID LOSS
MUDS.                       PIT : SOURCE OF SAMPLE
RM  .OHMM                  1.70 : MUD RESISTIVITY
RMT .DEGF                    70 : RM TEMPERATURE
RMF .OHMM                  1.33 : MUD FILTRATE RESISTIVITY
RMFT.DEGF                    70 : RMF TEMPERATURE
RMC .OHMM                  2.67 : MUD CAKE RESISTIVITY
RMCT.DEGF                    70 : RMC TEMPERATURE
RMFS.                      MEAS : RMF SOURCE
RMCS.                       CAL : RMC SOURCE
RMBH.OHMM                  1.47 : MUD RESISTIVITY AT BHT
BHT .DEGF                    98 : BOTTOM HOLE TEMPERATURE
TIMC.                     2100  : TIME CIRCULATION STOPPED
TIML.                     0300  : TIME LOGGER ON BOTTOM
TMAX.DEGF                    98 : MAXIMUM RECORDED TEMPERATURE
UNIT.                       303 : EQUIPMENT NUMBER
BASE.                   WICHITA : BASE LOCATION
ENG .              DAVID PARKER : RECORDED BY
WIT .              MR. BURLESON : WITNESSED BY
~Curve Information -----------------------------------------
DEPT.F          :DEPTH
CALD.IN         :
DPHI.%          :
GRD.GAPI        :
MINV.OHMM       :
MNOR.OHMM       :
NPHI.%          :
~ASCII ------------------------------------------------------
# ...
1360.00000        6.00181       12.06864       79.98990        6.53808        5.53326       20.87655
1360.50000        6.00484       12.55942       80.49796        6.58021        5.77432       20.89910
1361.00000        5.99254       12.72598       82.28526        6.67304        6.10510       20.92125
1361.50000        5.97581       12.72636       84.07256        6.76666        6.39453       20.94380
1362.00000        5.95907       12.80109       86.18949        6.85950        6.52482       21.07600
1362.50000        5.94214       13.04350       88.30643        6.84311        6.52482       21.18207
1363.00000        5.94839       13.32071       88.55744        6.66290        6.28219       21.18245
1363.50000        5.96996       13.20245       87.55038        6.48269        5.97872       21.19589
1364.00000        5.99173       12.75198       86.67337        6.55836        6.15581       21.21844
1364.50000        6.00101       12.94615       87.24796        6.69723        6.33368       21.11748
1365.00000        6.00726       12.97421       85.88708        6.83687        6.28375       20.87521
1365.50000        6.01371       12.30227       83.61893        6.88602        6.17765       20.61512
1366.00000        6.01613       11.32582       81.89514        6.89070        6.07077       20.39303
1366.50000        6.01613       10.58665       80.44353        6.83063        5.96468       20.11631
1367.00000        6.01613       10.87178       80.14111        6.77056        5.91631       19.98962
1367.50000        6.01613       11.76199       83.81248        6.75886        5.95531       19.86254
1368.00000        6.01613       12.80050       86.31954        6.81113        5.91163       19.79285
1368.50000        5.99294       12.61303       87.65018        6.91099        5.74468       19.91397
1369.00000        5.95403       11.18968       87.39917        6.88992        6.12148       19.87761
1369.50000        5.91532       11.12243       88.15522        6.86964        6.05673       19.84751
1370.00000        5.91956       11.65038       88.30643        6.84936        5.99198       20.05294
1370.50000        5.92460       12.36737       91.02820        6.83687        6.11212       20.43215
1371.00000        5.92883       12.50617       91.67538        7.03191        6.44680       20.88776
1371.50000        5.93306       12.48361       92.32558        7.51950        6.88680       21.18899
1372.00000        5.92883       12.30444       92.91832        7.22694        6.74794       21.62481
1372.50000        5.91048       11.98330       94.11288        7.39389        6.60829       22.21896
1373.00000        5.88689       11.89588       95.86691        7.34397        6.57709       22.96157
1373.50000        5.86310       11.86541       96.77417        7.26595        6.70659       23.53474
1374.00000        5.83952       12.43536       98.28627        7.36347        6.77524       24.04102
1374.50000        5.83468       12.97359       99.79836        7.22694        6.80333       24.04140
1375.00000        5.84758       13.34572      100.40320        7.26595        6.83141       23.93292
1375.50000        5.86915       13.44101       98.82457        7.14893        6.52482       24.08175
1376.00000        5.89093       13.14874       95.46469        6.68085        6.13475       24.00810
1376.50000        5.87278       12.64567       92.94252        6.17375        5.74468       23.88458
1377.00000        5.84476       12.09673       90.42336        6.11524        5.78602       23.32285
1377.50000        5.81673       12.28773       87.14816        6.68085        5.82659       22.61862
1378.00000        5.79435       12.66382       83.86994        7.22694        5.86794       22.03828
1378.50000        5.79435       12.63375       80.84575        6.92425        5.91631       21.60006
1379.00000        5.79435       12.50243       77.99091        6.97028        5.99432       20.93065
1379.50000        5.79435       12.85874       76.90220        7.01553        6.07233       20.42316
1380.00000        5.80161       12.97223       76.91430        7.06155        6.15035       20.12665
1380.50000        5.82359       12.89905       77.62196        7.01865        6.23226       19.90416
1381.00000        5.84395       12.89152       77.11692        7.18014        6.35787       19.73155
1381.50000        5.86734       12.84049       75.60482        7.12943        6.52482       19.53408
1382.00000        5.89052       12.86064       76.96571        6.83687        6.57085       19.44975
1382.50000        5.90524       12.58418       78.88909        6.87198        6.61687       19.68329
1383.00000        5.90948       12.81038       80.38304        6.90787        6.66212       20.08942
1383.50000        5.88085       12.68777       81.00603        6.85794        6.64184       20.46071
1384.00000        5.85202       12.33222       81.27518        6.78694        6.57709       20.72354
1384.50000        5.83468       11.68599       81.16933        6.82595        6.46241       20.89691
1385.00000        5.83468       12.62563       80.65825        6.83687        6.15035       21.12015
1385.50000        5.83468       13.69388       78.93143        6.73936        5.97092       21.23375
1386.00000        5.83468       14.61533       79.48184        7.00850        6.32198       21.14546
1386.50000        5.83468       14.47413       80.85482        7.32056        6.51389       20.92337
1387.00000        5.83468       14.22496       82.25804        6.99290        6.06765       20.61696
1387.50000        5.83185       13.50557       84.46268        6.61531        6.16595       20.56786
1388.00000        5.82843       13.21329       87.70159        6.67694        6.30872       20.30421
1388.50000        5.82500       13.34023       87.45058        6.73858        6.42886       20.08370
1389.00000        5.82137       13.85473       88.91127        6.80021        6.52482       20.08606
1389.50000        5.81794       12.82686       92.31349        6.88914        6.26503       20.17353
1390.00000        5.81452       12.04301       94.23385        6.35319        5.83127       20.34412
1390.50000        5.79718       11.87847       92.31953        6.33758        5.84531       20.56222
1391.00000        5.78286       12.24942       89.43445        6.73311        6.34616       20.74469
1391.50000        5.76835       12.58674       86.00804        6.85638        6.24787       21.05384
1392.00000        5.75403       12.87266       81.77417        6.75886        5.99978       21.46313
1392.50000        5.77077       13.50620       78.71671        6.92581        5.95297       21.95445
1393.00000        5.78770       14.13460       77.41934        6.85248        6.03957       21.95047
1393.50000        5.80444       14.39204       76.12196        6.79397        6.29077       21.84279
1394.00000        5.81956       14.19271       74.33466        6.85248        6.53886       21.69828
1394.50000        5.83226       13.74382       72.21772        6.91099        6.60985       21.56289
1395.00000        5.83468       13.27279       70.10079        6.96950        6.68085       21.56327
1395.50000        5.83468       12.71277       68.57357        7.26049        6.57475       21.28655
1396.00000        5.83468       11.07191       68.95160        7.92907        6.46787       20.69315
1396.50000        5.83468       10.97342       66.53224        7.30496        6.70659       19.98100
1397.00000        5.83468       11.55555       65.85180        7.89006        6.78460       19.19957
1397.50000        5.83589       12.50073       66.98587        8.11084        6.69801       18.45773
1398.00000        5.83891       13.87153       67.89313        8.61560        6.89928       17.82870
1398.50000        5.84173       14.03326       70.72377        7.72624        7.17233       17.44906
1399.00000        5.84476       12.83415       74.07155        7.51950        6.80177       17.29110
1399.50000        5.84778       12.51815       77.41934        7.20276        6.26971       17.29148
