~Version ---------------------------------------------------
VERS. 2.0 : CWLS LOG ASCII STANDARD - VERSION 2.0
WRAP. NO  : One line per depth step
DLM . SPACE : Column Data Section Delimiter
~Well ------------------------------------------------------
STRT.F          780 : START DEPTH
STOP.F       1761.5 : STOP DEPTH
STEP.F          0.5 : STEP
NULL.       -999.25 : NULL VALUE
COMP.                 WALSH & WATTS, INC. : COMPANY
WELL.                         SALMON E 42 : WELL
FLD .                        NORTH NOCONA : FIELD
CNTY.                            MONTAGUE : COUNTY
STAT.                               TEXAS : STATE
CTRY.                                 USA : COUNTRY
SEC .                                     : SECTION
TWP .                                     : TOWNSHIP
RGE .                                     : RANGE
LOC . 150' FSL & 300' W OF WELL NO. 1, 407' E OF WELL NO. 5, F. ROBERTSON SURVEY : LOCATION
EKB .F                      880 : ELEVATION KELLY BUSHING
EDF .F                          : ELEVATION DERRICK FLOOR
EGL .F                      874 : ELEVATION GROUND LEVEL
PDAT.              GROUND LEVEL : PERMANENT DATUM
EPD .                       874 : ELEVATION PERMANENT DATUM
APD .                         6 : ABOVE PERMANENT DATUM
LMF .                        KB : LOG MEASURED FROM
DMF .                        KB : DRILLING MEASURED FROM
API .            42337037780000 : API NUMBER
UWI .            42337037780000 : UWI NUMBER
DIGC.                     NthDS : DIGITIZING COMPANY
~Params ----------------------------------------------------
SRVC.                LANE WELLS : LOGGING COMPANY
LOG .                        AC : LOG
DATE.                1965-11-21 : RUN DATE
RUN .                         1 : RUN NUMBER
TDD .F                     1766 : TOTAL DEPTH DRILLER
TDL .F                     1768 : TOTAL DEPTH LOGGER
BOTL.F                     1762 : BOTTOM LOGGED INTERVAL
TOPL.F                      790 : TOP LOGGED INTERVAL
CSGS.IN                         : CASING SIZE
CSGD.F                          : CASING DRILLER
CSGL.F                          : CASING LOGGER
BS  .IN                   7.875 : BIT SIZE
MUD .              CHEMICAL GEL : MUD TYPE
MUDD.                       9.8 : MUD DENSITY
MUDV.                       123 : MUD VISCOSITY
PH  .                           : MUD PH
FL  .                           : FLUID LOSS
MUDS.                CIRCULATED : SOURCE OF SAMPLE
RM  .OHMM                   2.1 : MUD RESISTIVITY
RMT .DEGF                    70 : RM TEMPERATURE
RMF .OHMM                  1.81 : MUD FILTRATE RESISTIVITY
RMFT.DEGF                    70 : RMF TEMPERATURE
RMC .OHMM                  2.34 : MUD CAKE RESISTIVITY
RMCT.DEGF                    70 : RMC TEMPERATURE
RMFS.                  MEASURED : RMF SOURCE
RMCS.                           : RMC SOURCE
RMBH.OHMM                   1.5 : MUD RESISTIVITY AT BHT
BHT .DEGF                    98 : BOTTOM HOLE TEMPERATURE
TIMC.                           : TIME CIRCULATION STOPPED
TIML.                           : TIME LOGGER ON BOTTOM
TMAX.DEGF                    98 : MAXIMUM RECORDED TEMPERATURE
UNIT.                    L-4553 : EQUIPMENT NUMBER
BASE.                      W.F. : BASE LOCATION
ENG .                     ADAMS : RECORDED BY
WIT .   MR. HARRELSON & MR. NIX : WITNESSED BY
~Curve Information -----------------------------------------
DEPT.F          :DEPTH
CALI.IN         :
DT.US/F         :
SP.MV           :
~ASCII ------------------------------------------------------
# ...
1428.00000        7.84407       93.93035      -48.02374
1428.50000        7.86225       93.33334      -48.32018
1429.00000        7.87747       94.82588      -48.91307
1429.50000        7.84091       93.82190      -48.91307
1430.00000        7.80435       92.19404      -49.80240
1430.50000        7.76798       92.24677      -51.28461
1431.00000        7.73142       94.06170      -53.06326
1431.50000        7.68755       95.57413      -53.65615
1432.00000        7.65099       97.08657      -53.65615
1432.50000        7.61462       98.59901      -53.35971
1433.00000        7.57806       99.26369      -52.76682
1433.50000        7.54150       99.36319      -52.17394
1434.00000        7.59545       99.46269      -51.28461
1434.50000        7.66008       98.63981      -50.09884
1435.00000        7.71403       96.91543      -49.80240
1435.50000        7.76779       95.09155      -49.50595
1436.00000        7.73617       93.80996      -50.09884
1436.50000        7.68281       94.69752      -50.69172
1437.00000        7.65573       95.58608      -50.69172
1437.50000        7.73261       96.64976      -50.39528
1438.00000        7.85534       97.49851      -48.32018
1438.50000        7.98320       96.21891      -46.83797
1439.00000        8.11107       95.15324      -43.87354
1439.50000        8.20711       95.26369      -42.39133
1440.00000        8.17530       94.84080      -40.61267
1440.50000        8.14348       93.54030      -39.72335
1441.00000        8.10553       92.23881      -39.13046
1441.50000        8.07371       94.22886      -39.13046
1442.00000        8.04190       95.84279      -39.13046
1442.50000        8.05435       97.10349      -38.24113
1443.00000        8.07787       96.51742      -36.75892
1443.50000        8.10138       95.52239      -35.57315
1444.00000        8.12964       95.94528      -34.98027
1444.50000        8.12569       97.31344      -35.27671
1445.00000        8.11462       98.26369      -35.57315
1445.50000        8.10356       99.21294      -35.57315
1446.00000        8.10534       98.75921      -34.98027
1446.50000        8.15771       97.79304      -34.68382
1447.00000        8.22036       96.98906      -34.68382
1447.50000        8.27273       96.18408      -35.27671
1448.00000        8.24624       95.37911      -35.57315
1448.50000        8.21956       94.57413      -36.46248
1449.00000        8.19308       94.13831      -37.35181
1449.50000        8.16660       95.17911      -38.24113
1450.00000        8.13992       96.21891      -39.72335
1450.50000        8.09663       94.08956      -40.77384
1451.00000        8.07004       92.75821      -42.26193
1451.50000        8.04345       92.86866      -43.75003
1452.00000        8.01667       93.13433      -44.64288
1452.50000        7.99008       94.67662      -44.64288
1453.00000        7.96349       96.24578      -44.94050
1453.50000        7.93671       96.81095      -46.42860
1454.00000        7.91012       97.37712      -47.02383
1454.50000        7.89980       97.94229      -47.02383
1455.00000        7.89246       98.38906      -46.13098
1455.50000        7.88611       97.79503      -46.42860
1456.00000        7.89702       97.20100      -45.83336
1456.50000        7.91190       96.60697      -45.83336
1457.00000        7.92698       96.01394      -45.53574
1457.50000        7.94206       95.41991      -44.94050
1458.00000        7.95714       94.82588      -45.53574
1458.50000        7.97202       94.88160      -45.83336
1459.00000        7.97936       95.01195      -46.72622
1459.50000        7.95020       95.52936      -47.61907
1460.00000        7.92599       95.96020      -47.91669
1460.50000        7.90159       95.94030      -47.91669
1461.00000        7.87738       95.24379      -47.61907
1461.50000        7.85317       95.38508      -47.32145
1462.00000        7.82897       96.53234      -46.13098
1462.50000        7.80476       97.68060      -45.83336
1463.00000        7.78036       97.83085      -45.53574
1463.50000        7.76409       98.18408      -45.23812
1464.00000        7.75913       98.74428      -44.64288
1464.50000        7.75476       99.20996      -44.34526
1465.00000        7.75059       98.72637      -43.75003
1465.50000        7.74623       98.00498      -43.45241
1466.00000        7.74206       97.28359      -43.45241
1466.50000        7.73790       96.56219      -43.45241
1467.00000        7.73353       95.27364      -43.75003
1467.50000        7.72936       94.26866      -44.04764
1468.00000        7.72500       94.60200      -44.64288
1468.50000        7.72004       94.45871      -44.94050
1469.00000        7.71567       95.33831      -45.53574
1469.50000        7.71151       96.21891      -45.53574
1470.00000        7.70714       96.46767      -44.64288
1470.50000        7.80278       96.71642      -43.15479
1471.00000        7.92321       96.96518      -41.36907
1471.50000        8.04365       97.49254      -40.47622
1472.00000        7.92857       98.43782      -40.17860
1472.50000        8.08730       98.50747      -40.47622
1473.00000        8.10317       97.01493      -40.47622
1473.50000        7.97083       96.78607      -40.77384
1474.00000        7.99940       98.12936      -40.77384
1474.50000        8.06806       98.98508      -40.17860
1475.00000        8.12520       98.28856      -39.58336
1475.50000        8.13631       98.67364      -39.88098
1476.00000        8.12302       97.01493      -40.47622
1476.50000        8.03254       96.57712      -41.96431
1477.00000        7.91468       96.87264      -43.15479
1477.50000        7.77341       95.67165      -44.64288
1478.00000        7.79306       96.41792      -45.83336
1478.50000        7.90476       96.88259      -45.53574
1479.00000        8.01627       96.21891      -44.64288
1479.50000        8.08532       95.55523      -42.85717
1480.00000        8.09028       94.89254      -41.66669
1480.50000        8.09524       94.22886      -40.77384
1481.00000        8.10020       94.18309      -40.77384
1481.50000        8.09881       95.06269      -41.36907
1482.00000        8.08552       96.11941      -41.66669
1482.50000        8.09980       97.67463      -41.66669
1483.00000        8.12063       98.05971      -41.66669
1483.50000        8.14127       96.69155      -41.36907
1484.00000        8.16190       95.32339      -41.07146
1484.50000        8.18254       95.26767      -41.66669
1485.00000        8.13552       95.43782      -41.07146
1485.50000        8.08849       96.50946      -40.77384
1486.00000        8.04147       97.58110      -40.17860
1486.50000        8.03710       96.38906      -39.88098
1487.00000        8.11964       94.36418      -40.47622
1487.50000        8.20238       92.33831      -41.07146
1488.00000        8.10317       94.12140      -42.26193
1488.50000        8.00397       95.90349      -43.45241
1489.00000        7.90476       95.60200      -44.94050
1489.50000        7.80556       93.91045      -46.42860
1490.00000        7.76766       93.76418      -47.91669
1490.50000        7.77083       94.64876      -49.40479
1491.00000        7.77440       94.26568      -51.19050
1491.50000        7.77738       94.21095      -52.08336
1492.00000        7.78056       94.91344      -52.67860
1492.50000        7.78353       95.61593      -52.97621
1493.00000        7.78671       96.31841      -52.97621
1493.50000        7.78968       96.31841      -52.67860
1494.00000        7.79266       98.47463      -51.48812
1494.50000        7.79583      100.62986      -50.00002
1495.00000        7.79881      102.78607      -48.21431
1495.50000        7.80258      101.39304      -46.13098
1496.00000        7.80556      100.23185      -44.04764
1496.50000        8.09365       99.07165      -42.55955
1497.00000        8.11071       98.55722      -41.36907
1497.50000        8.12778       99.10448      -40.47622
1498.00000        8.14484       99.51642      -39.88098
1498.50000        8.16210       98.30846      -39.58336
1499.00000        8.17917       99.38607      -39.58336
