~Version ---------------------------------------------------
VERS. 2.0 : CWLS LOG ASCII STANDARD - VERSION 2.0
WRAP. NO  : One line per depth step
DLM . SPACE : Column Data Section Delimiter
~Well ------------------------------------------------------
STRT.F          100 : START DEPTH
STOP.F       1218.0 : STOP DEPTH
STEP.F          0.5 : STEP
NULL.       -999.25 : NULL VALUE
COMP.                       WALSH & WATTS : COMPANY
WELL.                          SALMON A 6 : WELL
FLD .                          OLD NOCONA : FIELD
CNTY.                            MONTAGUE : COUNTY
STAT.                               TEXAS : STATE
CTRY.                                 USA : COUNTRY
SEC .                                     : SECTION
TWP .                                     : TOWNSHIP
RGE .                                     : RANGE
LOC .                                     : LOCATION
EKB .F                          : ELEVATION KELLY BUSHING
EDF .F                      884 : ELEVATION DERRICK FLOOR
EGL .F                      878 : ELEVATION GROUND LEVEL
PDAT.                           : PERMANENT DATUM
EPD .                           : ELEVATION PERMANENT DATUM
APD .                       5.5 : ABOVE PERMANENT DATUM
LMF .                       KDB : LOG MEASURED FROM
DMF .                       KDB : DRILLING MEASURED FROM
API .            42337039770000 : API NUMBER
UWI .                           : UWI NUMBER
DIGC.                     NthDS : DIGITIZING COMPANY
~Params ----------------------------------------------------
SRVC.     THE ELGEN CORPORATION : LOGGING COMPANY
LOG .                        EL : LOG
DATE.                1954-12-19 : RUN DATE
RUN .                         1 : RUN NUMBER
TDD .F                     1217 : TOTAL DEPTH DRILLER
TDL .F                     1219 : TOTAL DEPTH LOGGER
BOTL.F                     1218 : BOTTOM LOGGED INTERVAL
TOPL.F                      100 : TOP LOGGED INTERVAL
CSGS.IN                         : CASING SIZE
CSGD.F                          : CASING DRILLER
CSGL.F                          : CASING LOGGER
BS  .IN                    8.75 : BIT SIZE
MUD .                       GEL : MUD TYPE
MUDD.                        10 : MUD DENSITY
MUDV.                        60 : MUD VISCOSITY
PH  .                           : MUD PH
FL  .                           : FLUID LOSS
MUDS.                           : SOURCE OF SAMPLE
RM  .OHMM                   2.4 : MUD RESISTIVITY
RMT .DEGF                    58 : RM TEMPERATURE
RMF .OHMM                       : MUD FILTRATE RESISTIVITY
RMFT.DEGF                       : RMF TEMPERATURE
RMC .OHMM                       : MUD CAKE RESISTIVITY
RMCT.DEGF                       : RMC TEMPERATURE
RMFS.                           : RMF SOURCE
RMCS.                           : RMC SOURCE
RMBH.OHMM                       : MUD RESISTIVITY AT BHT
BHT .DEGF                       : BOTTOM HOLE TEMPERATURE
TIMC.                           : TIME CIRCULATION STOPPED
TIML.                           : TIME LOGGER ON BOTTOM
TMAX.DEGF                       : MAXIMUM RECORDED TEMPERATURE
UNIT.                           : EQUIPMENT NUMBER
BASE.                           : BASE LOCATION
ENG .                 STONE-302 : RECORDED BY
WIT .                      TODD : WITNESSED BY
~Curve Information -----------------------------------------
DEPT.F          :DEPTH
LAT.OHMM        :
LN.OHMM         :
SN.OHMM         :
SP.MV           :
~ASCII ------------------------------------------------------
# ...
157.50000       18.01368        9.65462        8.74805      -50.17671
158.00000       18.33042        9.49364        8.45817      -50.17671
158.50000       18.69196        9.66107        8.16740      -50.17671
159.00000       17.85460        9.74639        7.87752      -50.53007
159.50000       17.01815        9.66752        7.58675      -50.88342
160.00000       16.18079        9.67074        7.51909      -51.23678
160.50000       13.80584        9.75606        7.45143      -51.59014
161.00000       13.10738        9.75929        7.38377      -51.59014
161.50000       13.78253        9.76251        7.35823      -51.59014
162.00000       13.80358        9.92993        7.50024      -50.88342
162.50000       11.82647       10.01526        7.64225      -51.59014
163.00000       12.32242       10.01848        7.78516      -51.23678
163.50000       12.48414       10.18590        7.92718      -51.59014
164.00000       11.31167       10.27123        8.06919      -51.59014
164.50000       11.20280       10.11025        8.36801      -51.94350
165.00000       11.80358        9.94928        8.90338      -51.94350
165.50000       11.38826        9.95250        9.54601      -52.29685
166.00000       10.71936        9.87363       10.12708      -52.29685
166.50000       11.51369        9.63055       10.77715      -52.29685
167.00000       12.67449        9.71588       11.42721      -52.29685
167.50000       13.84963        9.80120       12.07817      -52.29685
168.00000       14.47640        9.80442       12.72824      -51.94350
168.50000       15.32360        9.88975       13.37830      -51.94350
169.00000       16.16989       10.30347       13.46297      -51.59014
169.50000       15.35584       10.63509       13.54764      -51.94350
170.00000       16.20482       10.96671       13.26672      -52.29685
170.50000       16.70614       11.13413       12.89531      -52.29685
171.00000       15.81324       11.54785       12.52300      -52.29685
171.50000       14.92033       11.71528       12.15068      -52.65021
172.00000       14.02742       11.80060       11.77927      -52.65021
172.50000       13.13451       11.96802       11.40696      -53.00357
173.00000       12.24161       12.38174       11.03465      -53.00357
173.50000       11.34870       12.46707       10.66323      -52.65021
174.00000       10.45579       12.30609       10.38411      -52.29685
174.50000        9.56288       12.14512       10.47684      -52.65021
175.00000        8.66998       11.98414       10.56957      -52.29685
175.50000        9.01539       11.65897       10.73040      -52.29685
176.00000        9.66994       11.25170       11.16452      -51.94350
176.50000        9.53059       11.25492       11.59864      -52.29685
177.00000        8.86170       11.17540       12.03187      -51.94350
177.50000        9.74831       10.93233       12.46599      -51.94350
178.00000       11.34459       10.85345       12.90011      -52.29685
178.50000       11.63266       10.85668       13.25717      -52.65021
179.00000       11.92073       10.77780       13.61334      -52.65021
179.50000       12.64068       10.69893       13.97040      -52.65021
180.00000       13.36064       10.86635       14.20650      -52.65021
180.50000       12.76611       11.19797       13.95694      -52.65021
181.00000       12.33645       11.36539       13.70828      -52.65021
181.50000       12.56359       11.36862       13.45963      -52.65021
182.00000       12.29791       11.61814       13.21097      -52.65021
182.50000       11.70338       11.78556       12.96141      -52.65021
183.00000       12.16976       11.78879       12.71276      -52.65021
183.50000       11.50086       11.87411       12.14152      -52.65021
184.00000       10.83196       11.95943       11.49055      -52.65021
184.50000       10.16306       11.88056       10.97935      -52.65021
185.00000       10.61421       11.55538       11.03266      -52.29685
185.50000        9.99011       11.31231       11.08507      -51.94350
186.00000        9.09720       11.15134       11.13837      -52.29685
186.50000        8.95696       10.74406       11.19078      -52.65021
187.00000        9.94573       10.58309       11.24409      -53.35692
187.50000       10.74902       10.58631       11.08324      -53.71028
188.00000       11.27543       10.42534       10.86863      -53.71028
188.50000       11.80095       10.18227       10.65492      -54.06364
189.00000       12.32646       10.18549       10.44031      -54.06364
189.50000       11.71760       10.27081       10.22570      -54.06364
190.00000       11.87037       10.27404       10.01199      -54.06364
190.50000       11.75970       10.11306        9.79738      -54.06364
191.00000       10.59798       10.11629        9.58277      -53.71028
191.50000        9.74898       10.03741        9.36906      -54.06364
192.00000       10.14994        9.87644        9.15445      -54.06364
192.50000       10.13874        9.71546        8.93984      -54.06364
193.00000        9.50657        9.80079        8.72613      -54.41699
193.50000        8.87531        9.72191        8.51152      -54.41699
194.00000        9.55046        9.56094        8.35157      -54.41699
194.50000        9.04285        9.56416        8.40935      -54.77035
195.00000        8.23955        9.56738        8.46624      -54.77035
195.50000        8.59930        9.48851        8.52403      -54.77035
196.00000        9.24936        9.49173        8.58182      -55.12371
196.50000        8.65483        9.49496        8.63871      -55.12371
197.00000        8.35958        9.41608        8.69649      -55.12371
197.50000        9.25875        9.33656        8.87972      -54.77035
198.00000        9.90343        9.25769        9.14718      -54.77035
198.50000       10.16552        9.17881        9.41464      -54.41699
199.00000       10.42849        8.93574        9.68210      -54.77035
199.50000       10.69058        8.85686        9.94866      -55.12371
200.00000       11.07256        8.82876       10.36723      -55.47706
200.50000       11.42109        8.83200       10.63451      -54.70696
201.00000       12.25352        8.75273       10.90179      -54.70696
201.50000       12.56634        8.59096       10.92622      -54.70696
202.00000       12.74880        8.59420       10.94976      -54.35172
202.50000       13.32410        8.51493       10.97419      -53.99648
203.00000       13.99761        8.35316       10.99862      -53.64124
203.50000       13.70688        8.27390       10.90252      -53.64124
204.00000       13.17508        8.19463       10.72606      -53.28600
204.50000       13.13701        8.19787       10.54872      -53.28600
205.00000       13.22215        8.11861       10.37226      -52.93076
205.50000       13.05016        8.20435       10.19581      -52.93076
206.00000       12.70675        8.20759       10.01935      -52.93076
206.50000       13.22134        8.29334        9.84290      -53.28600
207.00000       13.63594        8.37908        9.66645      -53.64124
207.50000       12.79165        8.46483        9.48999      -53.99648
208.00000       11.94736        8.46807        9.33854      -54.35172
208.50000       11.10308        8.38880        9.28618      -54.35172
209.00000       10.25879        8.39204        9.23472      -53.99648
209.50000        9.41451        8.31278        9.18237      -53.99648
210.00000        8.73986        8.06850        9.13091      -53.64124
210.50000        8.74375        7.82422        9.07856      -53.64124
211.00000        8.74765        7.57995        9.02710      -53.28600
211.50000        9.08635        7.41818        8.97475      -53.28600
212.00000        9.50898        7.17390        8.92329      -52.93076
212.50000        9.93161        7.09463        8.87094      -52.57552
213.00000       10.16664        7.01537        8.83823      -52.57552
213.50000       10.24910        6.93610        8.81802      -52.57552
214.00000       10.33156        6.85684        8.79781      -52.57552
214.50000       10.41403        6.86008        8.77302      -52.22028
