~Version ---------------------------------------------------
VERS. 2.0 : CWLS LOG ASCII STANDARD - VERSION 2.0
WRAP. NO  : One line per depth step
DLM . SPACE : Column Data Section Delimiter
~Well ------------------------------------------------------
STRT.F          642 : START DEPTH
STOP.F       1779.0 : STOP DEPTH
STEP.F          0.5 : STEP
NULL.       -999.25 : NULL VALUE
COMP.                       WALSH & WATTS : COMPANY
WELL.                        SALMON E 24  : WELL
FLD .                               NORTH : FIELD
CNTY.                            MONTAGUE : COUNTY
STAT.                               TEXAS : STATE
CTRY.                                 USA : COUNTRY
SEC .                                     : SECTION
TWP .                                     : TOWNSHIP
RGE .                                     : RANGE
LOC .                 SW CORNER OF LEAGUE : LOCATION
EKB .F                          : ELEVATION KELLY BUSHING
EDF .F                          : ELEVATION DERRICK FLOOR
EGL .F                      850 : ELEVATION GROUND LEVEL
PDAT.                        GL : PERMANENT DATUM
EPD .                       850 : ELEVATION PERMANENT DATUM
APD .                         5 : ABOVE PERMANENT DATUM
LMF .                        RT : LOG MEASURED FROM
DMF .                        RT : DRILLING MEASURED FROM
API .            42337038630000 : API NUMBER
UWI .                           : UWI NUMBER
DIGC.                     NthDS : DIGITIZING COMPANY
~Params ----------------------------------------------------
SRVC.              SCHLUMBERGER : LOGGING COMPANY
LOG .                       GRN : LOG
DATE.                1964-03-24 : RUN DATE
RUN .                         1 : RUN NUMBER
TDD .F                     1783 : TOTAL DEPTH DRILLER
TDL .F                     1782 : TOTAL DEPTH LOGGER
BOTL.F                     1780 : BOTTOM LOGGED INTERVAL
TOPL.F                      650 : TOP LOGGED INTERVAL
CSGS.IN                     4.5 : CASING SIZE
CSGD.F                     1802 : CASING DRILLER
CSGL.F                          : CASING LOGGER
BS  .IN                       9 : BIT SIZE
MUD .                     WATER : MUD TYPE
MUDD.                           : MUD DENSITY
MUDV.                           : MUD VISCOSITY
PH  .                           : MUD PH
FL  .                           : FLUID LOSS
MUDS.                           : SOURCE OF SAMPLE
RM  .OHMM                       : MUD RESISTIVITY
RMT .DEGF                       : RM TEMPERATURE
RMF .OHMM                       : MUD FILTRATE RESISTIVITY
RMFT.DEGF                       : RMF TEMPERATURE
RMC .OHMM                       : MUD CAKE RESISTIVITY
RMCT.DEGF                       : RMC TEMPERATURE
RMFS.                           : RMF SOURCE
RMCS.                           : RMC SOURCE
RMBH.OHMM                       : MUD RESISTIVITY AT BHT
BHT .DEGF                       : BOTTOM HOLE TEMPERATURE
TIMC.                           : TIME CIRCULATION STOPPED
TIML.                           : TIME LOGGER ON BOTTOM
TMAX.DEGF                   107 : MAXIMUM RECORDED TEMPERATURE
UNIT.                           : EQUIPMENT NUMBER
BASE.                           : BASE LOCATION
ENG .                    MCCUNE : RECORDED BY
WIT .                       NIX : WITNESSED BY
~Curve Information -----------------------------------------
DEPT.F          :DEPTH
GRN.GAPI        :
NEUT.API        :
~ASCII ------------------------------------------------------
# ...
1139.00000       44.53707      555.82213
1139.50000       46.78156      577.14481
1140.00000       46.94188      598.02770
1140.50000       47.26252      608.52912
1141.00000       47.74348      598.82730
1141.50000       46.46091      589.13881
1142.00000       42.45290      574.47947
1142.50000       40.20841      567.81614
1143.00000       40.36873      563.81814
1143.50000       42.29258      553.15680
1144.00000       45.49899      526.50346
1144.50000       48.54508      502.51545
1145.00000       52.07214      485.19077
1145.50000       55.59919      479.86011
1146.00000       57.20239      477.19477
1146.50000       57.52304      479.86011
1147.00000       57.52304      481.19277
1147.50000       57.84368      477.19477
1148.00000       57.68336      455.87210
1148.50000       55.27855      439.88009
1149.00000       51.75149      417.22475
1149.50000       49.50701      386.57340
1150.00000       50.46893      367.91606
1150.50000       56.72143      359.92006
1151.00000       61.05009      363.91806
1151.50000       63.77554      367.91606
1152.00000       65.37875      367.91606
1152.50000       65.53907      370.58140
1153.00000       64.57714      375.91207
1153.50000       62.81362      385.24074
1154.00000       61.21041      397.23474
1154.50000       61.21041      415.89208
1155.00000       60.72945      433.21675
1155.50000       58.96592      449.20876
1156.00000       56.56111      465.20077
1156.50000       57.52304      470.53144
1157.00000       61.69137      475.86210
1157.50000       66.34067      477.19477
1158.00000       68.58516      482.52544
1158.50000       69.38676      482.52544
1159.00000       69.54708      487.85611
1159.50000       69.38676      487.85611
1160.00000       68.26452      506.51345
1160.50000       68.58516      531.83413
1161.00000       68.90580      550.49147
1161.50000       67.78355      574.47947
1162.00000       66.98195      593.13681
1162.50000       65.69939      601.13282
1163.00000       63.13426      593.13681
1163.50000       60.24849      574.47947
1164.00000       58.80560      547.82613
1164.50000       59.44688      519.84012
1165.00000       61.37073      493.18678
1165.50000       65.37875      462.53543
1166.00000       69.70740      441.21276
1166.50000       72.27253      427.88609
1167.00000       74.19638      413.22675
1167.50000       74.35670      406.56341
1168.00000       72.91381      403.89808
1168.50000       69.70740      406.56341
1169.00000       65.37875      415.89208
1169.50000       63.29458      425.22075
1170.00000       65.53907      437.21476
1170.50000       69.22644      445.21076
1171.00000       72.75349      451.87409
1171.50000       76.23405      459.87010
1172.00000       77.72343      466.53343
1172.50000       75.95991      470.53144
1173.00000       73.39478      477.19477
1173.50000       70.34868      471.86410
1174.00000       68.26452      458.53743
1174.50000       69.38676      439.88009
1175.00000       72.91381      421.22275
1175.50000       75.95991      419.31704
1176.00000       76.28055      427.88609
1176.50000       75.31862      426.55342
1177.00000       74.35670      425.22075
1177.50000       73.71542      431.88409
1178.00000       73.23445      430.16495
1178.50000       73.87574      429.21875
1179.00000       74.51702      432.55042
1179.50000       75.63926      446.54343
1180.00000       78.84568      457.20476
1180.50000       81.73145      461.20277
1181.00000       81.57113      463.86810
1181.50000       80.44888      473.19677
1182.00000       79.80760      478.52744
1182.50000       79.48696      485.19077
1183.00000       78.84568      506.51345
1183.50000       78.68536      534.49946
1184.00000       78.84568      567.81614
1184.50000       78.68536      599.80015
1185.00000       77.08215      637.11483
1185.50000       74.35670      665.10084
1186.00000       70.82965      674.42951
1186.50000       67.14227      679.76018
1187.00000       65.05810      681.09285
1187.50000       64.25650      681.09285
1188.00000       63.77554      677.09485
1188.50000       63.45490      663.76817
1189.00000       62.17233      661.10284
1189.50000       58.96592      661.10284
1190.00000       56.08015      654.43950
1190.50000       54.47694      639.78017
1191.00000       54.15630      637.11483
1191.50000       54.95791      638.44750
1192.00000       55.11823      637.11483
1192.50000       56.08015      625.12083
1193.00000       59.44688      611.79416
1193.50000       63.77554      603.79815
1194.00000       67.46291      601.13282
1194.50000       69.86772      597.13482
1195.00000       69.54708      605.13082
1195.50000       66.50099      622.45549
1196.00000       62.01201      642.44550
1196.50000       59.12624      651.77417
1197.00000       56.88175      655.77217
1197.50000       56.24047      650.44150
1198.00000       57.68336      649.10884
1198.50000       60.72945      647.77617
1199.00000       64.89778      654.43950
1199.50000       67.30259      657.10484
1200.00000       65.85971      653.10684
1200.50000       60.24849      643.77817
1201.00000       58.16432      625.12083
1201.50000       59.60720      607.79615
1202.00000       62.97394      597.13482
1202.50000       68.90580      586.47348
1203.00000       74.51702      577.14481
1203.50000       77.72343      569.14881
1204.00000       78.84568      553.15680
1204.50000       78.84568      538.49746
1205.00000       78.84568      521.17279
1205.50000       79.96792      506.51345
1206.00000       82.21241      499.85011
1206.50000       83.65529      507.84612
1207.00000       82.37273      523.83812
1207.50000       76.76151      551.82413
1208.00000       72.75349      593.13681
1208.50000       72.27253      643.77817
1209.00000       74.35670      695.75219
1209.50000       77.88375      754.38954
1210.00000       80.28856      827.68624
1210.50000       82.05209      882.32559
1211.00000       77.08215      904.98093
1211.50000       67.62323      892.98693
1212.00000       56.72143      846.34358
1212.50000       49.18636      782.37555
1213.00000       45.17835      707.74619
1213.50000       46.46091      631.78416
1214.00000       53.35470      551.82413
1214.50000       62.81362      510.51145
1215.00000       68.42484      490.52144
1215.50000       71.15029      474.52944
1216.00000       73.55510      467.86610
1216.50000       76.12023      461.20277
1217.00000       78.04407      454.53943
1217.50000       78.36471      446.54343
1218.00000       77.56311      434.54942
1218.50000       76.44087      427.88609
1219.00000       75.95991      429.21875
1219.50000       75.47894      426.55342
1220.00000       75.95991      419.89008
1220.50000       76.76151      421.22275
1221.00000       77.56311      427.88609
1221.50000       79.00600      442.54542
1222.00000       80.44888      466.53343
1222.50000       82.05209      485.19077
1223.00000       83.33465      506.51345
1223.50000       84.29658      538.49746
1224.00000       84.77754      583.80814
1224.50000       84.45690      629.11883
1225.00000       82.05209      677.09485
1225.50000       76.60119      719.74020
1226.00000       65.69939      757.05488
1226.50000       55.59919      766.38355
1227.00000       48.86572      770.38155
1227.50000       44.85771      777.04488
1228.00000       44.37675      782.37555
1228.50000       47.10220      795.70222
1229.00000       51.75149      813.02690
1229.50000       54.15630      830.35157
1230.00000       52.71342      838.34757
1230.50000       49.66733      817.02490
1231.00000       47.58316      777.04488
1231.50000       46.94188      738.39754
1232.00000       46.94188      706.41352
1232.50000       47.58316      678.42751
1233.00000       48.38476      655.77217
1233.50000       49.50701      635.78216
1234.00000       51.91181      622.45549
1234.50000       54.31662      618.45749
1235.00000       55.11823      601.13282
1235.50000       55.43887      582.47548
1236.00000       57.36272      562.48547
1236.50000       61.53105      545.16080
