~Version ---------------------------------------------------
VERS. 2.0 : CWLS LOG ASCII STANDARD - VERSION 2.0
WRAP. NO  : One line per depth step
DLM . SPACE : Column Data Section Delimiter
~Well ------------------------------------------------------
STRT.F        490.5 : START DEPTH
STOP.F       1005.0 : STOP DEPTH
STEP.F          0.5 : STEP
NULL.       -999.25 : NULL VALUE
COMP.                       WALSH & WATTS : COMPANY
WELL.                           HYNDS B 6 : WELL
FLD .                           N. NOCONA : FIELD
CNTY.                            MONTAGUE : COUNTY
STAT.                               TEXAS : STATE
CTRY.                                 USA : COUNTRY
SEC .                                     : SECTION
TWP .                                     : TOWNSHIP
RGE .                                     : RANGE
LOC . 550' FR W/L OF LEASE, 150' FR S/L OF LEASE, 400' FR NO 4 WELL, 300' FR NO 3 WELL : LOCATION
EKB .F                          : ELEVATION KELLY BUSHING
EDF .F                          : ELEVATION DERRICK FLOOR
EGL .F                          : ELEVATION GROUND LEVEL
PDAT.                        GL : PERMANENT DATUM
EPD .                           : ELEVATION PERMANENT DATUM
APD .                         6 : ABOVE PERMANENT DATUM
LMF .                        KB : LOG MEASURED FROM
DMF .                        KB : DRILLING MEASURED FROM
API .            42337038650000 : API NUMBER
UWI .                           : UWI NUMBER
DIGC.                     NthDS : DIGITIZING COMPANY
~Params ----------------------------------------------------
SRVC.              SCHLUMBERGER : LOGGING COMPANY
LOG .                        ML : LOG
DATE.                1957-10-13 : RUN DATE
RUN .                         1 : RUN NUMBER
TDD .F                     1015 : TOTAL DEPTH DRILLER
TDL .F                     1008 : TOTAL DEPTH LOGGER
BOTL.F                     1005 : BOTTOM LOGGED INTERVAL
TOPL.F                      500 : TOP LOGGED INTERVAL
CSGS.IN                         : CASING SIZE
CSGD.F                          : CASING DRILLER
CSGL.F                          : CASING LOGGER
BS  .IN                         : BIT SIZE
MUD .                       GEL : MUD TYPE
MUDD.                        10 : MUD DENSITY
MUDV.                        53 : MUD VISCOSITY
PH  .                           : MUD PH
FL  .                           : FLUID LOSS
MUDS.                   MUD PIT : SOURCE OF SAMPLE
RM  .OHMM                   1.7 : MUD RESISTIVITY
RMT .DEGF                    68 : RM TEMPERATURE
RMF .OHMM                   1.1 : MUD FILTRATE RESISTIVITY
RMFT.DEGF                    90 : RMF TEMPERATURE
RMC .OHMM                   1.5 : MUD CAKE RESISTIVITY
RMCT.DEGF                    90 : RMC TEMPERATURE
RMFS.                           : RMF SOURCE
RMCS.                           : RMC SOURCE
RMBH.OHMM                   1.3 : MUD RESISTIVITY AT BHT
BHT .DEGF                    90 : BOTTOM HOLE TEMPERATURE
TIMC.                           : TIME CIRCULATION STOPPED
TIML.                           : TIME LOGGER ON BOTTOM
TMAX.DEGF                    90 : MAXIMUM RECORDED TEMPERATURE
UNIT.                       785 : EQUIPMENT NUMBER
BASE.                        WF : BASE LOCATION
ENG .                     JONES : RECORDED BY
WIT .                       NIX : WITNESSED BY
~Curve Information -----------------------------------------
DEPT.F          :DEPTH
CALM.IN         :
MINV.OHMM       :
MNOR.OHMM       :
SP.MV           :
~ASCII ------------------------------------------------------
# ...
950.50000        8.65659        3.16740        2.37574      -57.28442
951.00000        8.65711        3.17990        2.58328      -53.55071
951.50000        8.65763        3.08229        2.40794      -50.03299
952.00000        8.65815        3.19627        2.30565      -45.59574
952.50000        8.65867        3.18179        2.41424      -45.77966
953.00000        8.65919        3.06259        2.35729      -46.79517
953.50000        8.65970        3.32698        2.52956      -48.59636
954.00000        8.66022        3.35892        2.38014      -50.51365
954.50000        8.66074        3.29837        2.48872      -52.08265
955.00000        8.63912        3.29900        2.46236      -53.64895
955.50000        8.61192        7.04203        4.93693      -58.23110
956.00000        8.59750        9.46275        7.32693      -64.29822
956.50000        8.64132        4.56934        5.34589      -61.94148
957.00000        8.66254        3.42746        2.27595      -58.36977
957.50000        8.66107        4.41766        2.78036      -56.68802
958.00000        8.65943        3.88212        2.49311      -55.46527
958.50000        8.65779        4.02309        2.76363      -52.85743
959.00000        8.65615        3.50194        2.68977      -49.90401
959.50000        8.65451        3.45471        2.58748      -46.08660
960.00000        8.65305        3.14335        2.52441      -41.69139
960.50000        8.65141        3.25193        2.47106      -41.16523
961.00000        8.64976        2.89271        2.25543      -40.63636
961.50000        8.64812        3.04628        2.18552      -40.58809
962.00000        8.64666        2.92995        2.34232      -41.12030
962.50000        8.64502        3.11050        2.36526      -45.16246
963.00000        8.64338        2.78727        2.46665      -49.31261
963.50000        8.64174        3.44282        2.66375      -51.78880
964.00000        8.64027        3.49634        2.86050      -51.97812
964.50000        8.63863        3.54483        2.85393      -52.08374
965.00000        8.63699        3.09565        2.40943      -50.25194
965.50000        8.63427        3.30607        2.53852      -51.98024
966.00000        8.62975        3.11490        2.32936      -54.13782
966.50000        8.62523        2.89962        2.34186      -56.58701
967.00000        8.62088        2.75631        2.46843      -58.02526
967.50000        8.61636        3.49822        2.58601      -57.85393
968.00000        8.61184        2.93749        2.46249      -58.30515
968.50000        8.60732        3.45990        2.92013      -59.64735
969.00000        8.60200        3.80238        2.43496      -60.98956
969.50000        8.59748        6.14213        3.88937      -62.06176
970.00000        8.59296        3.41680        2.72877      -62.95307
970.50000        8.58862        3.03059        2.39186      -59.58655
971.00000        8.59364        3.45404        2.52744      -58.07760
971.50000        8.60099        3.55363        2.56045      -57.98073
972.00000        8.60061        4.11813        2.48911      -60.08702
972.50000        8.56837        8.05308        3.30299      -62.25541
973.00000        8.53613        6.93819        4.18524      -64.42109
973.50000        8.53665        6.54299        4.05992      -66.58948
974.00000        8.53717       11.34396       11.43752      -70.76664
974.50000        8.53769       13.09344       14.71275      -74.94379
975.00000        8.53820        9.53159        9.22932      -83.57587
975.50000        8.53872        9.28033        7.05648      -88.29301
976.00000        8.54986        8.49829        5.68250      -89.63522
976.50000        8.56100        5.15523        3.67686      -83.90084
977.00000        8.57196        3.43459        2.22910      -78.21236
977.50000        8.56653        3.95699        2.46003      -72.97477
978.00000        8.54995        4.20052        2.54235      -64.62953
978.50000        8.53319        6.65722        3.39689      -59.76184
979.00000        8.51661        6.66972        3.41911      -61.37404
979.50000        8.50741        7.55809        6.10683      -64.66561
980.00000        8.50901        5.38777        3.70837      -67.50898
980.50000        8.51061        7.73927        5.67016      -70.05807
981.00000        8.51238        8.17172        6.14938      -71.81876
981.50000        8.51398        8.49621        6.12122      -77.26489
982.00000        8.51604        8.77751        6.79008      -83.39951
982.50000        8.51764       13.04952       11.25388      -85.61920
983.00000        8.51942       26.70656       28.94948      -86.35391
983.50000        8.52102        9.26159       11.26953      -88.20371
984.00000        8.52280        8.53533        5.40467      -91.15778
984.50000        8.52440        9.00376        6.33190      -94.38995
985.00000        8.52599        7.39695        5.29797      -94.81417
985.50000        8.52777        5.58648        3.30145      -93.51852
986.00000        8.52937        7.00850        4.06855      -93.39464
986.50000        8.53115        7.85476        4.54418      -94.80434
987.00000        8.53275        8.10728        3.96185      -93.78408
987.50000        8.53417        9.56889        5.44505      -91.21135
988.00000        8.53576        7.68284        4.18622      -84.48993
988.50000        8.53718        8.61295        4.61866      -88.33229
989.00000        8.53860        8.26561        4.52321      -94.42642
989.50000        8.54002        8.32633        4.90779      -99.01012
990.00000        8.54162        7.49931        3.36108      -99.00234
990.50000        8.54304        8.97531        5.00801     -100.07455
991.00000        8.54445        7.23968        4.09390      -97.09527
991.50000        8.54587        6.06181        3.11107      -90.69670
992.00000        8.54747        5.95449        3.53164      -78.99002
992.50000        8.54889        6.60284        3.43619      -76.06630
993.00000        8.55031        7.28717        3.90462      -80.59444
993.50000        8.55173        7.79159        4.26509      -84.77160
994.00000        8.55361        7.90017        5.12935      -86.72129
994.50000        8.55503        5.00403        3.04287      -85.43104
995.00000        8.55645        3.79918        2.53972      -81.64333
995.50000        8.55804        3.17007        2.63930      -73.08479
996.00000        8.55946        4.73603        3.02928      -68.47474
996.50000        8.54684        3.33326        2.77298      -67.91617
997.00000        8.47806        4.87403        3.01003      -66.38292
997.50000        8.40946        6.94485        4.80989      -64.21519
998.00000        8.38226        9.41655        5.13438      -68.09534
998.50000        8.38278        7.77628        7.11416      -77.53741
999.00000        8.38330        7.07880        4.37996      -85.43780
999.50000        8.34781        6.44070        5.76239      -90.21320
1000.00000        7.97209        4.49820        5.41221      -89.99830
1000.50000        7.93661        4.64277        4.69675      -88.00991
1001.00000        8.16212        2.71223        2.22536      -80.55026
1001.50000        8.34814        2.74164        2.22275      -77.73297
1002.00000        7.81749        3.52926        3.25182      -73.89936
1002.50000        7.19180        2.45047        2.41449      -72.40661
1003.00000        6.62982        2.22332        2.37517      -68.79824
1003.50000        6.28439        2.32591        2.30288      -64.74053
1004.00000        6.28771        2.23657        2.20059      -61.45501
1004.50000        6.29039        2.14724        2.28290      -58.24354
1005.00000        6.29325        -999.25        -999.25      -59.21854
