~Version ---------------------------------------------------
VERS. 2.0 : CWLS LOG ASCII STANDARD - VERSION 2.0
WRAP. NO  : One line per depth step
DLM . SPACE : Column Data Section Delimiter
~Well ------------------------------------------------------
STRT.F          230 : START DEPTH
STOP.F       1777.5 : STOP DEPTH
STEP.F          0.5 : STEP
NULL.       -999.25 : NULL VALUE
COMP.         WALSH & WATTS, INCORPORATED : COMPANY
WELL.                         SALMON E 44 : WELL
FLD .                             REGULAR : FIELD
CNTY.                            MONTAGUE : COUNTY
STAT.                               TEXAS : STATE
CTRY.                                 USA : COUNTRY
SEC .                                     : SECTION
TWP .                                     : TOWNSHIP
RGE .                                     : RANGE
LOC . 300' WEST OF NO 23, 300' SOUTH OF D-9, F.ROBERTSON SURV. : LOCATION
EKB .F                      862 : ELEVATION KELLY BUSHING
EDF .F                          : ELEVATION DERRICK FLOOR
EGL .F                      856 : ELEVATION GROUND LEVEL
PDAT.                        GL : PERMANENT DATUM
EPD .                       856 : ELEVATION PERMANENT DATUM
APD .                         6 : ABOVE PERMANENT DATUM
LMF .                        KB : LOG MEASURED FROM
DMF .                        KB : DRILLING MEASURED FROM
API .            42337038720000 : API NUMBER
UWI .                           : UWI NUMBER
DIGC.                     NthDS : DIGITIZING COMPANY
~Params ----------------------------------------------------
SRVC.              SCHLUMBERGER : LOGGING COMPANY
LOG .                       IEL : LOG
DATE.                1965-11-28 : RUN DATE
RUN .                         1 : RUN NUMBER
TDD .F                     1779 : TOTAL DEPTH DRILLER
TDL .F                     1779 : TOTAL DEPTH LOGGER
BOTL.F                     1778 : BOTTOM LOGGED INTERVAL
TOPL.F                          : TOP LOGGED INTERVAL
CSGS.IN                         : CASING SIZE
CSGD.F                          : CASING DRILLER
CSGL.F                          : CASING LOGGER
BS  .IN                   7.875 : BIT SIZE
MUD .                       GEL : MUD TYPE
MUDD.                        10 : MUD DENSITY
MUDV.                       9.8 : MUD VISCOSITY
PH  .                           : MUD PH
FL  .                           : FLUID LOSS
MUDS.                CIRCULATED : SOURCE OF SAMPLE
RM  .OHMM                   2.0 : MUD RESISTIVITY
RMT .DEGF                    81 : RM TEMPERATURE
RMF .OHMM                   1.5 : MUD FILTRATE RESISTIVITY
RMFT.DEGF                    81 : RMF TEMPERATURE
RMC .OHMM                       : MUD CAKE RESISTIVITY
RMCT.DEGF                       : RMC TEMPERATURE
RMFS.                         M : RMF SOURCE
RMCS.                           : RMC SOURCE
RMBH.OHMM                   1.6 : MUD RESISTIVITY AT BHT
BHT .DEGF                   100 : BOTTOM HOLE TEMPERATURE
TIMC.                           : TIME CIRCULATION STOPPED
TIML.                           : TIME LOGGER ON BOTTOM
TMAX.DEGF                   100 : MAXIMUM RECORDED TEMPERATURE
UNIT.                      4559 : EQUIPMENT NUMBER
BASE.                       WFS : BASE LOCATION
ENG .                      FINK : RECORDED BY
WIT .                       NIX : WITNESSED BY
~Curve Information -----------------------------------------
DEPT.F          :DEPTH
CILD.MMHO       :
ILD.OHMM        :
SN.OHMM         :
SP.MV           :
~ASCII ------------------------------------------------------
# ...
1317.00000      377.51130        2.33237        3.06157      -47.88603
1317.50000      379.84107        2.31571        3.00810      -48.23103
1318.00000      382.16083        2.29905        3.01944      -51.23402
1318.50000      383.25937        2.31598        3.12798      -54.90002
1319.00000      379.40299        2.34092        3.19051      -57.90002
1319.50000      375.55662        2.36626        3.12705      -60.50102
1320.00000      370.93297        2.39119        3.29319      -59.58602
1320.50000      367.08660        2.41653        3.21572      -54.50702
1321.00000      364.32131        2.44147        3.13786      -49.43102
1321.50000      361.55601        2.45840        3.10800      -46.14003
1322.00000      358.80073        2.46934        3.14933      -45.42903
1322.50000      356.37577        2.48028        3.19107      -45.99903
1323.00000      354.47133        2.48921        3.23241      -48.00003
1323.50000      352.55689        2.48855        3.22454      -50.00102
1324.00000      353.63541        2.48789        3.18388      -49.20002
1324.50000      355.45467        2.48722        3.14322      -46.95003
1325.00000      357.27393        2.48656        3.10256      -44.95803
1325.50000      359.09319        2.48590        3.10309      -44.10003
1326.00000      360.91246        2.48323        3.13083      -43.58703
1326.50000      360.53954        2.47737        3.15897      -45.51303
1327.00000      359.61607        2.47191        3.13190      -45.24603
1327.50000      358.69261        2.46604        3.09124      -44.42703
1328.00000      359.34071        2.45925        3.09338      -44.43603
1328.50000      361.02984        2.45338        3.10858      -45.00003
1329.00000      362.70896        2.44752        3.12112      -46.25103
1329.50000      363.65736        2.44206        3.10365      -47.49903
1330.00000      364.11527        2.43619        3.08659      -48.75002
1330.50000      364.56316        2.43033        3.11913      -50.00102
1331.00000      365.02107        2.42487        3.18526      -51.24902
1331.50000      365.46897        2.41900        3.22100      -52.50002
1332.00000      365.96692        2.41354        3.13714      -50.57102
1332.50000      366.45486        2.40768        3.05327      -48.61202
1333.00000      366.95281        2.40182        3.05621      -46.63203
1333.50000      367.44074        2.39635        3.08115      -44.25603
1334.00000      365.55632        2.40729        3.10608      -42.27603
1334.50000      363.07131        2.42303        3.13142      -40.29603
1335.00000      360.58629        2.43876        3.15636      -39.90003
1335.50000      357.87105        2.45410        3.18129      -39.90003
1336.00000      355.16581        2.46984        3.20623      -40.20003
1336.50000      355.33343        2.48517        3.23117      -42.52503
1337.00000      356.22177        2.50091        3.10731      -44.85003
1337.50000      357.28377        2.49265        2.98384      -47.17503
1338.00000      358.17210        2.44918        2.98038      -49.50002
1338.50000      359.77115        2.40572        3.15732      -48.93602
1339.00000      362.44125        2.38066        3.25185      -48.78602
1339.50000      365.10135        2.36839        3.29119      -49.24502
1340.00000      367.77146        2.35360        3.28253      -49.70702
1340.50000      368.20935        2.34093        3.24186      -49.59002
1341.00000      368.63722        2.32867        3.19307      -49.32902
1341.50000      370.59662        2.31601        3.21640      -49.07102
1342.00000      373.57704        2.30375        3.25574      -48.81002
1342.50000      376.54745        2.29148        3.29508      -48.60002
1343.00000      379.52786        2.27882        3.33441      -48.60002
1343.50000      381.65743        2.26656        3.37375      -48.60002
1344.00000      376.92018        2.30989        3.41309      -48.60002
1344.50000      368.35912        2.39083        3.51642      -48.80102
1345.00000      356.20450        2.47176        3.63576      -49.80002
1345.50000      341.66750        2.55230        3.85909      -52.89302
1346.00000      331.74509        2.63324        4.10843      -55.98902
1346.50000      328.75958        2.70737        4.40776      -59.08202
1347.00000      323.88219        2.75431        4.78230      -58.74002
1347.50000      316.16197        2.80125        4.45644      -56.25002
1348.00000      309.66296        2.84818        4.35177      -53.43602
1348.50000      308.00877        2.89512        4.39511      -50.62502
1349.00000      321.20934        2.73446        4.25005      -48.60002
1349.50000      337.07256        2.57380        3.93819      -47.22003
1350.00000      351.17823        2.56839        3.80238      -46.02003
1350.50000      357.64210        2.49652        3.67212      -45.52503
1351.00000      361.75364        2.43866        3.54225      -46.33803
1351.50000      363.41624        2.43786        3.43359      -47.26203
1352.00000      363.43371        2.43720        3.40519      -48.22503
1352.50000      363.45118        2.43654        3.38173      -49.35002
1353.00000      362.52772        2.44627        3.35827      -50.47502
1353.50000      361.60425        2.45641        3.33481      -50.52902
1354.00000      360.69080        2.46615        3.31094      -50.77802
1354.50000      359.18676        2.47588        3.28748      -51.72602
1355.00000      357.53256        2.48602        3.27042      -52.67402
1355.50000      355.87837        2.49576        3.26335      -53.62202
1356.00000      354.23419        2.50549        3.25589      -53.22902
1356.50000      352.58000        2.51563        3.24843      -52.20002
1357.00000      353.31167        2.52724        3.24136      -52.20002
1357.50000      353.90972        2.53697        3.23257      -52.20002
1358.00000      354.51778        2.54711        3.22510      -52.20002
1358.50000      357.05776        2.52005        3.21764      -52.20002
1359.00000      360.07821        2.48338        3.21058      -52.20002
1359.50000      363.09867        2.44712        3.20311      -52.20002
1360.00000      366.11912        2.41086        3.19565      -52.20002
1360.50000      369.13958        2.37419        3.18859      -51.72002
1361.00000      370.89878        2.34713        3.21113      -50.52002
1361.50000      369.77512        2.35687        3.25406      -50.02802
1362.00000      364.78761        2.36660        3.29700      -50.60102
1362.50000      366.95071        2.37861        3.33953      -51.17102
1363.00000      368.75996        2.38834        3.34234      -51.74402
1363.50000      369.59824        2.39808        3.08168      -52.20002
1364.00000      368.98509        2.40782        2.73102      -52.20002
1364.50000      365.31890        2.41755        3.04435      -51.90002
1365.00000      360.89195        2.42729        3.45969      -50.40002
1365.50000      361.98049        2.43703        3.46422      -48.90002
1366.00000      363.06902        2.44676        3.37036      -48.66602
1366.50000      363.63704        2.45650        3.27650      -50.33402
1367.00000      362.09296        2.46624        3.25703      -49.93502
1367.50000      360.53887        2.47637        3.25637      -48.16503
1368.00000      358.64793        2.48798        3.25571      -47.43303
1368.50000      356.89364        2.49772        3.25491      -48.26703
1369.00000      355.14936        2.50745        3.25425      -49.10102
1369.50000      353.39507        2.51719        3.25358      -49.93202
1370.00000      352.66180        2.52693        3.25292      -49.54502
1370.50000      352.17877        2.53666        3.25226      -48.85502
1371.00000      351.69574        2.54640        3.24680      -48.52502
1371.50000      351.21272        2.55614        3.23453      -49.87502
1372.00000      349.79877        2.56627        3.22187      -51.00002
1372.50000      348.14457        2.56601        3.20961      -50.07602
1373.00000      346.49038        2.55935        3.23974      -49.15502
