~Version ---------------------------------------------------
VERS. 2.0 : CWLS LOG ASCII STANDARD - VERSION 2.0
WRAP. NO  : One line per depth step
DLM . SPACE : Column Data Section Delimiter
~Well ------------------------------------------------------
STRT.F          100 : START DEPTH
STOP.F       1218.0 : STOP DEPTH
STEP.F          0.5 : STEP
NULL.       -999.25 : NULL VALUE
COMP.                       WALSH & WATTS : COMPANY
WELL.                          SALMON A 6 : WELL
FLD .                          OLD NOCONA : FIELD
CNTY.                            MONTAGUE : COUNTY
STAT.                               TEXAS : STATE
CTRY.                                 USA : COUNTRY
SEC .                                     : SECTION
TWP .                                     : TOWNSHIP
RGE .                                     : RANGE
LOC .                                     : LOCATION
EKB .F                          : ELEVATION KELLY BUSHING
EDF .F                      884 : ELEVATION DERRICK FLOOR
EGL .F                      878 : ELEVATION GROUND LEVEL
PDAT.                           : PERMANENT DATUM
EPD .                           : ELEVATION PERMANENT DATUM
APD .                       5.5 : ABOVE PERMANENT DATUM
LMF .                       KDB : LOG MEASURED FROM
DMF .                       KDB : DRILLING MEASURED FROM
API .            42337039770000 : API NUMBER
UWI .                           : UWI NUMBER
DIGC.                     NthDS : DIGITIZING COMPANY
~Params ----------------------------------------------------
SRVC.     THE ELGEN CORPORATION : LOGGING COMPANY
LOG .                        EL : LOG
DATE.                1954-12-19 : RUN DATE
RUN .                         1 : RUN NUMBER
TDD .F                     1217 : TOTAL DEPTH DRILLER
TDL .F                     1219 : TOTAL DEPTH LOGGER
BOTL.F                     1218 : BOTTOM LOGGED INTERVAL
TOPL.F                      100 : TOP LOGGED INTERVAL
CSGS.IN                         : CASING SIZE
CSGD.F                          : CASING DRILLER
CSGL.F                          : CASING LOGGER
BS  .IN                    8.75 : BIT SIZE
MUD .                       GEL : MUD TYPE
MUDD.                        10 : MUD DENSITY
MUDV.                        60 : MUD VISCOSITY
PH  .                           : MUD PH
FL  .                           : FLUID LOSS
MUDS.                           : SOURCE OF SAMPLE
RM  .OHMM                   2.4 : MUD RESISTIVITY
RMT .DEGF                    58 : RM TEMPERATURE
RMF .OHMM                       : MUD FILTRATE RESISTIVITY
RMFT.DEGF                       : RMF TEMPERATURE
RMC .OHMM                       : MUD CAKE RESISTIVITY
RMCT.DEGF                       : RMC TEMPERATURE
RMFS.                           : RMF SOURCE
RMCS.                           : RMC SOURCE
RMBH.OHMM                       : MUD RESISTIVITY AT BHT
BHT .DEGF                       : BOTTOM HOLE TEMPERATURE
TIMC.                           : TIME CIRCULATION STOPPED
TIML.                           : TIME LOGGER ON BOTTOM
TMAX.DEGF                       : MAXIMUM RECORDED TEMPERATURE
UNIT.                           : EQUIPMENT NUMBER
BASE.                           : BASE LOCATION
ENG .                 STONE-302 : RECORDED BY
WIT .                      TODD : WITNESSED BY
~Curve Information -----------------------------------------
DEPT.F          :DEPTH
LAT.OHMM        :
LN.OHMM         :
SN.OHMM         :
SP.MV           :
~ASCII ------------------------------------------------------
# ...
1132.50000        3.18806        2.90008        3.64795      -66.54932
1133.00000        3.08378        2.89900        3.54011      -64.08454
1133.50000        2.98039        2.81542        3.48574      -62.32397
1134.00000        2.87700        2.81434        3.50891      -60.91552
1134.50000        2.77362        2.81326        3.53208      -59.85919
1135.00000        2.66934        2.81218        3.55526      -59.15496
1135.50000        2.56595        2.81110        3.57932      -60.21130
1136.00000        2.46257        2.72751        3.60249      -61.97186
1136.50000        2.35918        2.72643        3.62567      -64.43665
1137.00000        2.34314        2.72535        3.64973      -64.78876
1137.50000        2.38592        2.64176        3.70766      -63.02820
1138.00000        2.42959        2.64068        3.77451      -60.91552
1138.50000        2.47237        2.55709        3.84135      -59.50707
1139.00000        2.51604        2.55601        3.90820      -58.80285
1139.50000        2.55882        2.47242        3.97504      -58.80285
1140.00000        2.69162        2.47134        4.04189      -61.61975
1140.50000        2.95900        2.47026        4.10873      -64.43665
1141.00000        3.22638        2.38668        4.17558      -68.30989
1141.50000        3.49376        2.38560        4.13280      -70.42256
1142.00000        3.76114        2.38452        4.06239      -72.88735
1142.50000        3.94741        2.38344        3.99198      -74.64791
1143.00000        4.01069        2.46486        3.92157      -74.29580
1143.50000        3.84848        2.54629        3.85116      -72.53524
1144.00000        3.87433        2.62772        3.78075      -69.71834
1144.50000        3.90018        2.62664        3.71034      -67.95778
1145.00000        3.92692        2.54305        3.65775      -68.30989
1145.50000        3.95276        2.54197        3.67647      -69.36623
1146.00000        3.97950        2.54111        3.69519      -71.47890
1146.50000        4.00535        2.54003        3.71390      -75.70425
1147.00000        4.06061        2.53895        3.73262      -79.22538
1147.50000        4.12210        2.53787        3.75312      -80.28172
1148.00000        4.18360        2.53679        3.77629      -79.57749
1148.50000        4.24599        2.53571        3.79946      -77.46482
1149.00000        4.30749        2.36961        3.82264      -75.00003
1149.50000        4.36987        2.36853        3.84670      -72.53524
1150.00000        4.43137        2.55775        3.86987      -69.48242
1150.50000        4.46147        2.55645        3.91935      -66.31153
1151.00000        4.43817        2.55537        3.94265      -66.19472
1151.50000        4.41398        2.55429        3.91129      -67.96463
1152.00000        4.39068        2.55321        3.87993      -66.90268
1152.50000        4.36738        2.55213        3.84857      -65.13277
1153.00000        4.34319        2.63356        3.81720      -63.75578
1153.50000        4.31989        2.54997        3.78674      -62.63720
1154.00000        4.29749        2.54889        3.75538      -61.51861
1154.50000        4.28226        2.63032        3.72401      -60.40003
1155.00000        4.26613        2.54673        3.69265      -61.41596
1155.50000        4.25090        2.54565        3.66129      -62.96640
1156.00000        4.23477        2.54457        3.62993      -64.51330
1156.50000        4.21953        2.62578        3.59857      -63.80534
1157.00000        4.20340        2.54219        3.56720      -61.59295
1157.50000        4.18817        2.54111        3.53674      -60.09915
1158.00000        4.17204        2.54003        3.50538      -60.79295
1158.50000        4.15681        2.62146        3.47401      -61.48676
1159.00000        4.14068        2.62038        3.44265      -62.17702
1159.50000        4.12545        2.70181        3.41129      -62.87083
1160.00000        4.12186        2.78324        3.48297      -61.97879
1160.50000        4.12186        2.69965        3.59946      -60.69030
1161.00000        4.12186        2.61606        3.69713      -59.40534
1161.50000        4.12186        2.44997        3.79480      -58.11685
1162.00000        4.20430        2.03613        3.98118      -58.05313
1162.50000        4.30824        1.78753        4.30107      -59.82304
1163.00000        4.50986        1.53892        4.62097      -61.59295
1163.50000        5.10753        1.45533        4.94086      -63.36286
1164.00000        5.70520        1.45425        5.26075      -65.04428
1164.50000        6.82437        1.61819        5.58154      -66.63720
1165.00000        8.07437        1.69962        5.90143      -68.06021
1165.50000        9.32347        1.94606        5.98477      -69.50799
1166.00000       10.57347        2.19251        5.71236      -71.38764
1166.50000        9.67742        2.68647        5.43996      -73.55047
1167.00000        8.67921        3.18044        5.16846      -74.21950
1167.50000        7.27419        3.75670        4.89606      -73.98233
1168.00000        5.86917        4.00314        4.62455      -72.21242
1168.50000        4.46416        4.08457        4.51882      -68.67259
1169.00000        3.05914        3.91848        4.45430      -65.84074
1169.50000        2.71236        3.83489        4.39068      -63.71684
1170.00000        2.63082        3.75130        4.32706      -62.30091
1170.50000        2.53315        3.75022        4.25000      -59.82304
1171.00000        2.45161        3.58412        4.18548      -56.99118
1171.50000        2.37007        3.58304        4.12186      -54.15932
1172.00000        2.28943        3.49946        4.05824      -52.74339
1172.50000        2.23566        3.49838        3.99373      -52.03543
1173.00000        2.22581        3.41457        3.93011      -52.38941
1173.50000        2.21595        3.33098        3.86559      -53.80534
1174.00000        2.20520        3.32990        3.80197      -54.15932
1174.50000        2.19534        3.24632        3.73745      -53.80534
1175.00000        2.18548        3.16273        3.67383      -53.09738
1175.50000        2.17473        2.99663        3.85305      -52.74339
1176.00000        2.16487        2.83054        4.03226      -53.09738
1176.50000        2.15502        2.58193        4.21147      -54.15932
1177.00000        2.32975        2.41584        4.39068      -54.86729
1177.50000        2.62814        2.24974        4.95430      -55.57525
1178.00000        2.92742        2.08365        5.51702      -58.76109
1178.50000        3.22581        1.99984        6.08064      -63.36286
1179.00000        3.67383        1.99876        6.64337      -72.56640
1179.50000        4.34588        2.08019        7.20699      -81.41596
1180.00000        5.01792        2.24412        7.76971      -90.97348
1180.50000        5.26254        2.49057        8.19892      -95.92923
1181.00000        5.23297        2.73701        7.52688      -94.86728
1181.50000        5.20340        2.98346        6.85484      -90.61949
1182.00000        5.07168        3.14739        5.82437      -83.18587
1182.50000        4.91577        3.22882        4.70430      -75.04427
1183.00000        4.75986        3.22774        4.42563      -66.19472
1183.50000        4.60305        3.14415        4.35842      -62.65490
1184.00000        4.44713        3.06035        4.29032      -61.94693
1184.50000        4.29032        3.05927        4.22222      -61.23897
1185.00000        4.13441        2.97568        4.15412      -59.46906
1185.50000        3.97849        2.97460        4.08692      -56.99118
1186.00000        3.84498        2.97352        4.02778      -54.86729
1186.50000        3.80555        2.88993        4.00358      -54.86729
1187.00000        3.76613        2.88885        3.97939      -54.15932
1187.50000        3.72670        2.88777        3.95520      -53.45136
1188.00000        3.68728        2.80418        3.93011      -54.15932
1188.50000        3.64785        2.72060        3.90591      -55.22127
