~Version ---------------------------------------------------
VERS. 2.0 : CWLS LOG ASCII STANDARD - VERSION 2.0
WRAP. NO  : One line per depth step
DLM . SPACE : Column Data Section Delimiter
~Well ------------------------------------------------------
STRT.F          194 : START DEPTH
STOP.F       1764.0 : STOP DEPTH
STEP.F          0.5 : STEP
NULL.       -999.25 : NULL VALUE
COMP.                 WALSH & WATTS, INC. : COMPANY
WELL.                         SALMON E 42 : WELL
FLD .                        NORTH NOCONA : FIELD
CNTY.                            MONTAGUE : COUNTY
STAT.                               TEXAS : STATE
CTRY.                                 USA : COUNTRY
SEC .                                     : SECTION
TWP .                                     : TOWNSHIP
RGE .                                     : RANGE
LOC . 150' FSL & 300' W OF WELL NO. 1, 407' E OF WELL NO. 5, F. ROBERTSON SURVEY : LOCATION
EKB .F                      880 : ELEVATION KELLY BUSHING
EDF .F                          : ELEVATION DERRICK FLOOR
EGL .F                      874 : ELEVATION GROUND LEVEL
PDAT.              GROUND LEVEL : PERMANENT DATUM
EPD .                       874 : ELEVATION PERMANENT DATUM
APD .                         6 : ABOVE PERMANENT DATUM
LMF .                        KB : LOG MEASURED FROM
DMF .                        KB : DRILLING MEASURED FROM
API .            42337037780000 : API NUMBER
UWI .            42337037780000 : UWI NUMBER
DIGC.                     NthDS : DIGITIZING COMPANY
~Params ----------------------------------------------------
SRVC.                LANE WELLS : LOGGING COMPANY
LOG .                       IEL : LOG
DATE.                1965-11-21 : RUN DATE
RUN .                         1 : RUN NUMBER
TDD .F                     1766 : TOTAL DEPTH DRILLER
TDL .F                     1768 : TOTAL DEPTH LOGGER
BOTL.F                     1764 : BOTTOM LOGGED INTERVAL
TOPL.F                      200 : TOP LOGGED INTERVAL
CSGS.IN                         : CASING SIZE
CSGD.F                          : CASING DRILLER
CSGL.F                          : CASING LOGGER
BS  .IN                   7.875 : BIT SIZE
MUD .              CHEMICAL GEL : MUD TYPE
MUDD.                       9.8 : MUD DENSITY
MUDV.                       123 : MUD VISCOSITY
PH  .                           : MUD PH
FL  .                           : FLUID LOSS
MUDS.                CIRCULATED : SOURCE OF SAMPLE
RM  .OHMM                   2.1 : MUD RESISTIVITY
RMT .DEGF                    70 : RM TEMPERATURE
RMF .OHMM                  1.81 : MUD FILTRATE RESISTIVITY
RMFT.DEGF                    70 : RMF TEMPERATURE
RMC .OHMM                  2.34 : MUD CAKE RESISTIVITY
RMCT.DEGF                    70 : RMC TEMPERATURE
RMFS.                  MEASURED : RMF SOURCE
RMCS.                           : RMC SOURCE
RMBH.OHMM                   1.5 : MUD RESISTIVITY AT BHT
BHT .DEGF                    98 : BOTTOM HOLE TEMPERATURE
TIMC.                           : TIME CIRCULATION STOPPED
TIML.                           : TIME LOGGER ON BOTTOM
TMAX.DEGF                    98 : MAXIMUM RECORDED TEMPERATURE
UNIT.                    L-4553 : EQUIPMENT NUMBER
BASE.                      W.F. : BASE LOCATION
ENG .                     ADAMS : RECORDED BY
WIT .   MR. HARRELSON & MR. NIX : WITNESSED BY
~Curve Information -----------------------------------------
DEPT.F          :DEPTH
CILD.MMHO       :
ILD.OHMM        :
ROP.MIN/FT      :
SN.OHMM         :
SP.MV           :
~ASCII ------------------------------------------------------
# ...
1706.50000      420.05965        2.68245        0.74405        5.56213      -92.08140
1707.00000      485.60086        2.40631        0.74405        5.12820      -93.56584
1707.50000      585.89876        1.85404        0.74405        4.61538      -94.75443
1708.00000      673.28703        1.45957        0.74405        4.10256      -95.94302
1708.50000      780.53627        1.34122        0.74405        3.58974      -97.72332
1709.00000      851.04272        1.22288        0.74405        3.03747     -100.68807
1709.50000      890.49654        1.18343        0.74405        2.64300     -102.76423
1710.00000      917.57697        1.22288        0.74405        2.40631     -103.95282
1710.50000      879.09634        1.26233        1.48651        2.32742     -103.95798
1711.00000      817.27907        1.34122        1.48343        2.36686     -101.30044
1711.50000      749.75177        1.53846        1.48075        2.44576      -97.16362
1712.00000      660.37740        1.61736        1.47817        2.56410      -91.39959
1712.50000      563.05864        1.93294        1.97421        2.76134      -79.12672
1713.00000      474.67732        2.13018        1.97421        2.91913      -65.07872
1713.50000      424.03185        2.40631        1.97421        2.99803      -57.83541
1714.00000      404.17088        2.48521        1.97421        3.07692      -55.47476
1714.50000      406.15697        2.52465        1.97421        3.15582      -54.88821
1715.00000      415.09441        2.44576        1.97421        3.19527      -54.00580
1715.50000      422.04575        2.44576        1.97421        3.23471      -51.93998
1716.00000      422.04575        2.44576        1.97421        3.31361      -50.17000
1716.50000      420.05965        2.40631        -999.25        3.35306      -49.58345
1717.00000      419.06661        2.44576        -999.25        3.35306      -49.58862
1717.50000      421.05270        2.44576        -999.25        3.39250      -49.89067
1718.00000      422.04575        2.40631        -999.25        3.39250      -51.67097
1718.50000      424.03185        2.40631        -999.25        3.35306      -53.15541
1719.00000      425.02490        2.40631        -999.25        3.35306      -53.16058
1719.50000      427.01099        2.40631        -999.25        3.27416      -53.16574
1720.00000      427.01099        2.40631        -999.25        3.23471      -52.28334
1720.50000      425.02490        2.44576        -999.25        3.19527      -49.62580
1721.00000      422.04575        2.44576        -999.25        3.27416      -47.56100
1721.50000      418.07356        2.44576        -999.25        3.31361      -46.67859
1722.00000      415.09441        2.48521        -999.25        3.31361      -46.97961
1722.50000      413.10831        2.48521        -999.25        3.35306      -46.98478
1723.00000      413.10831        2.48521        -999.25        3.43195      -47.28580
1723.50000      411.12222        2.48521        -999.25        3.43195      -47.29096
1724.00000      411.12222        2.48521        -999.25        3.43195      -47.88784
1724.50000      411.12222        2.48521        -999.25        3.47140      -49.66917
1725.00000      413.10831        2.44576        -999.25        3.43195      -52.04118
1725.50000      413.10831        2.48521        -999.25        3.31361      -53.82148
1726.00000      414.10136        2.48521        -999.25        3.31361      -51.45980
1726.50000      415.09441        2.48521        -999.25        3.35306      -49.98568
1727.00000      414.10136        2.48521        -999.25        3.35306      -50.58256
1727.50000      413.10831        2.48521        -999.25        3.35306      -50.88461
1728.00000      413.10831        2.48521        -999.25        3.39250      -50.59392
1728.50000      414.10136        2.48521        -999.25        3.39250      -50.59908
1729.00000      416.08746        2.48521        -999.25        3.35306      -50.90010
1729.50000      417.08051        2.48521        -999.25        3.35306      -51.49698
1730.00000      417.08051        2.44576        -999.25        3.35306      -51.50214
1730.50000      415.09441        2.48521        -999.25        3.39250      -51.50730
1731.00000      413.10831        2.48521        -999.25        3.39250      -50.92179
1731.50000      410.12917        2.52465        -999.25        3.43195      -50.33524
1732.00000      407.15002        2.52465        -999.25        3.43195      -50.04455
1732.50000      404.17088        2.52465        -999.25        3.47140      -49.75386
1733.00000      402.18478        2.56410        -999.25        3.47140      -49.46316
1733.50000      399.20563        2.56410        -999.25        3.51085      -48.87661
1734.00000      398.21259        2.60355        -999.25        3.55029      -48.88281
1734.50000      398.21259        2.56410        -999.25        3.55029      -49.47969
1735.00000      399.20563        2.56410        -999.25        3.55029      -50.37242
1735.50000      400.19868        2.52465        -999.25        3.51085      -50.96929
1736.00000      404.17088        2.52465        -999.25        3.47140      -50.97446
1736.50000      406.15697        2.52465        -999.25        3.43195      -49.50034
1737.00000      407.15002        2.52465        -999.25        3.43195      -47.73037
1737.50000      409.13612        2.48521        -999.25        3.51085      -45.66557
1738.00000      411.12222        2.52465        -999.25        3.51085      -44.19146
1738.50000      411.12222        2.52465        -999.25        3.51085      -42.71734
1739.00000      410.12917        2.52465        -999.25        3.47140      -42.13079
1739.50000      409.13612        2.52465        -999.25        3.47140      -42.13595
1740.00000      408.14307        2.52465        -999.25        3.51085      -42.73283
1740.50000      407.15002        2.52465        -999.25        3.51085      -43.62556
1741.00000      405.16393        2.52465        -999.25        3.47140      -44.22347
1741.50000      405.16393        2.52465        -999.25        3.43195      -44.22863
1742.00000      406.15697        2.52465        -999.25        3.47140      -44.52965
1742.50000      406.15697        2.52465        -999.25        3.51085      -44.23896
1743.00000      407.15002        2.52465        -999.25        3.51085      -43.94827
1743.50000      410.12917        2.52465        -999.25        3.47140      -44.24929
1744.00000      412.11527        2.52465        -999.25        3.39250      -45.14202
1744.50000      414.10136        2.48521        -999.25        3.39250      -46.33164
1745.00000      415.09441        2.48521        -999.25        3.43195      -46.63266
1745.50000      417.08051        2.48521        -999.25        3.43195      -46.34197
1746.00000      419.06661        2.44576        -999.25        3.39250      -46.34713
1746.50000      421.05270        2.44576        -999.25        3.35306      -46.05644
1747.00000      423.03880        2.44576        -999.25        3.31361      -46.06160
1747.50000      424.03185        2.44576        -999.25        3.31361      -45.77194
1748.00000      425.02490        2.40631        -999.25        3.35306      -45.48125
1748.50000      426.01794        2.40631        -999.25        3.35306      -46.07813
1749.00000      428.00404        2.40631        -999.25        3.31361      -46.37915
1749.50000      428.99709        2.40631        -999.25        3.31361      -46.38431
1750.00000      430.98319        2.36686        -999.25        3.31361      -45.65267
1750.50000      432.42297        2.36616        -999.25        3.23401      -45.66095
1751.00000      432.44032        2.36533        -999.25        3.19373      -45.67130
1751.50000      431.46364        2.36465        -999.25        3.15360      -45.68165
1752.00000      430.48696        2.36396        -999.25        3.19235      -45.39556
1752.50000      428.51625        2.36327        -999.25        3.23111      -45.70441
1753.00000      426.54901        2.36258        -999.25        3.26987      -45.41832
