~Version ---------------------------------------------------
VERS. 2.0 : CWLS LOG ASCII STANDARD - VERSION 2.0
WRAP. NO  : One line per depth step
DLM . SPACE : Column Data Section Delimiter
~Well ------------------------------------------------------
STRT.F        986.5 : START DEPTH
STOP.F       1761.0 : STOP DEPTH
STEP.F          0.5 : STEP
NULL.       -999.25 : NULL VALUE
COMP.                 WALSH & WATTS, INC. : COMPANY
WELL.                       SALMON D E 6D : WELL
FLD .                             REGULAR : FIELD
CNTY.                            MONTAGUE : COUNTY
STAT.                               TEXAS : STATE
CTRY.                                 USA : COUNTRY
SEC .                                     : SECTION
TWP .                                     : TOWNSHIP
RGE .                                     : RANGE
LOC .  460 FSL 755 FEL
F. ROBERTSON A-620 : LOCATION
EKB .F                      880 : ELEVATION KELLY BUSHING
EDF .F                      878 : ELEVATION DERRICK FLOOR
EGL .F                      874 : ELEVATION GROUND LEVEL
PDAT.                        GL : PERMANENT DATUM
EPD .                       874 : ELEVATION PERMANENT DATUM
APD .                           : ABOVE PERMANENT DATUM
LMF .                        KB : LOG MEASURED FROM
DMF .                        KB : DRILLING MEASURED FROM
API .            42337016430000 : API NUMBER
UWI .            42337016430000 : UWI NUMBER
DIGC.                     NthDS : DIGITIZING COMPANY
~Params ----------------------------------------------------
SRVC.              SCHLUMBERGER : LOGGING COMPANY
LOG .                      DIFL : LOG
DATE.                2005-08-03 : RUN DATE
RUN .                         1 : RUN NUMBER
TDD .F                     1750 : TOTAL DEPTH DRILLER
TDL .F                     1750 : TOTAL DEPTH LOGGER
BOTL.F                     1750 : BOTTOM LOGGED INTERVAL
TOPL.F                      980 : TOP LOGGED INTERVAL
CSGS.IN                       7 : CASING SIZE
CSGD.F                      980 : CASING DRILLER
CSGL.F                      980 : CASING LOGGER
BS  .IN                     6.5 : BIT SIZE
MUD .                       FGM : MUD TYPE
MUDD.                       0.2 : MUD DENSITY
MUDV.                        80 : MUD VISCOSITY
PH  .                        11 : MUD PH
FL  .                         7 : FLUID LOSS
MUDS.                       PIT : SOURCE OF SAMPLE
RM  .OHMM                  1.70 : MUD RESISTIVITY
RMT .DEGF                    70 : RM TEMPERATURE
RMF .OHMM                  1.33 : MUD FILTRATE RESISTIVITY
RMFT.DEGF                    70 : RMF TEMPERATURE
RMC .OHMM                  2.67 : MUD CAKE RESISTIVITY
RMCT.DEGF                    70 : RMC TEMPERATURE
RMFS.                      MEAS : RMF SOURCE
RMCS.                       CAL : RMC SOURCE
RMBH.OHMM                  1.41 : MUD RESISTIVITY AT BHT
BHT .DEGF                    98 : BOTTOM HOLE TEMPERATURE
TIMC.                     2100  : TIME CIRCULATION STOPPED
TIML.                     0300  : TIME LOGGER ON BOTTOM
TMAX.DEGF                    98 : MAXIMUM RECORDED TEMPERATURE
UNIT.                       303 : EQUIPMENT NUMBER
BASE.                  WITCHATA : BASE LOCATION
ENG .              DAVID PARKER : RECORDED BY
WIT .              MR. BURLESON : WITNESSED BY
~Curve Information -----------------------------------------
DEPT.F          :DEPTH
GRR.API         :
ILD.OHMM        :
ILM.OHMM        :
SFL.OHMM        :
SP.MV           :
~ASCII ------------------------------------------------------
# ...
1080.50000       95.16094        3.32593        3.74870        5.75953      -96.38634
1081.00000      102.85712        3.17125        3.64816        5.42003      -95.09862
1081.50000      107.14283        3.01706        3.37020        5.10101      -93.81089
1082.00000      108.14786        2.87063        3.19037        4.89808      -92.52317
1082.50000      108.16899        2.94920        3.06969        5.09582      -91.46482
1083.00000      110.26054        3.08734        2.98459        5.31530      -90.74449
1083.50000      112.67502        3.22627        3.02404        5.54782      -89.88333
1084.00000      116.01607        3.37176        3.14642        5.79050      -89.73846
1084.50000      116.80078        3.52349        3.29532        6.04381      -89.73846
1085.00000      114.98991        3.68205        3.45126        6.30820      -89.73846
1085.50000      111.46778        3.73936        3.56809        6.47247      -89.73846
1086.00000      105.93559        3.67219        3.65728        6.47247      -89.98795
1086.50000      101.15792        3.61458        3.74836        6.33040      -91.22337
1087.00000      102.61567        3.61458        3.79439        6.32455      -92.46280
1087.50000      106.38830        3.61458        3.80916        6.30936      -92.75657
1088.00000      114.55832        3.40907        3.77794        6.00759      -92.42256
1088.50000      122.58951        3.20515        3.67253        5.76752      -92.15294
1089.00000      121.35510        3.25504        3.57040        5.60817      -92.15294
1089.50000      120.12069        3.26076        3.47078        5.73933      -92.15294
1090.00000      117.55530        3.09277        3.36211        5.48000      -92.20123
1090.50000      114.98991        3.20931        3.25353        5.30842      -92.45475
1091.00000      111.75752        3.28528        3.14875        5.44615      -93.10264
1091.50000      108.35007        3.12323        3.04734        5.41953      -94.02015
1092.00000      101.95772        2.95466        2.94920        5.15078      -95.44067
1092.50000       97.67804        2.97660        2.95685        5.06248      -96.89339
1093.00000       92.77664        3.04622        2.96451        5.23239      -98.34610
1093.50000       88.83197        3.09448        2.97192        5.23239      -99.79882
1094.00000       89.69817        3.11170        3.05637        5.28980      -99.54530
1094.50000       91.65994        3.14642        3.26498        5.58694      -98.86119
1095.00000       97.48489        3.22001        3.38019        5.90078      -97.25153
1095.50000      103.06838        3.17565        3.42867        5.50540      -96.17709
1096.00000      102.54022        3.21792        3.37239        5.63416      -96.17709
1096.50000      100.08649        3.27133        3.31702        5.76593      -97.18312
1097.00000       97.71124        3.32593        3.26287        5.54474      -97.78675
1097.50000       96.17804        3.26498        3.20931        5.24984      -97.78675
1098.00000       94.16497        3.20515        3.15691        5.33993      -98.44671
1098.50000       91.31587        3.14642        3.17301        5.48000      -99.54127
1099.00000       88.16799        3.14642        3.20693        5.48000     -101.13886
1099.50000       83.82795        3.14642        3.24092        5.48000     -103.15093
1100.00000       80.76457        3.17977        3.27527        5.53808     -103.82296
1100.50000       78.23998        3.25993        3.32478        5.67611     -104.40002
1101.00000       76.04098        3.31825        3.36087        5.79477     -105.06802
1101.50000       74.29198        3.37793        3.40931        6.04868     -105.53202
1102.00000       72.65398        3.55092        3.50870        6.31313     -105.20002
1102.50000       72.96898        3.63679        3.61132        6.43796     -102.62802
1103.00000       74.58598        3.56610        3.71660        6.31867     -100.96802
1103.50000       76.19998        3.49323        3.82530        6.11390      -99.91602
1104.00000       72.77098        3.42122        3.72985        5.91631      -98.86402
1104.50000       68.47498        3.33092        3.63678        5.74580      -97.81203
1105.00000       66.29998        3.23044        3.54604        5.61020      -97.24403
1105.50000       64.79998        3.13269        3.45755        5.47781      -96.80003
1106.00000       65.91898        3.03819        3.35790        5.34854      -95.65603
1106.50000       67.69198        2.98465        3.26112        5.19744      -94.74803
1107.00000       69.59998        2.98955        3.16684        5.12004      -94.00003
1107.50000       71.60098        2.99446        3.07557        5.07373      -92.33203
1108.00000       74.84998        2.99910        3.03425        5.02784      -92.00003
1108.50000       79.37998        3.00496        3.02280        5.10078      -91.07603
1109.00000       89.69998        3.00989        3.01324        5.25676      -90.15203
1109.50000       95.45998        3.04172        3.05469        5.41702      -89.45603
1110.00000      104.39997        3.18617        3.09671        5.55641      -89.09203
1110.50000      108.89997        3.22374        3.13931        5.59236      -88.68403
1111.00000      112.31997        3.23351        3.18220        5.62854      -88.11603
1111.50000      113.28897        3.24362        3.22478        5.66496      -88.45603
1112.00000      113.09997        3.26914        3.26280        5.70162      -89.02803
1112.50000      111.35097        3.30523        3.30126        5.76777      -89.60003
1113.00000      112.43997        3.34926        3.34018        5.84171      -90.00003
1113.50000      114.20097        3.38582        3.37956        5.91714      -90.40003
1114.00000      119.01297        3.45852        3.41941        5.99299      -89.51203
1114.50000      125.54997        3.53246        3.45972        5.97313      -88.60003
1115.00000      125.27397        3.41261        3.50051        5.86462      -87.60003
1115.50000      123.61497        3.29683        3.52120        5.71881      -86.34803
1116.00000      121.95897        3.18498        3.45947        5.55091      -84.10003
1116.50000      120.29997        3.06453        3.38701        5.38843      -83.08003
1117.00000      119.84997        3.00246        3.31137        5.24476      -82.84003
1117.50000      120.59997        2.96268        3.23323        5.16188      -81.91203
1118.00000      126.84897        2.95386        3.15693        5.08030      -80.80003
1118.50000      129.59997        2.94533        3.08243        5.00002      -80.80003
1119.00000      128.31297        2.96603        3.00969        4.92146      -80.80003
1119.50000      126.29997        3.03168        3.07886        5.02807      -80.80003
1120.00000      120.17097        3.09907        3.18625        5.26686      -80.64003
1120.50000      110.09997        3.16767        3.29769        5.51698      -81.24003
1121.00000      108.46497        3.31810        3.41270        5.80255      -83.34003
1121.50000      106.82697        3.47568        3.55073        6.14140      -85.44003
1122.00000      104.63397        3.70871        3.77375        6.58595      -87.54003
1122.50000      102.29997        4.05365        4.01040        7.23879      -90.18003
1123.00000      104.01297        4.32543        4.26190        7.79010      -93.63603
1123.50000      103.07997        4.46430        4.48167        8.37256      -96.82403
1124.00000       96.59998        4.71991        4.76024        8.28533      -98.95202
1124.50000       87.59998        4.66297        4.81992        8.19825     -101.07602
1125.00000       81.53398        4.53948        4.83454        8.00997     -103.20002
1125.50000       76.19998        4.38547        4.84965        7.67763     -103.64402
1126.00000       77.39998        4.18799        4.76684        7.35908     -104.00002
1126.50000       79.49998        3.99941        4.62303        7.05374     -104.00002
1127.00000       78.64198        3.85088        4.48315        6.76108     -105.92002
