~Version ---------------------------------------------------
VERS. 2.0 : CWLS LOG ASCII STANDARD - VERSION 2.0
WRAP. NO  : One line per depth step
DLM . SPACE : Column Data Section Delimiter
~Well ------------------------------------------------------
STRT.F          572 : START DEPTH
STOP.F       1770.0 : STOP DEPTH
STEP.F          0.5 : STEP
NULL.       -999.25 : NULL VALUE
COMP.         WALSH & WATTS, INCORPORATED : COMPANY
WELL.                         SALMON E 44 : WELL
FLD .                             REGULAR : FIELD
CNTY.                            MONTAGUE : COUNTY
STAT.                               TEXAS : STATE
CTRY.                                 USA : COUNTRY
SEC .                                     : SECTION
TWP .                                     : TOWNSHIP
RGE .                                     : RANGE
LOC . 300' WEST OF NO 23, 300' SOUTH OF D-9, F.ROBERTSON SURV. : LOCATION
EKB .F                      862 : ELEVATION KELLY BUSHING
EDF .F                          : ELEVATION DERRICK FLOOR
EGL .F                      856 : ELEVATION GROUND LEVEL
PDAT.                        GL : PERMANENT DATUM
EPD .                       856 : ELEVATION PERMANENT DATUM
APD .                         6 : ABOVE PERMANENT DATUM
LMF .                        KB : LOG MEASURED FROM
DMF .                        KB : DRILLING MEASURED FROM
API .            42337038720000 : API NUMBER
UWI .                           : UWI NUMBER
DIGC.                     NthDS : DIGITIZING COMPANY
~Params ----------------------------------------------------
SRVC.              SCHLUMBERGER : LOGGING COMPANY
LOG .                     SONIC : LOG
DATE.                1965-11-28 : RUN DATE
RUN .                         1 : RUN NUMBER
TDD .F                     1179 : TOTAL DEPTH DRILLER
TDL .F                     1179 : TOTAL DEPTH LOGGER
BOTL.F                     1170 : BOTTOM LOGGED INTERVAL
TOPL.F                      600 : TOP LOGGED INTERVAL
CSGS.IN                         : CASING SIZE
CSGD.F                          : CASING DRILLER
CSGL.F                          : CASING LOGGER
BS  .IN                   7.875 : BIT SIZE
MUD .                       GEL : MUD TYPE
MUDD.                        10 : MUD DENSITY
MUDV.                        98 : MUD VISCOSITY
PH  .                           : MUD PH
FL  .                           : FLUID LOSS
MUDS.                CIRCULATED : SOURCE OF SAMPLE
RM  .OHMM                   2.0 : MUD RESISTIVITY
RMT .DEGF                    81 : RM TEMPERATURE
RMF .OHMM                   1.5 : MUD FILTRATE RESISTIVITY
RMFT.DEGF                    81 : RMF TEMPERATURE
RMC .OHMM                       : MUD CAKE RESISTIVITY
RMCT.DEGF                       : RMC TEMPERATURE
RMFS.                         M : RMF SOURCE
RMCS.                           : RMC SOURCE
RMBH.OHMM                   1.6 : MUD RESISTIVITY AT BHT
BHT .DEGF                   100 : BOTTOM HOLE TEMPERATURE
TIMC.                           : TIME CIRCULATION STOPPED
TIML.                           : TIME LOGGER ON BOTTOM
TMAX.DEGF                   100 : MAXIMUM RECORDED TEMPERATURE
UNIT.                      4559 : EQUIPMENT NUMBER
BASE.                       WFS : BASE LOCATION
ENG .                      FINK : RECORDED BY
WIT .                       NIX : WITNESSED BY
~Curve Information -----------------------------------------
DEPT.F          :DEPTH
CALS.IN         :
DT.US/F         :
SP.MV           :
~ASCII ------------------------------------------------------
# ...
1010.00000        6.81867       58.64885     -128.22400
1010.50000        6.74208       57.58474     -127.95652
1011.00000        6.57101       65.52648     -127.68904
1011.50000        6.57569       84.64189     -127.95133
1012.00000        6.58018       98.16376     -127.10119
1012.50000        6.58486      103.69171     -124.11759
1013.00000        6.58955      103.68137     -117.54834
1013.50000        6.59403      102.34236     -110.23209
1014.00000        6.59872      102.94257     -114.56918
1014.50000        6.60340      103.22406     -124.13532
1015.00000        6.60809      102.86114     -128.09890
1015.50000        6.61351      104.17548     -129.03559
1016.00000        6.61819      104.92509     -129.52708
1016.50000        6.62288      104.64583     -129.98060
1017.00000        6.62736      103.73510     -130.23304
1017.50000        6.63205      104.50363     -130.40480
1018.00000        6.63673      105.42607     -131.29668
1018.50000        6.64122      105.41474     -131.94055
1019.00000        6.64590      104.88249     -131.94499
1019.50000        6.64441      104.35024     -131.94942
1020.00000        6.64272      103.81800     -131.12318
1020.50000        6.64077      103.28575     -130.27304
1021.00000        6.63928      102.99753     -129.32727
1021.50000        6.63759      103.68439     -128.38240
1022.00000        6.63610      103.78162     -128.38683
1022.50000        6.63441      102.81810     -128.71995
1023.00000        6.63292      100.77891     -129.54609
1023.50000        6.63123       97.79351     -130.37223
1024.00000        6.62974       97.55707     -131.19837
1024.50000        6.62805       98.73994     -131.33727
1025.00000        6.62656       97.47564     -131.18334
1025.50000        6.62461       96.21033     -132.13796
1026.00000        6.62292       97.83144     -133.02475
1026.50000        6.62143      101.62337     -133.32799
1027.00000        6.63289      104.96358     -133.66111
1027.50000        6.64434      105.63350     -134.44243
1028.00000        6.65560      101.40310     -135.49267
1028.50000        6.64674       98.96551     -135.31782
1029.00000        6.62433       98.79879     -133.08123
1029.50000        6.61966      100.36512     -130.84464
1030.00000        6.61936      101.66253     -130.17676
1030.50000        6.61901      100.42014     -130.55470
1031.00000        6.61871      100.42275     -127.23943
1031.50000        6.61842      104.15092     -125.95392
1032.00000        6.61812      103.81489     -129.37367
1032.50000        6.61543      103.33942     -131.72670
1033.00000        6.60876      105.51331     -130.65245
1033.50000        6.60229      111.82360     -127.59415
1034.00000        6.61435      117.67027     -126.40337
1034.50000        6.70130      109.65454     -127.90182
1035.00000        6.72531       93.17331     -129.40027
1035.50000        6.70749       91.35822     -130.89872
1036.00000        6.68602       97.22927     -128.81153
1036.50000        6.69229      102.94196     -115.01124
1037.00000        6.73463      102.67915      -95.05561
1037.50000        6.66800       94.18235      -88.78517
1038.00000        6.64858       95.64610     -108.51151
1038.50000        6.64131      100.30354     -121.21509
1039.00000        6.63384       99.78823     -125.04122
1039.50000        6.62239      100.04482     -126.75182
1040.00000        6.61114      102.36313     -126.00924
1040.50000        6.59744      105.00514     -125.26667
1041.00000        6.60611      108.24476     -124.28804
1041.50000        6.62792      111.97293     -124.14097
1042.00000        6.63201      111.47057     -123.87349
1042.50000        6.63172      108.25310     -123.69266
1043.00000        6.63142      102.97638     -126.18613
1043.50000        6.63112       99.99098     -128.87979
1044.00000        6.63083      102.28491     -130.97585
1044.50000        6.63053      104.27952     -128.65559
1045.00000        6.63860      104.97933     -126.68792
1045.50000        6.64821       99.64636     -126.13359
1046.00000        6.64951       94.37712     -124.76054
1046.50000        6.64921       96.20242     -121.06369
1047.00000        6.64892      101.47089     -115.65380
1047.50000        6.62233      102.40276     -120.07156
1048.00000        6.59554      101.55877     -125.43354
1048.50000        6.56895      103.35418     -128.62620
1049.00000        6.54236      103.96435     -130.02605
1049.50000        6.51557      102.68311     -130.52650
1050.00000        6.49920      105.27359     -130.87658
1050.50000        6.45289      100.18174     -128.49059
1051.00000        6.16270       95.85851     -121.72115
1051.50000        5.91937       92.39549     -118.76743
1052.00000        5.81948       95.05975     -120.31070
1052.50000        5.77556       99.36630     -121.18764
1053.00000        5.76889       98.82165     -122.06458
1053.50000        5.76222       95.29144     -121.31304
1054.00000        5.75555       94.40849     -120.45481
1054.50000        5.74888       98.68021     -121.95326
1055.00000        5.74221      105.29964     -123.48159
1055.50000        5.73554      108.28728     -125.12944
1056.00000        5.72887      107.49388     -126.44861
1056.50000        5.72240      100.53140     -126.45305
1057.00000        5.81652       89.82072     -122.42363
1057.50000        6.36204       85.74326     -118.39422
1058.00000        6.71234       84.58966     -115.96938
1058.50000        6.80169       86.44100     -110.41009
1059.00000        6.89103       90.79332     -100.14465
1059.50000        7.06783       93.53220      -91.16108
1060.00000        7.21912       87.37569      -98.33680
1060.50000        7.26863       80.65150     -112.07124
1061.00000        7.30877       80.60435     -120.31668
1061.50000        7.31107       86.67705     -125.37686
1062.00000        7.31356       89.71444     -127.39822
1062.50000        7.31585       87.42851     -126.57496
1063.00000        7.31835       84.44609     -125.20191
1063.50000        7.32064       80.39748     -123.82588
1064.00000        7.32313       74.22704     -123.58230
1064.50000        7.32543       69.17001     -123.33574
1065.00000        7.33981       68.43631     -124.13798
1065.50000        7.34251       71.62295     -125.63643
1066.00000        7.33783       80.58117     -127.38975
1066.50000        7.33295       82.78673     -128.65812
1067.00000        7.32807       83.04108     -129.92649
1067.50000        7.32061       81.99295     -129.27057
1068.00000        7.30219       82.26321     -127.33278
1068.50000        7.28376       83.95535     -125.36511
1069.00000        7.26355       86.33503     -123.83369
1069.50000        7.16365       88.75850     -122.98355
1070.00000        7.10359       85.65667     -124.31467
1070.50000        7.20290       77.88525     -124.85097
1071.00000        7.11754       75.13466     -122.19904
1071.50000        6.90888       79.28348     -121.12180
1072.00000        6.77034       82.60245     -122.40810
1072.50000        6.75351       83.10257     -123.05198
1073.00000        6.91636       81.41365     -124.32931
1073.50000        7.10770       80.91875     -126.02796
1074.00000        7.26199       82.59297     -127.72362
1074.50000        7.26826       86.65575     -129.81370
1075.00000        7.27454       87.49416     -131.39880
1075.50000        7.27883       86.10375     -129.70304
1076.00000        7.27435       83.37007     -127.17960
1076.50000        7.26987       79.32246     -124.65317
1077.00000        7.26539       76.02163     -122.30303
1077.50000        7.26006       74.92972     -122.12519
1078.00000        7.23426       74.92238     -122.46130
1078.50000        7.19413       77.16376     -124.51641
1079.00000        7.18606       83.83346     -126.22701
1079.50000        7.19951       85.55246     -127.49538
1080.00000        7.21296       85.79586     -128.09742
1080.50000        7.22641       89.51284     -128.03313
1081.00000        7.23986       93.09800     -126.97083
