~Version ---------------------------------------------------
VERS. 2.0 : CWLS LOG ASCII STANDARD - VERSION 2.0
WRAP. NO  : One line per depth step
DLM . SPACE : Column Data Section Delimiter
~Well ------------------------------------------------------
STRT.F          642 : START DEPTH
STOP.F       1779.0 : STOP DEPTH
STEP.F          0.5 : STEP
NULL.       -999.25 : NULL VALUE
COMP.                       WALSH & WATTS : COMPANY
WELL.                        SALMON E 24  : WELL
FLD .                               NORTH : FIELD
CNTY.                            MONTAGUE : COUNTY
STAT.                               TEXAS : STATE
CTRY.                                 USA : COUNTRY
SEC .                                     : SECTION
TWP .                                     : TOWNSHIP
RGE .                                     : RANGE
LOC .                 SW CORNER OF LEAGUE : LOCATION
EKB .F                          : ELEVATION KELLY BUSHING
EDF .F                          : ELEVATION DERRICK FLOOR
EGL .F                      850 : ELEVATION GROUND LEVEL
PDAT.                        GL : PERMANENT DATUM
EPD .                       850 : ELEVATION PERMANENT DATUM
APD .                         5 : ABOVE PERMANENT DATUM
LMF .                        RT : LOG MEASURED FROM
DMF .                        RT : DRILLING MEASURED FROM
API .            42337038630000 : API NUMBER
UWI .                           : UWI NUMBER
DIGC.                     NthDS : DIGITIZING COMPANY
~Params ----------------------------------------------------
SRVC.              SCHLUMBERGER : LOGGING COMPANY
LOG .                       GRN : LOG
DATE.                1964-03-24 : RUN DATE
RUN .                         1 : RUN NUMBER
TDD .F                     1783 : TOTAL DEPTH DRILLER
TDL .F                     1782 : TOTAL DEPTH LOGGER
BOTL.F                     1780 : BOTTOM LOGGED INTERVAL
TOPL.F                      650 : TOP LOGGED INTERVAL
CSGS.IN                     4.5 : CASING SIZE
CSGD.F                     1802 : CASING DRILLER
CSGL.F                          : CASING LOGGER
BS  .IN                       9 : BIT SIZE
MUD .                     WATER : MUD TYPE
MUDD.                           : MUD DENSITY
MUDV.                           : MUD VISCOSITY
PH  .                           : MUD PH
FL  .                           : FLUID LOSS
MUDS.                           : SOURCE OF SAMPLE
RM  .OHMM                       : MUD RESISTIVITY
RMT .DEGF                       : RM TEMPERATURE
RMF .OHMM                       : MUD FILTRATE RESISTIVITY
RMFT.DEGF                       : RMF TEMPERATURE
RMC .OHMM                       : MUD CAKE RESISTIVITY
RMCT.DEGF                       : RMC TEMPERATURE
RMFS.                           : RMF SOURCE
RMCS.                           : RMC SOURCE
RMBH.OHMM                       : MUD RESISTIVITY AT BHT
BHT .DEGF                       : BOTTOM HOLE TEMPERATURE
TIMC.                           : TIME CIRCULATION STOPPED
TIML.                           : TIME LOGGER ON BOTTOM
TMAX.DEGF                   107 : MAXIMUM RECORDED TEMPERATURE
UNIT.                           : EQUIPMENT NUMBER
BASE.                           : BASE LOCATION
ENG .                    MCCUNE : RECORDED BY
WIT .                       NIX : WITNESSED BY
~Curve Information -----------------------------------------
DEPT.F          :DEPTH
GRN.GAPI        :
NEUT.API        :
~ASCII ------------------------------------------------------
# ...
1335.00000       77.72343      534.49946
1335.50000       79.32664      531.83413
1336.00000       81.89177      530.50146
1336.50000       83.49497      538.49746
1337.00000       84.61722      545.16080
1337.50000       85.25850      541.16280
1338.00000       82.85369      549.15880
1338.50000       80.44888      555.82213
1339.00000       78.20439      555.82213
1339.50000       76.92183      563.81814
1340.00000       77.08215      573.14681
1340.50000       78.20439      578.47748
1341.00000       78.04407      581.14281
1341.50000       75.95991      579.81014
1342.00000       72.11221      573.14681
1342.50000       69.54708      563.81814
1343.00000       67.78355      561.15280
1343.50000       69.86772      561.15280
1344.00000       74.99798      569.14881
1344.50000       80.28856      575.81214
1345.00000       83.97594      582.47548
1345.50000       83.33465      585.14081
1346.00000       81.09016      593.13681
1346.50000       78.04407      593.13681
1347.00000       73.55510      590.47148
1347.50000       69.70740      583.80814
1348.00000       70.02804      590.47148
1348.50000       72.75349      595.80215
1349.00000       75.47894      605.13082
1349.50000       76.12023      614.45949
1350.00000       75.15830      617.12482
1350.50000       74.67734      611.79416
1351.00000       75.31862      610.46149
1351.50000       76.92183      617.12482
1352.00000       77.56311      631.78416
1352.50000       76.60119      647.77617
1353.00000       74.99798      654.43950
1353.50000       74.67734      650.44150
1354.00000       75.95991      638.44750
1354.50000       77.56311      631.78416
1355.00000       77.72343      621.00289
1355.50000       76.76151      612.52712
1356.00000       75.79958      615.40568
1356.50000       76.60119      606.84996
1357.00000       77.56311      615.79216
1357.50000       76.60119      614.45949
1358.00000       76.60119      607.79615
1358.50000       78.68536      602.46549
1359.00000       79.48696      599.80015
1359.50000       80.28856      594.46948
1360.00000       80.44888      595.80215
1360.50000       79.80760      598.46748
1361.00000       79.48696      590.47148
1361.50000       78.52503      589.13881
1362.00000       76.92183      594.46948
1362.50000       74.67734      598.46748
1363.00000       72.43285      594.46948
1363.50000       72.59317      581.14281
1364.00000       74.03606      566.48347
1364.50000       75.31862      558.48747
1365.00000       74.67734      553.15680
1365.50000       74.03606      550.49147
1366.00000       74.03606      549.15880
1366.50000       75.15830      565.15080
1367.00000       76.76151      582.47548
1367.50000       78.40479      582.47548
1368.00000       79.93586      581.14281
1368.50000       78.65329      582.47548
1369.00000       77.24247      589.13881
1369.50000       76.12023      591.80415
1370.00000       75.95991      598.46748
1370.50000       77.24247      606.46349
1371.00000       78.36471      611.79416
1371.50000       79.16632      609.12882
1372.00000       80.36872      610.46149
1372.50000       81.25048      609.12882
1373.00000       80.44888      610.46149
1373.50000       77.72343      613.12682
1374.00000       76.92183      622.45549
1374.50000       78.52503      637.11483
1375.00000       80.12824      654.43950
1375.50000       80.92984      667.76618
1376.00000       82.69337      667.76618
1376.50000       82.21241      663.76817
1377.00000       80.60920      654.43950
1377.50000       79.80760      635.78216
1378.00000       81.41081      611.79416
1378.50000       81.57113      590.47148
1379.00000       80.76952      583.80814
1379.50000       81.09016      577.14481
1380.00000       82.85369      571.81414
1380.50000       83.49497      569.14881
1381.00000       82.21241      567.81614
1381.50000       80.60920      569.14881
1382.00000       78.04407      571.81414
1382.50000       75.47894      575.81214
1383.00000       73.23445      574.47947
1383.50000       73.55510      582.47548
1384.00000       74.19638      590.47148
1384.50000       74.99798      605.13082
1385.00000       75.31862      617.12482
1385.50000       76.60119      634.44950
1386.00000       78.04407      642.44550
1386.50000       79.00600      646.44350
1387.00000       80.87694      653.10684
1387.50000       79.96792      659.77017
1388.00000       77.24247      659.77017
1388.50000       74.51702      649.10884
1389.00000       73.55510      633.11683
1389.50000       73.07413      611.79416
1390.00000       73.87574      593.13681
1390.50000       75.63926      575.81214
1391.00000       76.28055      562.48547
1391.50000       76.92183      558.48747
1392.00000       79.32664      553.15680
1392.50000       81.41081      547.82613
1393.00000       84.13626      549.15880
1393.50000       85.41882      557.15480
1394.00000       83.65529      567.81614
1394.50000       81.25048      569.14881
1395.00000       80.12824      573.14681
1395.50000       79.64728      578.47748
1396.00000       78.68536      570.48147
1396.50000       76.44087      566.48347
1397.00000       73.87574      569.14881
1397.50000       72.59317      575.81214
1398.00000       73.55510      575.81214
1398.50000       75.79958      570.48147
1399.00000       77.88375      557.15480
1399.50000       78.20439      551.82413
1400.00000       76.92183      555.82213
1400.50000       71.15029      559.82014
1401.00000       70.34868      565.15080
1401.50000       70.82965      562.48547
1402.00000       71.63125      561.15280
1402.50000       72.59317      557.15480
1403.00000       73.39478      554.48947
1403.50000       73.71542      557.15480
1404.00000       75.15830      559.82014
1404.50000       78.36471      569.14881
1405.00000       81.89177      582.47548
1405.50000       79.80760      589.13881
1406.00000       76.76151      594.46948
1406.50000       75.47894      606.46349
1407.00000       78.52503      613.12682
1407.50000       81.69137      617.12482
1408.00000       80.12824      619.79016
1408.50000       78.68536      615.79216
1409.00000       76.60119      605.13082
1409.50000       74.03606      591.80415
1410.00000       72.75349      577.14481
1410.50000       73.71542      565.15080
1411.00000       77.08215      547.82613
1411.50000       80.92984      538.49746
1412.00000       84.02884      530.50146
1412.50000       81.41081      527.83612
1413.00000       75.47894      537.16479
1413.50000       71.63125      551.82413
1414.00000       69.54708      567.81614
1414.50000       70.50900      575.81214
1415.00000       73.07413      583.80814
1415.50000       74.83766      589.13881
1416.00000       78.04407      587.80615
1416.50000       81.73145      591.80415
1417.00000       84.93786      582.47548
1417.50000       86.06010      565.15080
1418.00000       82.69337      563.81814
1418.50000       78.84568      566.48347
1419.00000       76.41361      571.81414
1419.50000       77.61602      581.14281
1420.00000       77.12864      593.13681
1420.50000       75.31862      609.12882
1421.00000       75.31862      621.12283
1421.50000       76.44087      629.11883
1422.00000       77.40279      635.78216
1422.50000       78.52503      642.44550
1423.00000       78.20439      650.44150
1423.50000       76.76151      651.77417
1424.00000       74.83766      654.43950
1424.50000       74.51702      655.77217
1425.00000       75.31862      645.11083
1425.50000       73.87574      633.11683
1426.00000       70.02804      629.11883
1426.50000       65.37875      621.12283
1427.00000       63.77554      610.46149
1427.50000       64.73746      606.46349
1428.00000       66.82163      609.12882
1428.50000       67.94387      611.79416
1429.00000       69.54708      607.79615
1429.50000       72.59317      603.79815
1430.00000       77.40279      594.46948
1430.50000       78.87293      582.47548
1431.00000       76.60119      570.48147
1431.50000       73.39478      555.82213
1432.00000       72.91381      543.82813
1432.50000       73.71542      534.49946
