~Version ---------------------------------------------------
VERS. 2.0 : CWLS LOG ASCII STANDARD - VERSION 2.0
WRAP. NO  : One line per depth step
DLM . SPACE : Column Data Section Delimiter
~Well ------------------------------------------------------
STRT.F          230 : START DEPTH
STOP.F       1777.5 : STOP DEPTH
STEP.F          0.5 : STEP
NULL.       -999.25 : NULL VALUE
COMP.         WALSH & WATTS, INCORPORATED : COMPANY
WELL.                         SALMON E 44 : WELL
FLD .                             REGULAR : FIELD
CNTY.                            MONTAGUE : COUNTY
STAT.                               TEXAS : STATE
CTRY.                                 USA : COUNTRY
SEC .                                     : SECTION
TWP .                                     : TOWNSHIP
RGE .                                     : RANGE
LOC . 300' WEST OF NO 23, 300' SOUTH OF D-9, F.ROBERTSON SURV. : LOCATION
EKB .F                      862 : ELEVATION KELLY BUSHING
EDF .F                          : ELEVATION DERRICK FLOOR
EGL .F                      856 : ELEVATION GROUND LEVEL
PDAT.                        GL : PERMANENT DATUM
EPD .                       856 : ELEVATION PERMANENT DATUM
APD .                         6 : ABOVE PERMANENT DATUM
LMF .                        KB : LOG MEASURED FROM
DMF .                        KB : DRILLING MEASURED FROM
API .            42337038720000 : API NUMBER
UWI .                           : UWI NUMBER
DIGC.                     NthDS : DIGITIZING COMPANY
~Params ----------------------------------------------------
SRVC.              SCHLUMBERGER : LOGGING COMPANY
LOG .                       IEL : LOG
DATE.                1965-11-28 : RUN DATE
RUN .                         1 : RUN NUMBER
TDD .F                     1779 : TOTAL DEPTH DRILLER
TDL .F                     1779 : TOTAL DEPTH LOGGER
BOTL.F                     1778 : BOTTOM LOGGED INTERVAL
TOPL.F                          : TOP LOGGED INTERVAL
CSGS.IN                         : CASING SIZE
CSGD.F                          : CASING DRILLER
CSGL.F                          : CASING LOGGER
BS  .IN                   7.875 : BIT SIZE
MUD .                       GEL : MUD TYPE
MUDD.                        10 : MUD DENSITY
MUDV.                       9.8 : MUD VISCOSITY
PH  .                           : MUD PH
FL  .                           : FLUID LOSS
MUDS.                CIRCULATED : SOURCE OF SAMPLE
RM  .OHMM                   2.0 : MUD RESISTIVITY
RMT .DEGF                    81 : RM TEMPERATURE
RMF .OHMM                   1.5 : MUD FILTRATE RESISTIVITY
RMFT.DEGF                    81 : RMF TEMPERATURE
RMC .OHMM                       : MUD CAKE RESISTIVITY
RMCT.DEGF                       : RMC TEMPERATURE
RMFS.                         M : RMF SOURCE
RMCS.                           : RMC SOURCE
RMBH.OHMM                   1.6 : MUD RESISTIVITY AT BHT
BHT .DEGF                   100 : BOTTOM HOLE TEMPERATURE
TIMC.                           : TIME CIRCULATION STOPPED
TIML.                           : TIME LOGGER ON BOTTOM
TMAX.DEGF                   100 : MAXIMUM RECORDED TEMPERATURE
UNIT.                      4559 : EQUIPMENT NUMBER
BASE.                       WFS : BASE LOCATION
ENG .                      FINK : RECORDED BY
WIT .                       NIX : WITNESSED BY
~Curve Information -----------------------------------------
DEPT.F          :DEPTH
CILD.MMHO       :
ILD.OHMM        :
SN.OHMM         :
SP.MV           :
~ASCII ------------------------------------------------------
# ...
1034.50000     1703.92750        0.55357        1.11357     -108.00001
1035.00000     1694.93602        0.55291        1.10730     -108.00001
1035.50000     1594.85401        0.59064        1.10104     -108.20101
1036.00000     1393.04742        0.62838        1.09478     -108.53401
1036.50000     1264.80743        0.66612        1.08851     -108.12001
1037.00000     1197.50800        0.70425        1.08265     -103.20001
1037.50000     1195.02299        0.74199        1.07639      -95.70001
1038.00000     1214.05936        0.72533        1.07013      -82.20002
1038.50000     1251.32384        0.69546        1.19266      -78.45002
1039.00000     1305.68532        0.66520        1.34760      -88.23902
1039.50000     1385.78587        0.63534        1.31373      -95.92501
1040.00000     1467.68471        0.60508        1.22627     -103.50001
1040.50000     1572.30614        0.57521        1.12561     -105.00001
1041.00000     1697.15115        0.54495        1.06055     -104.62501
1041.50000     1789.66054        0.54429        1.04948     -104.25001
1042.00000     1857.67908        0.54362        1.03842     -104.03701
1042.50000     1862.37120        0.54283        1.02482     -103.92901
1043.00000     1819.34589        0.54216        1.11216     -103.82101
1043.50000     1755.63002        0.54150        1.22390     -104.64001
1044.00000     1700.05876        0.54084        1.33603     -105.69001
1044.50000     1616.52320        0.55937        1.36417     -107.58901
1045.00000     1523.36807        0.57751        1.33671     -108.06601
1045.50000     1459.57213        0.59605        1.30964     -106.73401
1046.00000     1417.54782        0.61418        1.31218     -105.30001
1046.50000     1384.70263        0.63272        1.33512     -103.80001
1047.00000     1351.34693        0.65126        1.35805     -102.30001
1047.50000     1304.98832        0.66939        1.38419     -100.29901
1048.00000     1285.98689        0.68793        1.42353      -98.92501
1048.50000     1297.58587        0.68447        1.51006     -101.16001
1049.00000     1325.49105        0.66620        1.78420     -104.44201
1049.50000     1361.11391        0.64834        2.05713     -106.80001
1050.00000     1380.37724        0.65720        2.35639     -108.08701
1050.50000     1386.90118        0.63933        2.43932     -109.14001
1051.00000     1373.96578        0.65374        2.23866     -107.40001
1051.50000     1352.84224        0.66547        1.72307     -105.00001
1052.00000     1327.06407        0.67721        1.54721     -102.50101
1052.50000     1298.16281        0.67655        1.41174      -99.30001
1053.00000     1272.37463        0.67588        1.48588      -99.84601
1053.50000     1250.87071        0.67522        1.64722     -100.39201
1054.00000     1236.57396        0.67456        1.86655     -100.10101
1054.50000     1206.36139        0.67389        2.27789      -99.60001
1055.00000     1158.33111        0.67323        2.81722      -99.09901
1055.50000     1096.48710        0.73657        3.34095      -99.45001
1056.00000     1033.23821        0.79990        3.75189     -100.11901
1056.50000      999.21487        0.86324        3.55122     -101.20801
1057.00000      959.60770        0.92658        3.30056     -102.30001
1057.50000      891.65762        0.98991        3.04990     -101.92501
1058.00000      831.44174        1.15765        2.79924     -100.67101
1058.50000      738.03637        1.32538        2.77778      -98.10001
1059.00000      619.93646        1.49312        2.81351      -95.34901
1059.50000      547.88230        1.65126        2.79285      -92.60101
1060.00000      525.47400        1.77059        2.73499      -89.00102
1060.50000      505.87197        1.85273        2.67752      -84.83402
1061.00000      529.31621        1.78527        2.82526      -81.00002
1061.50000      560.23439        1.70447        3.15300      -85.68002
1062.00000      594.37578        1.63701        3.48113      -94.05001
1062.50000      619.30801        1.56995        3.69327     -100.65001
1063.00000      626.99310        1.50248        3.14807     -104.28001
1063.50000      616.54016        1.54782        2.57021     -105.66001
1064.00000      606.09724        1.59356        2.31275     -104.97301
1064.50000      619.12764        1.56449        2.16449     -104.15401
1065.00000      673.69933        1.42383        2.49982     -103.56001
1065.50000      728.27101        1.26597        3.19916     -103.86001
1066.00000      811.80497        1.08171        4.11849     -104.32501
1066.50000      889.03918        0.89784        4.89782     -105.45001
1067.00000      942.53980        0.86398        3.89276     -106.80001
1067.50000     1028.38831        0.82972        2.73651     -107.92501
1068.00000     1090.38738        0.79585        2.16065     -108.51301
1068.50000     1182.83019        0.76199        1.78599     -108.30001
1069.00000     1220.88546        0.72773        1.71252     -106.37101
1069.50000     1229.24122        0.69386        1.65986     -104.44201
1070.00000     1158.65853        0.74600        1.68920     -102.87601
1070.50000     1061.77621        0.79774        1.71853     -102.76201
1071.00000      998.73877        0.86014        1.74787     -102.64501
1071.50000      932.69058        0.92828        1.80867     -101.97001
1072.00000      864.63692        1.02121        1.90201     -100.92001
1072.50000      824.61460        1.11375        1.99575     -101.25001
1073.00000      811.81933        1.14909        2.08908     -102.46201
1073.50000      812.30727        1.09842        2.04842     -103.61401
1074.00000      826.66900        1.04776        2.00776     -104.76901
1074.50000      841.70139        0.99710        1.96709     -105.92401
1075.00000      850.22732        0.99443        1.92643     -107.07601
1075.50000      839.53414        1.06377        1.91137     -108.25801
1076.00000      812.22446        1.13311        1.89670     -109.54201
1076.50000      778.45835        1.20244        1.89004     -108.94201
1077.00000      747.69523        1.25378        1.91818     -107.64601
1077.50000      724.68982        1.27832        2.07471     -106.00801
1078.00000      731.96451        1.21245        2.26365     -104.45101
1078.50000      763.26307        1.12419        2.45218     -103.20001
1079.00000      830.96129        1.03633        2.64112     -103.20001
1079.50000      899.93729        0.97447        2.56046     -103.91701
1080.00000      941.24579        0.93020        2.27420     -104.63401
1080.50000      975.47727        0.88594        1.98753     -105.35101
1081.00000      999.08818        0.83314        1.78087     -106.07101
1081.50000     1026.01814        0.80008        1.89101     -106.38001
1082.00000     1041.56104        0.81102        2.10901     -105.60001
1082.50000     1044.78169        0.82235        2.36155     -104.10001
1083.00000     1010.91549        0.83329        2.61448     -103.20001
1083.50000      999.17903        0.84463        2.69502     -104.16901
1084.00000      950.47459        0.85557        2.59436     -104.97601
1084.50000      907.11896        0.86650        2.39369     -105.90001
1085.00000      895.12449        0.87664        2.19303     -106.89901
1085.50000      918.76544        0.88438        2.04557     -107.10001
1086.00000      942.45644        0.89251        1.93411     -106.95001
1086.50000      961.24605        0.90065        1.99104     -106.70101
1087.00000      946.24860        0.90879        2.05038     -106.10101
1087.50000      907.22378        0.95772        1.94972     -105.13501
1088.00000      844.17858        1.01706        1.87625     -104.86501
1088.50000      780.38264        1.11559        1.91199     -104.01301
1089.00000      731.60161        1.22413        1.94773     -102.30001
1089.50000      685.40315        1.33267        2.06146      -99.48901
1090.00000      640.93642        1.44080        2.10640      -95.16001
1090.50000      612.03515        1.53254        2.10574      -87.00002
