~Version ---------------------------------------------------
VERS. 2.0 : CWLS LOG ASCII STANDARD - VERSION 2.0
WRAP. NO  : One line per depth step
DLM . SPACE : Column Data Section Delimiter
~Well ------------------------------------------------------
STRT.F          100 : START DEPTH
STOP.F       2271.5 : STOP DEPTH
STEP.F          0.5 : STEP
NULL.       -999.25 : NULL VALUE
COMP.                       WALSH & WATTS : COMPANY
WELL.                        SALMON E 24  : WELL
FLD .                               NORTH : FIELD
CNTY.                            MONTAGUE : COUNTY
STAT.                               TEXAS : STATE
CTRY.                                 USA : COUNTRY
SEC .                                     : SECTION
TWP .                                     : TOWNSHIP
RGE .                                     : RANGE
LOC .                 SW CORNER OF LEAGUE : LOCATION
EKB .F                          : ELEVATION KELLY BUSHING
EDF .F                          : ELEVATION DERRICK FLOOR
EGL .F                      850 : ELEVATION GROUND LEVEL
PDAT.                        GL : PERMANENT DATUM
EPD .                       850 : ELEVATION PERMANENT DATUM
APD .                         5 : ABOVE PERMANENT DATUM
LMF .                        RT : LOG MEASURED FROM
DMF .                        RT : DRILLING MEASURED FROM
API .            42337038630000 : API NUMBER
UWI .                           : UWI NUMBER
DIGC.                     NthDS : DIGITIZING COMPANY
~Params ----------------------------------------------------
SRVC.               HALLIBURTON : LOGGING COMPANY
LOG .                        EL : LOG
DATE.                1950-09-25 : RUN DATE
RUN .                         1 : RUN NUMBER
TDD .F                     2272 : TOTAL DEPTH DRILLER
TDL .F                     2272 : TOTAL DEPTH LOGGER
BOTL.F                     2272 : BOTTOM LOGGED INTERVAL
TOPL.F                          : TOP LOGGED INTERVAL
CSGS.IN                         : CASING SIZE
CSGD.F                          : CASING DRILLER
CSGL.F                          : CASING LOGGER
BS  .IN                       9 : BIT SIZE
MUD .        WATER BASE AQUAGEL : MUD TYPE
MUDD.                       9.8 : MUD DENSITY
MUDV.                        39 : MUD VISCOSITY
PH  .                           : MUD PH
FL  .                           : FLUID LOSS
MUDS.                           : SOURCE OF SAMPLE
RM  .OHMM                   2.3 : MUD RESISTIVITY
RMT .DEGF                    70 : RM TEMPERATURE
RMF .OHMM                       : MUD FILTRATE RESISTIVITY
RMFT.DEGF                       : RMF TEMPERATURE
RMC .OHMM                       : MUD CAKE RESISTIVITY
RMCT.DEGF                       : RMC TEMPERATURE
RMFS.                           : RMF SOURCE
RMCS.                           : RMC SOURCE
RMBH.OHMM                       : MUD RESISTIVITY AT BHT
BHT .DEGF                       : BOTTOM HOLE TEMPERATURE
TIMC.                           : TIME CIRCULATION STOPPED
TIML.                           : TIME LOGGER ON BOTTOM
TMAX.DEGF                       : MAXIMUM RECORDED TEMPERATURE
UNIT.                           : EQUIPMENT NUMBER
BASE.                           : BASE LOCATION
ENG .                  HARRISON : RECORDED BY
WIT .                    DAWSON : WITNESSED BY
~Curve Information -----------------------------------------
DEPT.F          :DEPTH
ILD.OHMM        :
SN.OHMM         :
SP.MV           :
~ASCII ------------------------------------------------------
# ...
976.00000        2.10554        3.49869      -25.16615
976.50000        2.13371        3.66709      -24.15748
977.00000        2.16104        3.66855      -23.81794
977.50000        2.16751        3.67000      -23.81298
978.00000        2.16897        3.75493      -24.14259
978.50000        2.17042        3.75639      -24.13762
979.00000        2.17188        3.84132      -23.79809
979.50000        2.17334        3.75930      -23.79313
980.00000        2.17479        3.67729      -24.12273
980.50000        2.16122        3.59527      -24.11777
981.00000        2.08923        3.51355      -24.44738
981.50000        2.01723        3.51501      -24.77698
982.00000        1.94523        3.51646      -24.43745
982.50000        1.98788        3.51792      -24.76706
983.00000        2.04443        3.51938      -25.43024
983.50000        2.10181        3.68778      -25.09071
984.00000        2.01980        3.68923      -24.41660
984.50000        1.93778        3.77416      -24.07707
985.00000        1.85577        3.77562      -24.07211
985.50000        1.91983        3.77708      -24.06714
986.00000        1.98389        3.77853      -24.06218
986.50000        2.04795        3.69652      -23.72264
987.00000        2.11201        3.69798      -22.71397
987.50000        2.19193        3.78290      -22.37443
988.00000        2.27101        3.78436      -22.03490
988.50000        2.35094        3.78582      -21.69536
989.00000        2.41583        3.78727      -21.69040
989.50000        2.47739        3.78873      -21.68544
990.00000        2.53811        3.87366      -21.34590
990.50000        2.72905        3.87512      -21.67551
991.00000        2.92082        3.87657      -22.33969
991.50000        2.95984        3.84297      -23.33844
992.00000        2.98216        3.81021      -25.00633
992.50000        3.08796        3.80999      -27.00879
993.00000        3.00595        3.83232      -29.01125
993.50000        2.79872        3.85464      -29.67543
994.00000        2.67497        3.87697      -29.00133
994.50000        2.63469        3.97024      -27.99265
995.00000        2.63615        4.05517      -27.65312
995.50000        2.63761        4.05663      -27.64815
996.00000        2.66327        3.97461      -27.30763
996.50000        2.68810        3.80913      -26.63352
997.00000        2.71376        3.81058      -26.62856
997.50000        2.73859        3.97928      -26.95816
998.00000        2.76426        3.98073      -27.95691
998.50000        2.79438        4.06566      -28.95566
999.00000        2.82923        4.06712      -28.95070
999.50000        2.89997        4.15205      -28.61117
1000.00000        2.99109        4.42430      -27.76624
1000.50000        3.00674        4.50923      -28.42241
1001.00000        3.00819        4.67763      -29.41531
1001.50000        3.00965        4.67909      -29.40450
1002.00000        2.96520        4.68055      -30.06283
1002.50000        2.89153        4.68200      -30.71900
1003.00000        2.94224        4.68346      -29.70450
1003.50000        3.18242        4.35103      -27.35174
1004.00000        3.31243        4.07202      -24.99898
1004.50000        3.44243        3.99752      -23.31319
1005.00000        3.58996        3.95474      -22.96782
1005.50000        3.80039        4.05665      -22.62245
1006.00000        3.90452        4.14158      -22.60949
1006.50000        3.71983        4.27659      -23.26781
1007.00000        3.60026        4.48673      -24.92984
1007.50000        3.57500        4.69686      -26.59186
1008.00000        3.55058        5.22670      -28.58845
1008.50000        3.51531        5.75737      -31.25201
1009.00000        3.43830        6.28720      -32.24491
1009.50000        3.36213        6.06579      -31.23041
1010.00000        3.28513        5.68494      -30.55047
1010.50000        3.32832        5.42513      -29.19925
1011.00000        3.37151        5.09688      -26.51192
1011.50000        3.52990        4.40247      -24.82829
1012.00000        3.56921        4.01244      -24.48292
1012.50000        3.47801        3.82358      -22.79713
1013.00000        3.38681        3.71152      -21.78263
1013.50000        3.29561        3.71297      -21.43727
1014.00000        3.60091        3.71026      -21.08974
1014.50000        3.90537        3.69085      -20.40980
1015.00000        3.82753        3.67144      -20.06444
1015.50000        3.65286        3.65202      -19.04994
1016.00000        3.47902        3.64346      -19.03697
1016.50000        3.30436        3.67998      -19.36074
1017.00000        3.24321        3.71649      -20.01906
1017.50000        3.18206        3.68540      -21.34652
1018.00000        3.10869        3.62788      -22.67182
1018.50000        3.06006        3.58092      -23.66472
1019.00000        3.06152        3.52645      -23.98848
1019.50000        3.06297        3.46865      -23.97767
1020.00000        3.12620        3.41000      -23.96471
1020.50000        3.28124        3.27874      -23.61934
1021.00000        3.43629        3.12828      -23.27398
1021.50000        3.59133        3.00620      -23.93230
1022.00000        3.65456        2.90331      -23.91934
1022.50000        3.65602        2.81629      -24.91223
1023.00000        3.65747        2.79187      -26.90882
1023.50000        3.57963        2.76662      -28.57085
1024.00000        3.48176        2.74220      -29.56374
1024.50000        3.36414        2.79403      -28.82143
1025.00000        3.26627        2.75375      -27.92737
1025.50000        3.30696        2.67006      -27.02997
1026.00000        3.38187        2.57469      -25.77124
1026.50000        3.45678        2.49936      -28.16714
1027.00000        3.50248        2.50081      -28.82547
1027.50000        3.50393        2.50227      -29.14923
1028.00000        3.50539        2.54546      -29.47300
1028.50000        3.50685        2.65126      -30.12917
1029.00000        3.50830        2.75706      -29.11467
1029.50000        3.50976        3.03648      -27.76560
1030.00000        3.53876        3.22324      -26.08197
1030.50000        3.62398        2.99711      -25.39988
1031.00000        3.75315        2.79907      -26.39277
1031.50000        4.11187        2.56180      -29.05849
1032.00000        4.33369        2.73854      -32.05878
1032.50000        4.52046        3.01796      -36.39516
1033.00000        4.52191        3.40172      -41.40284
1033.50000        4.48998        3.78631      -47.74878
1034.00000        4.32449        4.44136      -56.77125
1034.50000        4.15901        5.09389      -67.13197
1035.00000        3.97098        5.47097      -74.81618
1035.50000        3.69448        5.78128      -77.81646
1036.00000        3.33784        6.03344      -78.14023
1036.50000        2.86267        6.03490      -78.12726
1037.00000        2.59898        6.11983      -77.11276
1037.50000        2.38007        6.28823      -75.09457
1038.00000        2.16033        6.28968      -71.40138
1038.50000        2.15260        6.29114      -66.37210
1039.00000        2.19830        6.37607      -59.66999
1039.50000        2.24316        6.37753      -49.62006
1040.00000        2.28886        6.29551      -42.58338
1040.50000        2.37379        5.96308      -37.21953
1041.00000        2.45872        5.54718      -34.19548
1041.50000        2.54365        4.96433      -32.17729
1042.00000        2.62857        4.54843      -31.49735
1042.50000        2.71350        4.38294      -32.48809
1043.00000        2.79843        4.71858      -32.47728
1043.50000        2.88365        5.13739      -33.13561
1044.00000        2.95439        5.38927      -34.46307
1044.50000        3.02596        5.39072      -35.45380
1045.00000        3.00906        4.97482      -36.44670
1045.50000        2.93539        4.55892      -39.78155
1046.00000        2.94686        4.64385      -43.78553
1046.50000        3.08688        4.89572      -50.46604
1047.00000        3.22774        5.14759      -58.81937
1047.50000        3.28178        5.31599      -70.51836
