~Version ---------------------------------------------------
VERS. 2.0 : CWLS LOG ASCII STANDARD - VERSION 2.0
WRAP. NO  : One line per depth step
DLM . SPACE : Column Data Section Delimiter
~Well ------------------------------------------------------
STRT.F        490.5 : START DEPTH
STOP.F       1005.0 : STOP DEPTH
STEP.F          0.5 : STEP
NULL.       -999.25 : NULL VALUE
COMP.                       WALSH & WATTS : COMPANY
WELL.                           HYNDS B 6 : WELL
FLD .                           N. NOCONA : FIELD
CNTY.                            MONTAGUE : COUNTY
STAT.                               TEXAS : STATE
CTRY.                                 USA : COUNTRY
SEC .                                     : SECTION
TWP .                                     : TOWNSHIP
RGE .                                     : RANGE
LOC . 550' FR W/L OF LEASE, 150' FR S/L OF LEASE, 400' FR NO 4 WELL, 300' FR NO 3 WELL : LOCATION
EKB .F                          : ELEVATION KELLY BUSHING
EDF .F                          : ELEVATION DERRICK FLOOR
EGL .F                          : ELEVATION GROUND LEVEL
PDAT.                        GL : PERMANENT DATUM
EPD .                           : ELEVATION PERMANENT DATUM
APD .                         6 : ABOVE PERMANENT DATUM
LMF .                        KB : LOG MEASURED FROM
DMF .                        KB : DRILLING MEASURED FROM
API .            42337038650000 : API NUMBER
UWI .                           : UWI NUMBER
DIGC.                     NthDS : DIGITIZING COMPANY
~Params ----------------------------------------------------
SRVC.              SCHLUMBERGER : LOGGING COMPANY
LOG .                        ML : LOG
DATE.                1957-10-13 : RUN DATE
RUN .                         1 : RUN NUMBER
TDD .F                     1015 : TOTAL DEPTH DRILLER
TDL .F                     1008 : TOTAL DEPTH LOGGER
BOTL.F                     1005 : BOTTOM LOGGED INTERVAL
TOPL.F                      500 : TOP LOGGED INTERVAL
CSGS.IN                         : CASING SIZE
CSGD.F                          : CASING DRILLER
CSGL.F                          : CASING LOGGER
BS  .IN                         : BIT SIZE
MUD .                       GEL : MUD TYPE
MUDD.                        10 : MUD DENSITY
MUDV.                        53 : MUD VISCOSITY
PH  .                           : MUD PH
FL  .                           : FLUID LOSS
MUDS.                   MUD PIT : SOURCE OF SAMPLE
RM  .OHMM                   1.7 : MUD RESISTIVITY
RMT .DEGF                    68 : RM TEMPERATURE
RMF .OHMM                   1.1 : MUD FILTRATE RESISTIVITY
RMFT.DEGF                    90 : RMF TEMPERATURE
RMC .OHMM                   1.5 : MUD CAKE RESISTIVITY
RMCT.DEGF                    90 : RMC TEMPERATURE
RMFS.                           : RMF SOURCE
RMCS.                           : RMC SOURCE
RMBH.OHMM                   1.3 : MUD RESISTIVITY AT BHT
BHT .DEGF                    90 : BOTTOM HOLE TEMPERATURE
TIMC.                           : TIME CIRCULATION STOPPED
TIML.                           : TIME LOGGER ON BOTTOM
TMAX.DEGF                    90 : MAXIMUM RECORDED TEMPERATURE
UNIT.                       785 : EQUIPMENT NUMBER
BASE.                        WF : BASE LOCATION
ENG .                     JONES : RECORDED BY
WIT .                       NIX : WITNESSED BY
~Curve Information -----------------------------------------
DEPT.F          :DEPTH
CALM.IN         :
MINV.OHMM       :
MNOR.OHMM       :
SP.MV           :
~ASCII ------------------------------------------------------
# ...
548.00000        8.70956        2.57903        2.60638      -55.98720
548.50000        8.72792        2.78883        2.73485      -54.48869
549.00000        8.81342        2.99862        2.86331      -52.21421
549.50000        8.94392        3.24907        2.85000      -50.31880
550.00000        9.05002        3.66002        3.09470      -48.62972
550.50000        9.16000        5.07386        3.70644      -47.30942
551.00000        9.17638        4.08788        3.02273      -46.38062
551.50000        9.19276        4.12026        3.02273      -45.63002
552.00000        9.19348        3.85038        3.04432      -45.44642
552.50000        9.19042        4.02311        2.88347      -45.26282
553.00000        9.18736        3.65246        2.59091      -45.07652
553.50000        9.18412        3.77841        2.95076      -44.89292
554.00000        9.18106        4.15877        3.31061      -45.38702
554.50000        9.17800        3.81943        2.96515      -46.33202
555.00000        9.13804        3.43655        2.66288      -47.11502
555.50000        9.10654        6.12462        4.29407      -47.79002
556.00000        9.11032        9.50000        6.51326      -47.79002
556.50000        9.11338        3.67045        3.61648      -47.54972
557.00000        9.11662        4.13826        2.97955      -47.70092
557.50000        9.11968        3.94034        2.83561      -47.47682
558.00000        9.12274        3.59848        2.74924      -46.69652
558.50000        9.09700        3.13068        2.37500      -45.91352
559.00000        9.05200        3.41856        2.46496      -45.13322
559.50000        9.00700        5.22824        3.05871      -44.93612
560.00000        8.96200        9.21212        4.44665      -45.12782
560.50000        8.94994        7.11600        3.64994      -45.32222
561.00000        9.07000        2.93888        2.33901      -45.93242
561.50000        9.13426        2.91945        2.02235      -46.78832
562.00000        9.12148        3.30161        2.20695      -47.50382
562.50000        9.10852        3.36458        2.30303      -47.56862
563.00000        9.09808        3.44267        2.34801      -47.20142
563.50000        9.08800        3.72227        2.57292      -46.83152
564.00000        9.07792        3.55530        2.41098      -46.46432
564.50000        9.06586        3.28650        2.57292      -46.35092
565.00000        9.04516        4.24621        2.72045      -46.44002
565.50000        9.02428        3.73631        2.68447      -45.67592
566.00000        8.94652        4.57008        2.87879      -44.43662
566.50000        8.85796        5.42184        3.63447      -43.20002
567.00000        8.88208       10.11174        5.62803      -43.92092
567.50000        8.80900        2.75284        2.35089      -45.15752
568.00000        8.68606        2.48295        2.05114      -47.34992
568.50000        8.64250        2.71434        1.94318      -50.19032
569.00000        8.65006        2.74924        2.13498      -53.19002
569.50000        8.65744        2.62689        2.02019      -54.08912
570.00000        8.66500        2.69886        1.92879      -54.84782
570.50000        8.67256        2.66900        2.45884      -55.04222
571.00000        8.61640        3.67045        2.95076      -56.16002
571.50000        8.40400        2.95076        2.98674      -57.51002
572.00000        8.57500        3.32032        3.16343      -58.59002
572.50000        8.71126        3.00977        2.88526      -59.67002
573.00000        8.71324        2.69886        2.77083      -60.56912
573.50000        8.71540        4.22822        3.70644      -61.21712
574.00000        8.71738        3.75430        3.29261      -60.85262
574.50000        8.71936        2.77083        2.76580      -60.49082
575.00000        8.72152        3.13068        2.96623      -60.12632
575.50000        8.72350        4.28220        3.77841      -59.76452
576.00000        8.72548        3.34299        3.24763      -59.40002
576.50000        8.72764        2.96515        2.86835      -59.40002
577.00000        8.71522        2.86080        2.91477      -59.79152
577.50000        8.69938        3.39445        3.35379      -60.28292
578.00000        8.68030        3.82879        3.59848      -60.36122
578.50000        8.66446        5.27790        4.04470      -60.21002
579.00000        8.64862        4.52509        4.13826      -60.08042
579.50000        8.63278        3.69205        3.36710      -59.95352
580.00000        8.63134        2.78271        2.86080      -59.82392
580.50000        8.68750        3.09470        2.92197      -59.69702
581.00000        8.71342        3.27462        3.10909      -59.02202
581.50000        8.71900        3.33472        2.99574      -59.07602
582.00000        8.72458        2.68447        2.67475      -59.67002
582.50000        8.76922        2.71686        2.57292      -59.86712
583.00000        8.87200        3.44951        2.78883      -58.14722
583.50000        8.99548        3.70644        2.87879      -56.29502
584.00000        8.93374        4.77699        3.47002      -55.62002
584.50000        8.86678        6.57479        4.62657      -56.21942
585.00000        8.85400        5.80400        4.79786      -56.65142
585.50000        8.77408        6.11742        4.82197      -56.40572
586.00000        8.70910        5.42184        4.22210      -56.16002
586.50000        8.70514        4.56396        3.86837      -55.91432
587.00000        8.70100        6.15341        4.49811      -55.66862
587.50000        8.69686        5.11489        3.85038      -56.16002
588.00000        8.69290        6.87311        5.07386      -56.72432
588.50000        8.72080        4.53409        3.96877      -56.84852
589.00000        8.76400        4.00619        3.27462      -56.81882
589.50000        8.65150        3.64490        3.01085      -56.07092
590.00000        8.58400        4.04218        3.09901      -55.08002
590.50000        8.58400        3.94034        3.52651      -54.29702
591.00000        8.49400        4.60606        3.60748      -55.78202
591.50000        8.08000        6.03106        4.82197      -57.57212
592.00000        8.02006        4.77411        6.22538      -60.58262
592.50000        8.02852        3.24763        3.45455      -63.59582
593.00000        8.09800        4.22822        4.17424      -67.41632
593.50000        8.20600        8.34848        5.91051      -72.60842
594.00000        8.20600        8.14697        6.36932      -77.80051
594.50000        8.20600        8.92424        8.94223      -85.32001
595.00000        8.20600        9.28409        9.78788      -91.80001
595.50000        8.32174        7.72775        9.33807      -93.88711
596.00000        8.47600        9.20025        9.60795      -95.97151
596.50000        8.47600        9.23623        9.05019      -96.88141
597.00000        8.47600        8.45644        8.49242      -97.49431
597.50000        8.47600        9.22507        9.30820      -97.53751
598.00000        8.47600        9.99407        9.64394      -94.63501
598.50000        8.47600        9.51187        9.61407      -90.22591
599.00000        8.47600       10.47159       10.90341      -82.35001
599.50000        8.47600        9.08617        9.57197      -78.30001
600.00000        8.47600        5.97348        7.08901      -79.92001
600.50000        8.51315        8.24053        8.39994      -83.21595
601.00000        8.52211        8.70833        9.63494      -85.24902
601.50000        8.52982        9.02320       10.18371      -84.76495
602.00000        8.53735        9.71591       11.11932      -80.81177
602.50000        8.57321        8.86775        9.99587      -72.34065
603.00000        8.65173        5.16634        6.89722      -66.82771
603.50000        8.56370        3.58661        4.27500      -66.96217
604.00000        8.43426        7.98864        8.96023      -77.98806
604.50000        8.43426        9.76989       10.75947      -83.18637
605.00000        8.43426        9.39204       10.83144      -86.59364
