~Version ---------------------------------------------------
VERS. 2.0 : CWLS LOG ASCII STANDARD - VERSION 2.0
WRAP. NO  : One line per depth step
DLM . SPACE : Column Data Section Delimiter
~Well ------------------------------------------------------
STRT.F          500 : START DEPTH
STOP.F        996.0 : STOP DEPTH
STEP.F          0.5 : STEP
NULL.       -999.25 : NULL VALUE
COMP.                       WALSH & WATTS : COMPANY
WELL.                           HYNDS B 6 : WELL
FLD .                           N. NOCONA : FIELD
CNTY.                            MONTAGUE : COUNTY
STAT.                               TEXAS : STATE
CTRY.                                 USA : COUNTRY
SEC .                                     : SECTION
TWP .                                     : TOWNSHIP
RGE .                                     : RANGE
LOC . 550' FR W/L OF LEASE, 150' FR S/L OF LEASE, 400' FR NO 4 WELL, 300' FR NO 3 WELL : LOCATION
EKB .F                          : ELEVATION KELLY BUSHING
EDF .F                          : ELEVATION DERRICK FLOOR
EGL .F                          : ELEVATION GROUND LEVEL
PDAT.                        GL : PERMANENT DATUM
EPD .                           : ELEVATION PERMANENT DATUM
APD .                         6 : ABOVE PERMANENT DATUM
LMF .                        KB : LOG MEASURED FROM
DMF .                        KB : DRILLING MEASURED FROM
API .            42337038650000 : API NUMBER
UWI .                           : UWI NUMBER
DIGC.                     NthDS : DIGITIZING COMPANY
~Params ----------------------------------------------------
SRVC.                LANE WELLS : LOGGING COMPANY
LOG .                       GRN : LOG
DATE.                1957-10-16 : RUN DATE
RUN .                         1 : RUN NUMBER
TDD .F                     1015 : TOTAL DEPTH DRILLER
TDL .F                      997 : TOTAL DEPTH LOGGER
BOTL.F                    996.5 : BOTTOM LOGGED INTERVAL
TOPL.F                      500 : TOP LOGGED INTERVAL
CSGS.IN                         : CASING SIZE
CSGD.F                          : CASING DRILLER
CSGL.F                          : CASING LOGGER
BS  .IN                     5.5 : BIT SIZE
MUD .                           : MUD TYPE
MUDD.                           : MUD DENSITY
MUDV.                           : MUD VISCOSITY
PH  .                           : MUD PH
FL  .                           : FLUID LOSS
MUDS.                           : SOURCE OF SAMPLE
RM  .OHMM                       : MUD RESISTIVITY
RMT .DEGF                       : RM TEMPERATURE
RMF .OHMM                       : MUD FILTRATE RESISTIVITY
RMFT.DEGF                       : RMF TEMPERATURE
RMC .OHMM                       : MUD CAKE RESISTIVITY
RMCT.DEGF                       : RMC TEMPERATURE
RMFS.                           : RMF SOURCE
RMCS.                           : RMC SOURCE
RMBH.OHMM                       : MUD RESISTIVITY AT BHT
BHT .DEGF                       : BOTTOM HOLE TEMPERATURE
TIMC.                           : TIME CIRCULATION STOPPED
TIML.                           : TIME LOGGER ON BOTTOM
TMAX.DEGF                       : MAXIMUM RECORDED TEMPERATURE
UNIT.                           : EQUIPMENT NUMBER
BASE.                           : BASE LOCATION
ENG .                     PRICE : RECORDED BY
WIT .                       NIX : WITNESSED BY
~Curve Information -----------------------------------------
DEPT.F          :DEPTH
GRN.GAPI        :
NEUT.API        :
~ASCII ------------------------------------------------------
500.00000       39.07251     2028.92568
500.50000       41.02057     2014.14403
501.00000       41.51254     1995.67145
501.50000       40.99286     1977.18091
502.00000       40.03233     1958.70834
502.50000       41.61480     1982.75114
503.00000       42.18114     1992.41850
503.50000       40.19642     2002.61772
504.00000       38.64896     2014.62109
504.50000       37.47427     2007.03791
505.00000       37.21983     1974.13599
505.50000       37.96538     1945.87014
506.00000       38.45091     1969.19417
506.50000       38.19377     1947.34337
507.00000       37.06657     1950.25427
507.50000       37.03614     1956.86684
508.00000       36.43761     1959.27460
508.50000       39.53711     1984.17993
509.00000       40.40811     1990.54094
509.50000       40.10886     1969.84017
510.00000       41.45208     1988.40233
510.50000       40.37596     2010.46851
511.00000       38.86345     2021.46560
511.50000       38.13410     1988.04256
512.00000       39.56693     1998.59041
512.50000       40.73094     1982.02259
513.00000       40.21485     1950.71272
513.50000       40.89588     1966.07634
514.00000       41.24628     1980.97277
514.50000       40.29918     1952.85068
515.00000       40.93525     1965.46500
515.50000       41.26324     1998.60027
516.00000       39.29106     1993.98203
516.50000       39.17819     1989.39973
517.00000       37.72124     1985.15885
517.50000       37.72038     2006.09296
518.00000       38.66038     2010.24374
518.50000       38.48031     1998.83310
519.00000       40.58518     2025.75099
519.50000       41.03862     2022.12107
520.00000       41.74833     1990.63872
520.50000       41.25464     1959.15636
521.00000       40.71614     1942.94792
521.50000       41.88016     1966.86494
522.00000       43.04417     1956.89185
522.50000       42.50567     1946.42637
523.00000       40.82471     1969.49883
523.50000       40.66060     1979.59745
524.00000       41.56206     1967.28835
524.50000       41.64185     1949.15719
525.00000       42.28346     1958.23156
525.50000       41.06665     1961.48388
526.00000       42.22350     1939.77683
526.50000       43.37944     1913.79309
527.00000       42.34812     1926.33553
527.50000       39.85891     1897.54858
528.00000       40.22006     1868.76162
528.50000       42.31597     1922.99286
529.00000       42.85274     1989.44322
529.50000       41.95583     2000.22467
530.00000       42.70138     1992.21024
530.50000       42.70052     2026.71117
531.00000       39.71311     2084.17688
531.50000       38.30796     2100.31319
532.00000       36.21660     2105.07493
532.50000       35.24800     2122.70269
533.00000       36.16380     2103.54728
533.50000       37.37889     2075.91036
534.00000       37.19882     2048.27344
534.50000       37.77143     2051.05856
535.00000       37.27147     2068.30175
535.50000       37.64427     2052.27300
536.00000       36.99825     2049.66732
536.50000       38.55652     2053.22511
537.00000       39.34419     2047.79826
537.50000       38.39082     2079.20847
538.00000       36.20628     2110.61869
538.50000       36.32459     2115.97342
539.00000       37.36943     2066.18034
539.50000       39.14259     2016.38727
540.00000       38.98044     1997.26780
540.50000       39.24212     2028.67802
541.00000       38.31564     2042.11893
541.50000       37.38915     2045.15561
542.00000       37.09528     2051.03145
542.50000       39.51377     2024.04142
543.00000       41.39463     2015.73948
543.50000       41.66258     2023.96929
544.00000       41.84093     2039.74621
544.50000       41.46373     2035.39030
545.00000       42.04441     2013.79106
545.50000       43.51129     2016.88166
546.00000       42.91276     2036.10869
546.50000       44.22014     2015.47979
547.00000       43.35907     2018.91180
547.50000       42.91018     1994.02419
548.00000       43.35735     1990.84349
548.50000       41.20578     1982.27201
549.00000       40.12965     1958.87584
549.50000       41.34474     1955.24591
550.00000       41.02143     1975.64751
550.50000       41.40498     1962.19841
551.00000       40.90770     1992.02582
551.50000       39.82441     1992.00551
552.00000       39.28592     2021.22415
552.50000       39.26982     2039.62814
553.00000       40.27971     2005.06898
553.50000       41.82186     2017.36734
554.00000       39.17764     2018.45715
554.50000       36.98144     2002.76991
555.00000       36.53255     2005.99041
555.50000       37.42775     2037.78738
556.00000       37.78514     2052.69988
556.50000       37.49306     2047.64825
557.00000       38.10869     2064.24383
557.50000       37.28973     2060.39184
558.00000       36.60786     2022.57395
558.50000       37.90628     1995.89301
559.00000       39.00488     1997.07234
559.50000       38.21639     1949.29924
560.00000       36.70299     1895.56377
560.50000       37.50858     1884.08016
561.00000       35.89482     1861.49947
561.50000       36.34199     1830.14532
562.00000       34.64848     1841.04709
562.50000       33.77755     1830.99994
563.00000       36.10464     1836.35115
563.50000       38.06883     1874.57603
564.00000       40.03212     1912.81882
564.50000       40.54829     1906.11992
565.00000       39.80801     1895.55353
565.50000       40.81521     1914.44096
566.00000       40.49446     1918.59252
566.50000       40.94163     1923.04847
567.00000       41.70869     1922.13291
567.50000       41.17019     1941.28891
568.00000       39.82525     1920.30178
568.50000       38.48031     1942.66278
569.00000       38.21063     1923.84216
569.50000       41.02697     1894.72614
570.00000       44.21248     1865.61011
570.50000       42.86754     1867.68469
571.00000       41.07457     1890.52913
571.50000       40.51009     1924.29566
572.00000       41.78969     1960.76585
572.50000       40.62396     1985.29336
573.00000       41.64729     1971.43244
573.50000       39.45719     1974.24113
574.00000       39.45633     1997.76596
574.50000       39.58988     2000.25236
575.00000       39.99225     2016.34660
575.50000       39.87221     2023.39878
576.00000       38.37763     1994.28275
576.50000       37.92874     1965.16673
577.00000       38.60888     1970.58955
577.50000       36.97720     1970.64086
578.00000       37.63942     1960.30723
578.50000       39.07225     1992.26535
579.00000       37.80526     1988.61031
579.50000       37.13953     2009.35580
580.00000       37.69870     2030.82561
580.50000       37.50340     2028.65263
581.00000       36.66635     2004.81860
581.50000       39.26405     2009.27455
582.00000       40.60727     1981.39397
582.50000       41.17361     1964.72196
583.00000       42.41737     1992.84839
583.50000       42.66562     1984.12622
584.00000       39.05097     1990.82030
584.50000       37.95065     1992.14287
585.00000       35.75176     2024.60233
585.50000       33.79123     2065.26230
586.00000       34.23840     2102.00106
586.50000       33.50815     2132.81326
587.00000       33.49026     2130.96663
587.50000       35.00642     2107.34745
588.00000       34.73675     2103.19107
588.50000       35.75739     2108.54228
589.00000       36.86137     2084.35014
589.50000       36.29313     2075.55635
590.00000       35.41414     2072.40265
590.50000       35.95539     2043.08967
591.00000       35.59342     2024.55553
591.50000       36.53879     2035.72588
592.00000       36.10962     2058.15850
592.50000       34.58546     2101.52214
593.00000       34.13658     2144.88577
593.50000       32.85167     2133.35251
594.00000       31.60350     2154.51388
594.50000       30.66895     2167.20615
595.00000       27.50232     2211.30390
595.50000       27.05344     2332.78729
596.00000       23.65815     2458.10236
596.50000       21.02557     2580.55262
597.00000       20.68869     2665.04417
597.50000       20.65826     2651.41601
598.00000       19.32676     2637.96691
598.50000       20.14041     2626.89918
599.00000       20.95407     2637.03103
599.50000       20.74443     2643.81464
