~Version ---------------------------------------------------
VERS. 2.0 : CWLS LOG ASCII STANDARD - VERSION 2.0
WRAP. NO  : One line per depth step
DLM . SPACE : Column Data Section Delimiter
~Well ------------------------------------------------------
STRT.F         98.5 : START DEPTH
STOP.F       1003.5 : STOP DEPTH
STEP.F          0.5 : STEP
NULL.       -999.25 : NULL VALUE
COMP.                       WALSH & WATTS : COMPANY
WELL.                          SALMON D 8 : WELL
FLD .                          OLD NOCOMA : FIELD
CNTY.                            MONTAGUE : COUNTY
STAT.                               TEXAS : STATE
CTRY.                                 USA : COUNTRY
SEC .                                     : SECTION
TWP .                                     : TOWNSHIP
RGE .                                     : RANGE
LOC .                          OLD NOCOMA : LOCATION
EKB .F                          : ELEVATION KELLY BUSHING
EDF .F                      855 : ELEVATION DERRICK FLOOR
EGL .F                          : ELEVATION GROUND LEVEL
PDAT.                        RT : PERMANENT DATUM
EPD .                           : ELEVATION PERMANENT DATUM
APD .                         4 : ABOVE PERMANENT DATUM
LMF .                           : LOG MEASURED FROM
DMF .                           : DRILLING MEASURED FROM
API .            42337016420000 : API NUMBER
UWI .            42337016420000 : UWI NUMBER
DIGC.                     NthDS : DIGITIZING COMPANY
~Params ----------------------------------------------------
SRVC.              SCHLUMBERGER : LOGGING COMPANY
LOG .                        EL : LOG
DATE.                1948-12-15 : RUN DATE
RUN .                         1 : RUN NUMBER
TDD .F                          : TOTAL DEPTH DRILLER
TDL .F                          : TOTAL DEPTH LOGGER
BOTL.F                     1005 : BOTTOM LOGGED INTERVAL
TOPL.F                     1004 : TOP LOGGED INTERVAL
CSGS.IN                         : CASING SIZE
CSGD.F                          : CASING DRILLER
CSGL.F                          : CASING LOGGER
BS  .IN                       9 : BIT SIZE
MUD .                   AQUAGEL : MUD TYPE
MUDD.                      10.2 : MUD DENSITY
MUDV.                        40 : MUD VISCOSITY
PH  .                           : MUD PH
FL  .                           : FLUID LOSS
MUDS.                           : SOURCE OF SAMPLE
RM  .OHMM                    .8 : MUD RESISTIVITY
RMT .DEGF                    65 : RM TEMPERATURE
RMF .OHMM                       : MUD FILTRATE RESISTIVITY
RMFT.DEGF                       : RMF TEMPERATURE
RMC .OHMM                       : MUD CAKE RESISTIVITY
RMCT.DEGF                       : RMC TEMPERATURE
RMFS.                           : RMF SOURCE
RMCS.                           : RMC SOURCE
RMBH.OHMM                       : MUD RESISTIVITY AT BHT
BHT .DEGF                       : BOTTOM HOLE TEMPERATURE
TIMC.                           : TIME CIRCULATION STOPPED
TIML.                           : TIME LOGGER ON BOTTOM
TMAX.DEGF                       : MAXIMUM RECORDED TEMPERATURE
UNIT.                       201 : EQUIPMENT NUMBER
BASE.                           : BASE LOCATION
ENG .                    LITTLE : RECORDED BY
WIT .                 MR. WATTS : WITNESSED BY
~Curve Information -----------------------------------------
DEPT.F          :DEPTH
ILD.OHMM        :
LAT.OHMM        :
SN.OHMM         :
SP.MV           :
~ASCII ------------------------------------------------------
# ...
846.00000        1.05751        1.15396        2.50928     -108.08360
846.50000        1.10270        1.05950        2.67233     -107.70965
847.00000        1.27290        0.96594        2.83538     -104.87354
847.50000        1.47345        0.89109        2.72390      -99.96082
848.00000        1.67400        0.89109        2.50302      -93.66132
848.50000        1.90715        0.89109        2.28215      -88.70909
849.00000        2.08806        0.89109        2.06128      -91.12195
849.50000        2.26897        0.89109        1.84040      -98.06884
850.00000        1.96287        0.95079        1.20796     -107.63752
850.50000        1.95001        1.00946        1.22283     -113.44552
851.00000        1.93804        1.08572        1.29673     -115.05002
851.50000        1.92607        1.16109        1.37062     -116.06172
852.00000        1.91410        1.23645        1.44452     -116.18961
852.50000        1.90213        1.31271        1.51842     -116.31390
853.00000        1.86691        1.34361        1.35618     -115.85258
853.50000        1.74224        1.34516        1.17917     -115.24037
854.00000        1.71864        1.34671        0.95790     -114.62816
854.50000        1.72098        1.34826        0.89763     -113.49140
855.00000        1.70096        1.34982        1.20229     -110.35350
855.50000        1.61339        1.35137        1.69300     -107.64673
856.00000        1.50393        1.29956        2.28077     -105.18066
856.50000        1.58051        1.21218        2.77148     -103.67027
857.00000        1.78231        1.12480        3.25950     -102.15987
857.50000        1.98322        1.03742        3.74127      -99.45310
858.00000        2.18413        0.95004        4.22303      -96.44812
858.50000        2.38235        0.94270        4.86132      -93.92099
859.00000        2.57968        0.98872        5.73574      -93.10039
859.50000        2.77791        1.03474        6.61016      -93.76001
860.00000        2.93856        1.08075        7.48459      -95.64115
860.50000        3.09028        1.10009        7.89122      -97.82408
861.00000        3.11498        1.10165        7.59481     -101.58422
861.50000        2.95006        1.10320        7.09895     -105.34436
862.00000        2.72790        1.10475        6.47071     -107.64225
862.50000        2.49142        1.17834        5.84158     -108.91263
863.00000        2.25495        1.25281        5.15967     -108.99022
863.50000        2.04262        1.32640        4.55332     -108.30256
864.00000        1.83656        1.40088        3.92956     -107.61849
864.50000        1.63050        1.47446        3.39970     -107.21825
865.00000        1.16147        1.54805        3.01028     -107.95331
865.50000        0.98134        1.62253        2.62175     -108.68837
866.00000        0.88977        1.69612        2.24843     -109.08931
866.50000        0.79730        1.72168        1.93771     -109.40402
867.00000        0.70573        1.67343        1.62700     -108.17385
867.50000        0.77157        1.62607        1.31629     -105.91617
868.00000        0.72293        1.57782        1.09412     -103.02976
868.50000        0.59737        1.55447        1.22348     -100.14335
869.00000        0.47270        1.53646        1.72850     -103.42565
869.50000        0.48398        1.51844        2.32743     -106.70437
870.00000        0.52926        1.50043        2.92636     -108.55203
870.50000        0.57453        1.48331        3.01189     -108.46435
871.00000        0.62070        1.46529        2.96951     -107.42460
871.50000        0.66598        1.44728        2.92713     -106.38485
872.00000        0.71215        1.42927        2.88475     -105.34511
872.50000        0.83613        1.41215        3.00963     -103.69100
873.00000        1.01200        1.42971        3.17744     -100.59736
873.50000        1.18876        1.47217        3.34436      -98.01992
874.00000        1.36462        1.51374        3.51128      -93.03895
874.50000        1.57179        1.55620        3.36425      -87.45799
875.00000        1.77896        1.58532        3.00703      -80.58364
875.50000        1.98702        1.56286        2.59613      -71.53929
876.00000        2.19419        1.54129        2.22728      -62.52368
876.50000        2.38615        1.51972        2.02301      -59.10914
877.00000        2.51550        1.51594        1.81873      -57.90053
877.50000        2.64575        1.54061        1.75846      -57.16976
878.00000        2.77600        1.56529        1.79390      -56.43899
878.50000        2.90624        1.58907        1.82934      -57.14530
879.00000        2.90859        1.61375        1.86477      -57.85162
879.50000        2.86621        1.63753        1.90021      -57.08133
880.00000        2.81309        1.66221        1.92402      -55.07154
880.50000        2.75908        1.68688        1.90042      -54.50244
881.00000        2.70597        1.73646        1.87593      -56.08539
881.50000        2.65196        1.80293        1.85233      -58.14976
882.00000        2.70171        1.86940        1.98705      -60.53388
882.50000        2.75056        1.93587        2.16112      -62.54077
883.00000        2.80031        2.00324        2.29584      -63.03871
883.50000        2.82948        2.06971        2.26956      -63.54024
884.00000        2.78084        2.13618        2.24328      -63.33760
884.50000        2.73131        2.20265        2.21700      -62.07151
885.00000        2.68177        2.18820        2.19072      -60.80901
885.50000        2.63313        2.05013        2.16444      -59.54292
886.00000        2.58359        1.91294        2.13816      -58.28042
886.50000        2.58593        1.81845        2.11188      -57.01433
887.00000        2.45500        1.89737        2.08560      -55.75183
887.50000        2.32497        1.97630        2.05932      -55.48811
888.00000        2.19404        2.05522        2.14574      -55.83516
888.50000        2.06311        2.13414        2.25989      -57.61930
889.00000        1.93307        2.24597        2.37403      -59.36391
889.50000        1.80214        2.37914        2.48818      -61.05464
890.00000        1.67121        2.51231        2.60233      -62.74537
890.50000        1.66103        2.64549        2.71916      -64.43609
891.00000        1.73046        2.77866        2.84583      -65.48731
891.50000        1.79988        2.86736        2.97249      -66.11818
892.00000        1.86931        2.77554        3.09827      -66.74546
892.50000        1.91369        2.68282        3.04068      -64.94765
893.00000        1.94018        2.59099        2.86056      -60.87923
893.50000        1.96756        2.56142        2.67954      -55.70065
894.00000        1.99495        2.62434        2.49942      -53.17352
894.50000        2.02234        2.68725        2.35954      -54.41874
895.00000        2.04972        2.74928        2.38603      -55.66397
895.50000        2.07621        2.81219        2.41163      -57.44811
896.00000        2.13759        2.87511        2.43723      -59.23225
896.50000        2.24905        2.90156        2.46372      -59.70863
897.00000        2.36052        2.90311        2.48932      -60.18861
897.50000        2.47198        2.90467        2.51491      -59.55484
898.00000        2.58344        2.79061        2.54051      -58.64443
898.50000        2.69491        2.67744        2.49902      -57.73402
899.00000        2.80548        2.56338        2.41192      -56.82361
899.50000        2.91694        2.44932        2.32482      -55.91320
900.00000        2.88875        2.18525        2.09360      -55.55779
900.50000        3.02335        2.14047        2.00728      -56.15635
901.00000        3.15885        2.14202        1.92095      -57.13122
901.50000        3.29345        2.14358        1.89545      -55.46119
902.00000        3.20355        2.09523        1.91110      -53.79471
902.50000        3.22725        2.03530        1.92674      -52.12468
903.00000        3.36453        1.97537        1.94239      -51.51971
