~Version ---------------------------------------------------
VERS. 2.0 : CWLS LOG ASCII STANDARD - VERSION 2.0
WRAP. NO  : One line per depth step
DLM . SPACE : Column Data Section Delimiter
~Well ------------------------------------------------------
STRT.F          100 : START DEPTH
STOP.F       2271.5 : STOP DEPTH
STEP.F          0.5 : STEP
NULL.       -999.25 : NULL VALUE
COMP.                       WALSH & WATTS : COMPANY
WELL.                        SALMON E 24  : WELL
FLD .                               NORTH : FIELD
CNTY.                            MONTAGUE : COUNTY
STAT.                               TEXAS : STATE
CTRY.                                 USA : COUNTRY
SEC .                                     : SECTION
TWP .                                     : TOWNSHIP
RGE .                                     : RANGE
LOC .                 SW CORNER OF LEAGUE : LOCATION
EKB .F                          : ELEVATION KELLY BUSHING
EDF .F                          : ELEVATION DERRICK FLOOR
EGL .F                      850 : ELEVATION GROUND LEVEL
PDAT.                        GL : PERMANENT DATUM
EPD .                       850 : ELEVATION PERMANENT DATUM
APD .                         5 : ABOVE PERMANENT DATUM
LMF .                        RT : LOG MEASURED FROM
DMF .                        RT : DRILLING MEASURED FROM
API .            42337038630000 : API NUMBER
UWI .                           : UWI NUMBER
DIGC.                     NthDS : DIGITIZING COMPANY
~Params ----------------------------------------------------
SRVC.               HALLIBURTON : LOGGING COMPANY
LOG .                        EL : LOG
DATE.                1950-09-25 : RUN DATE
RUN .                         1 : RUN NUMBER
TDD .F                     2272 : TOTAL DEPTH DRILLER
TDL .F                     2272 : TOTAL DEPTH LOGGER
BOTL.F                     2272 : BOTTOM LOGGED INTERVAL
TOPL.F                          : TOP LOGGED INTERVAL
CSGS.IN                         : CASING SIZE
CSGD.F                          : CASING DRILLER
CSGL.F                          : CASING LOGGER
BS  .IN                       9 : BIT SIZE
MUD .        WATER BASE AQUAGEL : MUD TYPE
MUDD.                       9.8 : MUD DENSITY
MUDV.                        39 : MUD VISCOSITY
PH  .                           : MUD PH
FL  .                           : FLUID LOSS
MUDS.                           : SOURCE OF SAMPLE
RM  .OHMM                   2.3 : MUD RESISTIVITY
RMT .DEGF                    70 : RM TEMPERATURE
RMF .OHMM                       : MUD FILTRATE RESISTIVITY
RMFT.DEGF                       : RMF TEMPERATURE
RMC .OHMM                       : MUD CAKE RESISTIVITY
RMCT.DEGF                       : RMC TEMPERATURE
RMFS.                           : RMF SOURCE
RMCS.                           : RMC SOURCE
RMBH.OHMM                       : MUD RESISTIVITY AT BHT
BHT .DEGF                       : BOTTOM HOLE TEMPERATURE
TIMC.                           : TIME CIRCULATION STOPPED
TIML.                           : TIME LOGGER ON BOTTOM
TMAX.DEGF                       : MAXIMUM RECORDED TEMPERATURE
UNIT.                           : EQUIPMENT NUMBER
BASE.                           : BASE LOCATION
ENG .                  HARRISON : RECORDED BY
WIT .                    DAWSON : WITNESSED BY
~Curve Information -----------------------------------------
DEPT.F          :DEPTH
ILD.OHMM        :
SN.OHMM         :
SP.MV           :
~ASCII ------------------------------------------------------
# ...
246.00000        9.79899        6.19295      -20.86670
246.50000        9.96650        6.60264      -20.80004
247.00000       10.56030        7.01232      -20.73337
247.50000       11.58040        7.42200      -20.66670
248.00000       12.60050        7.83169      -20.60004
248.50000       13.62144        8.24137      -20.53337
249.00000       14.64154        8.40942      -21.01043
249.50000       15.66164        8.33667      -21.50210
250.00000       14.99162        8.30113      -22.08175
250.50000       14.05425        8.47245      -21.93456
251.00000       15.06677        8.26377      -21.68366
251.50000       15.78464        7.95743      -21.43276
252.00000       15.40901        7.58681      -21.38259
252.50000       15.00250        6.92821      -21.33578
253.00000       14.47412        6.52754      -21.28562
253.50000       13.94574        6.34391      -21.23546
254.00000       13.81469        6.52754      -21.18864
254.50000       14.47829        5.84307      -21.13848
255.00000       13.94741        5.50918      -21.56341
255.50000       13.29048        5.11936      -21.98833
256.00000       12.13105        4.99583      -22.41326
256.50000       11.15192        4.93155      -22.50362
257.00000       10.44240        4.86728      -22.51033
257.50000       10.01669        4.90234      -22.51705
258.00000       10.01669        4.96244      -22.52376
258.50000       10.14524        4.97830      -22.86639
259.00000       10.78714        4.90234      -22.87176
259.50000       11.42905        4.81719      -22.87848
260.00000       12.06177        4.69866      -21.88149
260.50000       12.68781        4.50751      -21.55363
261.00000       12.27045        4.25709      -21.56035
261.50000       11.79048        4.09015      -21.90163
262.00000       11.26878        4.17362      -21.90835
262.50000       11.17612        4.34057      -21.91506
263.00000       11.25459        4.50751      -22.59092
263.50000       12.02003        4.50751      -22.59763
264.00000       11.78130        4.34057      -21.60064
264.50000       11.54340        4.25709      -21.94192
265.00000       11.20367        4.17362      -22.61778
265.50000       10.46160        4.25709      -22.95906
266.00000        9.83305        4.50751      -22.63121
266.50000        9.37395        4.59098      -22.97249
267.00000        9.26544        4.59098      -23.31378
267.50000        9.26544        4.59098      -22.98592
268.00000        9.28965        4.50751      -22.99264
268.50000        9.31469        4.50751      -23.66849
269.00000        9.33890        4.59098      -23.67521
269.50000        9.36561        4.92487      -23.34735
270.00000        9.39315        5.34224      -22.68493
270.50000        9.42153        5.75960      -23.02622
271.00000        9.54925        6.17696      -23.03293
271.50000        9.74374        6.76127      -23.03965
272.00000        9.93906        7.34557      -22.37722
272.50000       10.28798        7.92988      -23.05308
273.00000       10.74040        8.26377      -23.39436
273.50000       11.09599        8.43072      -22.73194
274.00000       11.06845        8.76461      -22.73865
274.50000       11.04090        9.18197      -22.74537
275.00000       11.04591        9.51586      -22.41751
275.50000       11.21285        9.68280      -23.09337
276.00000       11.46410        9.74958      -22.43094
276.50000       11.79048        9.70784      -22.43766
277.00000       12.11686        9.57846      -22.77894
277.50000       12.44240        9.26544      -22.78566
278.00000       12.76878        8.93155      -23.12694
278.50000       13.09432        8.59766      -24.13737
279.00000       13.32804        8.26377      -23.80951
279.50000       13.18865        8.01335      -24.15080
280.00000       13.04925        7.92988      -24.49208
280.50000       12.93823        8.09683      -23.82966
281.00000       12.93823        8.09683      -24.50552
281.50000       12.93823        7.92988      -24.17766
282.00000       12.79549        7.59599      -24.18438
282.50000       12.43739        7.17863      -23.52195
283.00000       11.88063        6.92821      -23.86324
283.50000       11.32471        6.92821      -23.86995
284.00000       10.76794        7.09516      -23.87667
284.50000       10.26711        7.42905      -23.54881
285.00000        9.97496        7.84641      -22.55182
285.50000       10.18364        8.18030      -22.89310
286.00000       10.64274        8.43072      -22.89982
286.50000       11.26878        8.51419      -22.90654
287.00000       12.05676        8.43072      -23.91696
287.50000       12.80467        8.34724      -24.59281
288.00000       13.38898        8.26377      -24.26496
288.50000       13.97329        8.09683      -24.27168
289.00000       14.41068        7.84641      -23.94382
289.50000       14.25876        7.59599      -24.28511
290.00000       14.10684        7.51252      -24.29182
290.50000       13.86811        7.51252      -24.29854
291.00000       13.67279        7.67946      -24.30525
291.50000       13.50584        7.76294      -24.31197
292.00000       13.22036        7.84641      -23.64954
292.50000       12.85476        7.84641      -23.99083
293.00000       12.71536        8.26377      -23.32840
293.50000       12.72370        8.59766      -23.33512
294.00000       12.92153        8.68113      -23.67640
294.50000       13.44407        8.59766      -23.68312
295.00000       13.76294        8.34724      -24.02440
295.50000       14.08263        8.01335      -23.69655
296.00000       14.34307        7.59599      -24.37240
296.50000       14.51753        7.42905      -24.37912
297.00000       14.69115        7.17863      -24.38583
297.50000       14.86978        7.17863      -24.05798
298.00000       14.60768        7.01168      -24.73384
298.50000       13.84724        6.92821      -24.40598
299.00000       12.78046        6.84474      -23.74356
299.50000       11.67446       11.97829      -24.08484
300.00000       10.58431        7.09516      -23.75460
300.50000        9.73289        7.34557      -24.09588
301.00000        9.82387        7.76294      -24.43717
301.50000       10.17696        8.01335      -23.77474
302.00000       10.53005        8.18030      -23.78146
302.50000       11.28714        8.18030      -24.12274
303.00000       11.54257        8.01335      -23.79489
303.50000       11.79716        7.76294      -23.46704
304.00000       12.05259        7.42905      -23.47375
304.50000       11.90317        7.09516      -23.48047
305.00000       11.65275        6.76127      -23.48718
305.50000       11.34307        6.84474      -23.49390
306.00000       11.01836        7.01168      -23.50061
306.50000       11.18531        7.17863      -23.50733
307.00000       11.35225        7.17863      -23.51404
307.50000       12.02003        7.17863      -23.85667
308.00000       12.33305        7.51252      -23.86339
308.50000       12.70868        8.09683      -24.87381
309.00000       13.43906        8.34724      -24.21139
309.50000       13.87312        8.43072      -23.88353
310.00000       14.20701        8.51419      -24.22482
310.50000       14.65526        8.59766      -24.23153
311.00000       15.01335        8.68113      -24.57282
311.50000       15.37061        8.59766      -24.24496
312.00000       15.72871        8.59766      -23.91711
312.50000       16.19866        8.34724      -24.59296
313.00000       16.83723        8.34724      -24.26511
313.50000       17.38313        8.18030      -23.93725
314.00000       18.32220        7.67946      -23.94397
314.50000       19.19866        7.09516      -23.61611
315.00000       18.58681        6.67779      -22.95369
315.50000       17.56594        5.92654      -22.96041
316.00000       16.61686        5.59265      -22.96846
316.50000       15.69282        5.34224      -22.97518
317.00000       14.48247        5.25876      -22.64733
317.50000       13.71953        5.25876      -22.65404
318.00000       13.37813        5.34224      -21.99162
318.50000       12.99749        5.42571      -22.33290
