~Version ---------------------------------------------------
VERS. 2.0 : CWLS LOG ASCII STANDARD - VERSION 2.0
WRAP. NO  : One line per depth step
DLM . SPACE : Column Data Section Delimiter
~Well ------------------------------------------------------
STRT.F          194 : START DEPTH
STOP.F       1764.0 : STOP DEPTH
STEP.F          0.5 : STEP
NULL.       -999.25 : NULL VALUE
COMP.                 WALSH & WATTS, INC. : COMPANY
WELL.                         SALMON E 42 : WELL
FLD .                        NORTH NOCONA : FIELD
CNTY.                            MONTAGUE : COUNTY
STAT.                               TEXAS : STATE
CTRY.                                 USA : COUNTRY
SEC .                                     : SECTION
TWP .                                     : TOWNSHIP
RGE .                                     : RANGE
LOC . 150' FSL & 300' W OF WELL NO. 1, 407' E OF WELL NO. 5, F. ROBERTSON SURVEY : LOCATION
EKB .F                      880 : ELEVATION KELLY BUSHING
EDF .F                          : ELEVATION DERRICK FLOOR
EGL .F                      874 : ELEVATION GROUND LEVEL
PDAT.              GROUND LEVEL : PERMANENT DATUM
EPD .                       874 : ELEVATION PERMANENT DATUM
APD .                         6 : ABOVE PERMANENT DATUM
LMF .                        KB : LOG MEASURED FROM
DMF .                        KB : DRILLING MEASURED FROM
API .            42337037780000 : API NUMBER
UWI .            42337037780000 : UWI NUMBER
DIGC.                     NthDS : DIGITIZING COMPANY
~Params ----------------------------------------------------
SRVC.                LANE WELLS : LOGGING COMPANY
LOG .                       IEL : LOG
DATE.                1965-11-21 : RUN DATE
RUN .                         1 : RUN NUMBER
TDD .F                     1766 : TOTAL DEPTH DRILLER
TDL .F                     1768 : TOTAL DEPTH LOGGER
BOTL.F                     1764 : BOTTOM LOGGED INTERVAL
TOPL.F                      200 : TOP LOGGED INTERVAL
CSGS.IN                         : CASING SIZE
CSGD.F                          : CASING DRILLER
CSGL.F                          : CASING LOGGER
BS  .IN                   7.875 : BIT SIZE
MUD .              CHEMICAL GEL : MUD TYPE
MUDD.                       9.8 : MUD DENSITY
MUDV.                       123 : MUD VISCOSITY
PH  .                           : MUD PH
FL  .                           : FLUID LOSS
MUDS.                CIRCULATED : SOURCE OF SAMPLE
RM  .OHMM                   2.1 : MUD RESISTIVITY
RMT .DEGF                    70 : RM TEMPERATURE
RMF .OHMM                  1.81 : MUD FILTRATE RESISTIVITY
RMFT.DEGF                    70 : RMF TEMPERATURE
RMC .OHMM                  2.34 : MUD CAKE RESISTIVITY
RMCT.DEGF                    70 : RMC TEMPERATURE
RMFS.                  MEASURED : RMF SOURCE
RMCS.                           : RMC SOURCE
RMBH.OHMM                   1.5 : MUD RESISTIVITY AT BHT
BHT .DEGF                    98 : BOTTOM HOLE TEMPERATURE
TIMC.                           : TIME CIRCULATION STOPPED
TIML.                           : TIME LOGGER ON BOTTOM
TMAX.DEGF                    98 : MAXIMUM RECORDED TEMPERATURE
UNIT.                    L-4553 : EQUIPMENT NUMBER
BASE.                      W.F. : BASE LOCATION
ENG .                     ADAMS : RECORDED BY
WIT .   MR. HARRELSON & MR. NIX : WITNESSED BY
~Curve Information -----------------------------------------
DEPT.F          :DEPTH
CILD.MMHO       :
ILD.OHMM        :
ROP.MIN/FT      :
SN.OHMM         :
SP.MV           :
~ASCII ------------------------------------------------------
# ...
716.50000      299.60326        3.33988        -999.25        5.34381      -58.39923
717.00000      297.61913        3.41847        -999.25        5.38310      -55.43481
717.50000      294.64294        3.41847        -999.25        5.34381      -53.06326
718.00000      289.68263        3.45776        -999.25        5.30452      -50.98817
718.50000      284.72231        3.57564        -999.25        5.30452      -49.50595
719.00000      279.76199        3.61493        -999.25        5.38310      -48.91307
719.50000      274.80168        3.69352        -999.25        5.46169      -48.61663
720.00000      270.83342        3.77210        -999.25        5.50098      -48.32018
720.50000      263.88898        3.85069        -999.25        5.65815      -47.72730
721.00000      258.92866        3.88998        -999.25        5.73674      -48.02374
721.50000      252.97628        3.92927        -999.25        5.77603      -49.20951
722.00000      250.99215        4.04715        -999.25        5.85462      -50.09884
722.50000      250.00009        3.96856        -999.25        5.89391      -50.69172
723.00000      250.99215        4.00786        -999.25        5.89391      -50.69172
723.50000      250.99215        3.92927        -999.25        5.89391      -50.98817
724.00000      250.99215        4.00786        -999.25        5.89391      -50.98817
724.50000      250.00009        3.96856        -999.25        5.89391      -51.28461
725.00000      250.99215        3.96856        -999.25        5.89391      -51.87749
725.50000      251.98422        3.92927        -999.25        5.89391      -52.47038
726.00000      254.96041        3.85069        -999.25        5.89391      -53.35971
726.50000      257.93660        3.85069        -999.25        5.89391      -54.54548
727.00000      263.88898        3.73281        -999.25        5.85462      -54.84192
727.50000      268.84930        3.69352        -999.25        5.73674      -54.54548
728.00000      274.80168        3.57564        -999.25        5.50098      -53.95259
728.50000      281.74612        3.49705        -999.25        5.26522      -52.17394
729.00000      291.66675        3.37917        -999.25        5.02947      -50.39528
729.50000      299.60326        3.30059        -999.25        4.83300      -48.91307
730.00000      307.53977        3.18271        -999.25        4.83300      -49.20951
730.50000      315.47627        3.14342        -999.25        4.95088      -50.39528
731.00000      321.42865        3.06483        -999.25        4.99018      -51.58105
731.50000      326.38897        3.02554        -999.25        4.99018      -52.76682
732.00000      328.37310        2.98625        -999.25        4.99018      -53.65615
732.50000      331.34929        2.98625        -999.25        4.95088      -53.65615
733.00000      334.32548        2.94695        -999.25        4.99018      -53.95259
733.50000      337.30167        2.94695        -999.25        5.14735      -57.80635
734.00000      338.29373        2.90766        -999.25        5.34381      -64.32808
734.50000      340.27786        2.94695        -999.25        5.46169      -70.84982
735.00000      339.28579        2.90766        -999.25        5.57957      -74.70358
735.50000      337.30167        2.94695        -999.25        5.57957      -76.18579
736.00000      336.30960        2.94695        -999.25        5.57957      -76.18579
736.50000      336.30960        2.98625        -999.25        5.46169      -75.29646
737.00000      336.30960        2.94695        -999.25        5.30452      -73.81425
737.50000      335.31754        2.94695        -999.25        5.14735      -71.14626
738.00000      333.33341        3.02554        -999.25        4.99018      -66.10674
738.50000      329.36516        3.02554        -999.25        4.83300      -62.84587
739.00000      325.39691        3.06483        -999.25        4.67583      -61.06722
739.50000      322.42072        3.10412        -999.25        4.59725      -58.10279
740.00000      319.44453        3.14342        -999.25        4.55796      -53.65615
740.50000      318.45246        3.14342        -999.25        4.55796      -51.87749
741.00000      316.46834        3.14342        -999.25        4.55796      -50.69172
741.50000      315.47627        3.18271        -999.25        4.59725      -49.50595
742.00000      313.49215        3.18271        -999.25        4.59725      -49.20951
742.50000      312.50008        3.22200        -999.25        4.59725      -50.09884
743.00000      309.52389        3.18271        -999.25        4.67583      -50.98817
743.50000      308.53183        3.26130        -999.25        4.67583      -52.76682
744.00000      306.54770        3.26130        -999.25        4.71513      -53.06326
744.50000      304.56358        3.26130        -999.25        4.79371      -53.35971
745.00000      304.56358        3.26130        -999.25        4.83300      -53.95259
745.50000      307.53977        3.26130        -999.25        4.79371      -54.84192
746.00000      311.50802        3.14342        -999.25        4.75442      -54.24904
746.50000      317.46040        3.14342        -999.25        4.67583      -53.95259
747.00000      321.42865        3.06483        -999.25        4.59725      -54.24904
747.50000      326.38897        3.02554        -999.25        4.47937      -55.13836
748.00000      330.35722        2.98625        -999.25        4.40078      -55.43481
748.50000      334.32548        2.98625        -999.25        4.32220      -55.13836
749.00000      336.30960        2.94695        -999.25        4.32220      -54.24904
749.50000      337.30167        2.94695        -999.25        4.28291      -53.95259
750.00000      337.30167        2.94695        -999.25        4.36149      -54.54548
750.50000      336.64358        2.94118        -999.25        4.39216      -54.24238
751.00000      337.63663        2.94118        -999.25        4.35294      -53.64432
751.50000      338.62967        2.94118        -999.25        4.31372      -52.74982
752.00000      341.60882        2.90196        -999.25        4.27451      -51.55889
752.50000      345.58101        2.90196        -999.25        4.23529      -50.66439
753.00000      348.56016        2.86274        -999.25        4.19608      -49.17701
753.50000      352.53235        2.82353        -999.25        4.15686      -47.98607
754.00000      355.51150        2.78431        -999.25        4.11765      -47.38698
754.50000      360.47674        2.78431        -999.25        4.07843      -47.67825
755.00000      364.44894        2.70588        -999.25        4.07843      -48.26596
755.50000      368.42113        2.70588        -999.25        4.03921      -48.26079
756.00000      371.40028        2.66667        -999.25        3.96078      -48.55205
756.50000      376.36552        2.66667        -999.25        3.92157      -47.06467
757.00000      379.34466        2.62745        -999.25        3.88235      -44.68797
757.50000      382.32381        2.62745        -999.25        3.84314      -43.79348
758.00000      384.30991        2.58823        -999.25        3.84314      -43.19439
758.50000      386.29600        2.58823        -999.25        3.84314      -43.78209
759.00000      387.28905        2.62745        -999.25        3.84314      -44.36980
759.50000      386.29600        2.58823        -999.25        3.80392      -44.36463
760.00000      385.30295        2.58823        -999.25        3.84314      -44.65590
760.50000      383.31686        2.62745        -999.25        3.84314      -44.65072
761.00000      381.33076        2.62745        -999.25        3.88235      -45.83131
761.50000      379.34466        2.62745        -999.25        3.96078      -47.90122
762.00000      376.36552        2.62745        -999.25        3.96078      -50.86046
762.50000      374.37942        2.66667        -999.25        3.92157      -53.22681
763.00000      372.39332        2.66667        -999.25        3.96078      -54.40740
763.50000      372.39332        2.70588        -999.25        4.00000      -53.80831
