~Version ---------------------------------------------------
VERS. 2.0 : CWLS LOG ASCII STANDARD - VERSION 2.0
WRAP. NO  : One line per depth step
DLM . SPACE : Column Data Section Delimiter
~Well ------------------------------------------------------
STRT.F          800 : START DEPTH
STOP.F       1756.5 : STOP DEPTH
STEP.F          0.5 : STEP
NULL.       -999.25 : NULL VALUE
COMP.                 WALSH & WATTS, INC. : COMPANY
WELL.                       SALMON D E 6D : WELL
FLD .                             REGULAR : FIELD
CNTY.                            MONTAGUE : COUNTY
STAT.                               TEXAS : STATE
CTRY.                                 USA : COUNTRY
SEC .                                     : SECTION
TWP .                                     : TOWNSHIP
RGE .                                     : RANGE
LOC .  460 FSL 755 FEL
F. ROBERTSON A-620 : LOCATION
EKB .F                      880 : ELEVATION KELLY BUSHING
EDF .F                      878 : ELEVATION DERRICK FLOOR
EGL .F                      874 : ELEVATION GROUND LEVEL
PDAT.                        GL : PERMANENT DATUM
EPD .                       874 : ELEVATION PERMANENT DATUM
APD .                           : ABOVE PERMANENT DATUM
LMF .                        KB : LOG MEASURED FROM
DMF .                        KB : DRILLING MEASURED FROM
API .            42337016430000 : API NUMBER
UWI .            42337016430000 : UWI NUMBER
DIGC.                     NthDS : DIGITIZING COMPANY
~Params ----------------------------------------------------
SRVC.              SCHLUMBERGER : LOGGING COMPANY
LOG .                   CNFD/ML : LOG
DATE.                2005-08-03 : RUN DATE
RUN .                         1 : RUN NUMBER
TDD .F                     1750 : TOTAL DEPTH DRILLER
TDL .F                     1750 : TOTAL DEPTH LOGGER
BOTL.F                     1750 : BOTTOM LOGGED INTERVAL
TOPL.F                      980 : TOP LOGGED INTERVAL
CSGS.IN                       7 : CASING SIZE
CSGD.F                      880 : CASING DRILLER
CSGL.F                      880 : CASING LOGGER
BS  .IN                     6.5 : BIT SIZE
MUD .                       FGM : MUD TYPE
MUDD.                       0.2 : MUD DENSITY
MUDV.                        80 : MUD VISCOSITY
PH  .                        11 : MUD PH
FL  .                         7 : FLUID LOSS
MUDS.                       PIT : SOURCE OF SAMPLE
RM  .OHMM                  1.70 : MUD RESISTIVITY
RMT .DEGF                    70 : RM TEMPERATURE
RMF .OHMM                  1.33 : MUD FILTRATE RESISTIVITY
RMFT.DEGF                    70 : RMF TEMPERATURE
RMC .OHMM                  2.67 : MUD CAKE RESISTIVITY
RMCT.DEGF                    70 : RMC TEMPERATURE
RMFS.                      MEAS : RMF SOURCE
RMCS.                       CAL : RMC SOURCE
RMBH.OHMM                  1.47 : MUD RESISTIVITY AT BHT
BHT .DEGF                    98 : BOTTOM HOLE TEMPERATURE
TIMC.                     2100  : TIME CIRCULATION STOPPED
TIML.                     0300  : TIME LOGGER ON BOTTOM
TMAX.DEGF                    98 : MAXIMUM RECORDED TEMPERATURE
UNIT.                       303 : EQUIPMENT NUMBER
BASE.                   WICHITA : BASE LOCATION
ENG .              DAVID PARKER : RECORDED BY
WIT .              MR. BURLESON : WITNESSED BY
~Curve Information -----------------------------------------
DEPT.F          :DEPTH
CALD.IN         :
DPHI.%          :
GRD.GAPI        :
MINV.OHMM       :
MNOR.OHMM       :
NPHI.%          :
~ASCII ------------------------------------------------------
# ...
1240.00000        6.03589       11.58399       87.70159        5.53014        4.70319       22.53641
1240.50000        6.03387       11.78230       86.18949        5.46382        4.68368       22.55657
1241.00000        6.03085       11.78275       85.12195        5.34368        4.66418       22.38729
1241.50000        6.02782       11.83261       85.82659        5.51063        4.80851       22.40467
1242.00000        6.02460       11.88248       86.53123        5.77042        4.83425       22.55771
1242.50000        6.02157       11.77083       86.86994        5.97872        4.99574       22.75583
1243.00000        6.01855       11.55112       85.24897        6.13475        5.00354       22.95395
1243.50000        6.01512       11.75378       82.89615        6.13475        4.94191       23.15207
1244.00000        6.01068       12.39187       82.49998        6.13475        4.91460       23.21454
1244.50000        6.00605       12.89736       84.94958        5.87496        4.88652       23.09160
1245.00000        6.00141       13.20374       88.42740        6.05673        5.01680       22.85865
1245.50000        5.99698       13.39610       90.42336        6.06687        5.04255       22.69214
1246.00000        6.01613       13.58768       91.43042        5.82269        4.74609       22.62687
1246.50000        6.04133       14.08288       93.84978        5.94439        4.73049       22.56120
1247.00000        6.05262       14.34729       96.62296        6.06687        4.76170       22.53943
1247.50000        6.04294       13.03859       98.77014        6.18858        4.86702       22.48286
1248.00000        6.03347       11.78807       99.19352        6.00446        4.83425       22.48324
1248.50000        6.02379       11.87554       98.43748        5.97872        4.96453       22.48362
1249.00000        6.01613       13.19023       97.00703        6.16829        5.49503       22.77389
1249.50000        6.01613       13.79111       94.56348        6.44680        5.02694       23.15670
1250.00000        6.01613       13.89266       92.12296        5.92645        4.69929       23.35641
1250.50000        6.01613       13.64846       92.84272        5.72205        4.85531       23.54799
1251.00000        6.01613       13.47974       89.81853        6.00134        5.08936       23.64060
1251.50000        6.01613       11.98424       86.79433        6.02397        5.27659       23.57527
1252.00000        6.01109       11.44846       86.93042        5.98262        5.27659       23.62038
1252.50000        6.00262       11.66022       87.06953        5.94205        5.27659       23.84640
1253.00000        5.98931       12.23113       85.68445        5.90070        5.27659       24.06450
1253.50000        5.95564       12.62307       84.97982        5.98730        5.33354       24.22797
1254.00000        5.92198       12.89488       84.97982        6.13475        5.47553       24.64914
1254.50000        5.91048       12.57918       83.31651        6.52482        5.57226       24.97966
1255.00000        5.90464       11.51277       81.50200        6.38439        5.48801       25.25001
1255.50000        5.89879       11.69292       79.53627        6.29077        5.40453       25.58647
1256.00000        5.90000       11.87268       74.99998        5.51063        5.35460       26.02229
1256.50000        5.91210       12.06705       69.70764        6.40233        5.51063       25.96725
1257.00000        5.92419       10.56603       66.32962        6.81737        6.54822       24.58214
1257.50000        5.93629        9.90776       65.62498        6.73311        6.27517       21.90656
1258.00000        5.94839       10.05314       63.81047        6.68085        6.09574       20.45021
1258.50000        5.94758       11.39689       60.78628        6.68085        6.29077       19.53617
1259.00000        5.92742       11.22777       58.82055        6.68085        6.14333       18.37868
1259.50000        5.90726       11.25936       59.12297        6.40780        5.40687       17.53788
1260.00000        5.88710       11.22023       62.66127        5.69241        5.09794       16.84551
1260.50000        5.86694       11.95590       68.14414        5.95297        5.43262       16.52248
1261.00000        5.84939       13.05389       72.98284        6.42106        5.76730       16.71564
1261.50000        5.83609       13.61177       73.01309        7.02723        6.06453       17.08417
1262.00000        5.82258       13.52522       72.48083        6.92581        6.33758       17.38143
1262.50000        5.82581       12.86182       73.48789        6.78460        6.30950       17.65891
1263.00000        5.85363       13.72472       75.50502        6.76432        6.07936       17.85722
1263.50000        5.88165       14.08741       76.81450        6.39999        5.84999       18.05552
1264.00000        5.90968       13.16601       74.69756        6.03567        5.62765       18.25383
1264.50000        5.91290       12.33389       75.98284        5.74468        5.43262       18.32032
1265.00000        5.90968       11.97354       75.72579        5.74468        5.35460       18.29853
1265.50000        5.90645       12.06677       75.69252        6.09574        5.49503       18.33414
1266.00000        5.90343       12.16039       77.41934        6.36879        5.72907       18.73037
1266.50000        5.90020       12.25362       76.41228        6.50219        5.96311       19.16619
1267.00000        5.89698       13.09795       76.81450        6.78148        6.02319       19.60201
1267.50000        5.89597       14.12996       74.99998        6.71985        5.96780       19.90917
1268.00000        5.89778       14.65701       76.36087        6.62389        5.91163       20.15696
1268.50000        5.89980       14.48631       77.72175        6.73077        5.81177       20.29589
1269.00000        5.90181       13.45941       77.38607        6.83687        5.78368       20.18424
1269.50000        5.90363       12.47202       76.71470        6.75340        5.78368       20.24717
1270.00000        5.90564       11.77425       73.54837        6.66992        5.71893       19.90118
1270.50000        5.90766       11.72208       70.61490        6.63092        5.72907       19.42139
1271.00000        5.90948       12.19659       71.16833        6.77290        5.94595       18.85293
1271.50000        5.91149       12.61696       71.28325        6.91489        5.78134       18.54217
1272.00000        5.91331       12.79001       73.87801        6.85014        5.61751       18.43290
1272.50000        5.91532       12.92196       71.74897        6.46241        5.45290       18.45822
1273.00000        5.99657       12.83027       68.91531        6.55602        5.32886       18.48314
1273.50000        6.00000       12.60031       67.13708        6.79007        5.38035       18.48431
1274.00000        6.00343       12.04082       66.35986        6.83687        5.90070       18.44867
1274.50000        6.00665       12.15973       68.51914        6.75886        5.45524       18.44667
1275.00000        6.01008       11.96256       70.67841        6.68085        5.43262       18.69486
1275.50000        6.01411       12.27902       71.82458        6.63248        5.74468       19.02023
1276.00000        6.01613       12.59549       71.27115        6.65510        6.13475       19.34600
1276.50000        6.01613       12.59586       70.26107        6.78460        6.03957       19.34361
1277.00000        6.01613       12.35918       70.40321        6.85638        5.82269       19.28501
1277.50000        6.01613       12.12249       71.94555        6.88914        6.09262       19.26560
1278.00000        6.03286       12.19029       73.91127        6.91489        6.36255       19.39067
1278.50000        6.06089       12.53812       75.30240        6.91489        6.41326       19.73307
1279.00000        6.08891       12.28168       74.93950        7.10212        6.13475       20.03667
1279.50000        6.11693       11.94621       72.88305        7.33616        6.43510       20.08297
