~Version ---------------------------------------------------
VERS. 2.0 : CWLS LOG ASCII STANDARD - VERSION 2.0
WRAP. NO  : One line per depth step
DLM . SPACE : Column Data Section Delimiter
~Well ------------------------------------------------------
STRT.F        490.5 : START DEPTH
STOP.F       1005.0 : STOP DEPTH
STEP.F          0.5 : STEP
NULL.       -999.25 : NULL VALUE
COMP.                       WALSH & WATTS : COMPANY
WELL.                           HYNDS B 6 : WELL
FLD .                           N. NOCONA : FIELD
CNTY.                            MONTAGUE : COUNTY
STAT.                               TEXAS : STATE
CTRY.                                 USA : COUNTRY
SEC .                                     : SECTION
TWP .                                     : TOWNSHIP
RGE .                                     : RANGE
LOC . 550' FR W/L OF LEASE, 150' FR S/L OF LEASE, 400' FR NO 4 WELL, 300' FR NO 3 WELL : LOCATION
EKB .F                          : ELEVATION KELLY BUSHING
EDF .F                          : ELEVATION DERRICK FLOOR
EGL .F                          : ELEVATION GROUND LEVEL
PDAT.                        GL : PERMANENT DATUM
EPD .                           : ELEVATION PERMANENT DATUM
APD .                         6 : ABOVE PERMANENT DATUM
LMF .                        KB : LOG MEASURED FROM
DMF .                        KB : DRILLING MEASURED FROM
API .            42337038650000 : API NUMBER
UWI .                           : UWI NUMBER
DIGC.                     NthDS : DIGITIZING COMPANY
~Params ----------------------------------------------------
SRVC.              SCHLUMBERGER : LOGGING COMPANY
LOG .                        ML : LOG
DATE.                1957-10-13 : RUN DATE
RUN .                         1 : RUN NUMBER
TDD .F                     1015 : TOTAL DEPTH DRILLER
TDL .F                     1008 : TOTAL DEPTH LOGGER
BOTL.F                     1005 : BOTTOM LOGGED INTERVAL
TOPL.F                      500 : TOP LOGGED INTERVAL
CSGS.IN                         : CASING SIZE
CSGD.F                          : CASING DRILLER
CSGL.F                          : CASING LOGGER
BS  .IN                         : BIT SIZE
MUD .                       GEL : MUD TYPE
MUDD.                        10 : MUD DENSITY
MUDV.                        53 : MUD VISCOSITY
PH  .                           : MUD PH
FL  .                           : FLUID LOSS
MUDS.                   MUD PIT : SOURCE OF SAMPLE
RM  .OHMM                   1.7 : MUD RESISTIVITY
RMT .DEGF                    68 : RM TEMPERATURE
RMF .OHMM                   1.1 : MUD FILTRATE RESISTIVITY
RMFT.DEGF                    90 : RMF TEMPERATURE
RMC .OHMM                   1.5 : MUD CAKE RESISTIVITY
RMCT.DEGF                    90 : RMC TEMPERATURE
RMFS.                           : RMF SOURCE
RMCS.                           : RMC SOURCE
RMBH.OHMM                   1.3 : MUD RESISTIVITY AT BHT
BHT .DEGF                    90 : BOTTOM HOLE TEMPERATURE
TIMC.                           : TIME CIRCULATION STOPPED
TIML.                           : TIME LOGGER ON BOTTOM
TMAX.DEGF                    90 : MAXIMUM RECORDED TEMPERATURE
UNIT.                       785 : EQUIPMENT NUMBER
BASE.                        WF : BASE LOCATION
ENG .                     JONES : RECORDED BY
WIT .                       NIX : WITNESSED BY
~Curve Information -----------------------------------------
DEPT.F          :DEPTH
CALM.IN         :
MINV.OHMM       :
MNOR.OHMM       :
SP.MV           :
~ASCII ------------------------------------------------------
# ...
893.00000        8.71525        7.39588        3.82873      -67.31338
893.50000        8.71281        5.72322        3.38170      -67.84711
894.00000        8.68814        5.20207        3.11497      -69.32825
894.50000        8.66348       11.24825        6.85800      -72.39021
895.00000        8.63899       13.44394       10.00129      -76.48010
895.50000        8.62917        9.00658        7.39915      -78.04176
896.00000        8.62937       10.11050        7.14788      -75.66884
896.50000        8.63638        9.14926        5.97541      -72.44513
897.00000        8.67004        7.19700        3.55055      -67.11932
897.50000        8.68366        9.55174        7.54560      -63.31321
898.00000        8.68386        3.51595        2.79626      -58.53821
898.50000        8.68407        3.73248        2.79688      -54.53885
899.00000        8.68431        4.72881        3.12137      -56.27228
899.50000        8.66662        4.12957        2.94208      -59.75829
900.00000        8.63725        5.28087        3.55217      -65.52273
900.50000        8.59304        8.31788        5.29049      -70.84513
901.00000        8.62719        7.72008        6.21773      -75.53414
901.50000        8.66116       11.66115       10.65358      -78.61284
902.00000        8.69532       22.88911       21.12586      -80.55090
902.50000        8.66148       38.39911       40.09039      -79.53673
903.00000        8.62030       39.62504       40.05541      -77.81939
903.50000        8.59344       21.21784       14.72248      -75.62969
904.00000        8.56641       11.86221       10.87263      -74.95100
904.50000        8.56148       29.42970       37.16652      -74.83323
905.00000        8.56199       37.60929       40.03848      -75.55819
905.50000        8.56251       26.74399       32.24964      -76.94070
906.00000        8.56231        6.72792        6.33604      -82.79987
906.50000        8.56103       10.28215        9.23248      -91.41804
907.00000        8.55976        8.96934        8.47275      -97.22621
907.50000        8.55849       11.20102       11.20102      -99.63395
908.00000        8.55721       10.55392       13.57663     -101.71158
908.50000        8.55612       11.58911       13.79317     -100.78060
909.00000        8.55484       11.67070       11.81464      -97.89847
909.50000        8.55357       10.47664        9.58422      -88.68627
910.00000        8.55229        8.49631        7.30594      -75.83362
910.50000        8.55102        4.54367        2.89234      -66.46194
911.00000        8.54975        6.24349        3.91853      -70.50146
911.50000        8.54847        8.54318        6.27615      -86.50827
912.00000        8.54720       10.83795       10.69689      -97.06955
912.50000        8.54592       10.12788       11.61225     -102.59592
913.00000        8.54440       10.59631       12.61145     -104.82384
913.50000        8.54330        9.87725       10.06329     -106.81290
914.00000        8.54203        9.60043        9.81490     -107.83845
914.50000        8.54075        9.98646       10.46793     -108.86132
915.00000        8.53948        9.62724       10.25697     -108.80796
915.50000        8.53821        9.98771       10.92331     -107.56566
916.00000        8.53944        9.31363       10.29421     -104.46077
916.50000        8.54460       10.03683       11.67138     -101.35856
917.00000        8.54977        9.61788       10.40966      -97.96381
917.50000        8.55476        8.87483        9.18681      -93.70755
918.00000        8.55993        8.74339        7.98484      -87.70255
918.50000        8.56491        7.18481        6.30306      -87.89342
919.00000        8.57008        8.91270        8.26497      -88.00110
919.50000        8.57525        8.31958        7.88560      -83.16244
920.00000        8.61119        7.79843        5.40761      -76.44508
920.50000        8.66753        4.21247        3.04009      -69.72772
921.00000        8.64346        4.45312        2.83381      -61.02277
921.50000        8.62322        6.67292        5.05828      -56.72088
922.00000        8.65576        7.47708        6.81136      -56.47429
922.50000        8.72337        3.35747        2.46397      -56.00762
923.00000        8.72246        3.42647        2.49447      -53.31604
923.50000        8.72154        3.68618        2.46810      -52.13278
924.00000        8.72044        4.90669        2.47773      -50.76971
924.50000        8.71953        3.19805        2.40639      -49.13288
925.00000        8.71861        3.07273        2.32605      -47.49605
925.50000        8.71770        2.93554        2.22772      -47.01597
926.00000        8.71678        3.02901        2.23735      -47.30615
926.50000        8.71569        2.91281        2.37292      -49.36880
927.00000        8.71477        2.58958        2.15776      -50.53660
927.50000        8.71385        2.88348        2.23036      -51.16226
928.00000        8.71294        2.91182        2.33174      -51.78524
928.50000        8.71202        2.94015        2.29639      -52.39479
929.00000        8.71085        2.81699        2.24808      -52.98288
929.50000        8.70993        2.59272        2.14903      -53.57097
930.00000        8.70884        2.65668        2.08956      -54.16174
930.50000        8.70792        2.72100        2.09019      -53.84268
931.00000        8.70701        2.78496        2.09082      -55.01585
931.50000        8.70609        3.84294        2.34334      -55.91526
932.00000        8.70517        2.73488        2.32597      -56.64022
932.50000        8.70408        2.88953        2.20798      -56.72374
933.00000        8.70316        2.84913        2.20141      -58.07941
933.50000        8.70225        2.92173        2.31899      -59.86181
934.00000        8.70133        2.79389        2.22282      -61.73278
934.50000        8.70041        2.65310        2.02337      -63.60374
935.00000        8.70057        3.06755        2.32375      -65.47471
935.50000        8.70109        3.10416        2.54496      -64.89264
936.00000        8.70160        2.92487        2.44879      -63.58056
936.50000        8.70212        2.79343        2.35262      -60.39783
937.00000        8.70263        3.01249        2.30827      -55.82601
937.50000        8.70325        3.01936        2.29918      -52.01526
938.00000        8.70377        3.04734        2.28770      -52.14173
938.50000        8.70428        3.00730        2.26746      -52.26819
939.00000        8.70480        2.88198        2.20259      -51.99208
939.50000        8.70531        2.96538        2.13773      -51.98435
940.00000        8.70583        2.78608        2.07826      -51.97662
940.50000        8.70634        3.02277        2.23974      -52.32584
941.00000        8.70686        2.76323        2.19359      -53.14205
941.50000        8.70737        2.87181        2.10426      -53.42955
942.00000        8.70789        2.75261        2.10488      -53.19906
942.50000        8.70840        2.86119        2.35309      -52.74313
943.00000        8.70892        2.93391        2.41957      -51.39347
943.50000        8.70943        2.94642        2.30481      -48.63325
944.00000        8.70995        2.99167        2.28745      -46.94811
944.50000        8.71047        3.03188        2.28807      -47.07458
945.00000        8.71098        4.57732        2.59709      -50.69005
945.50000        8.71160        6.39158        3.12309      -55.27171
946.00000        8.70192        3.18957        2.61382      -56.44487
946.50000        8.67684        3.13263        2.46727      -56.24659
947.00000        8.65177        3.26280        2.32072      -57.96189
947.50000        8.63672        3.70712        2.41527      -58.88546
948.00000        8.62829        5.26744        2.84411      -59.61042
948.50000        8.61986        3.84056        2.85099      -60.16362
949.00000        8.61143        4.34498        2.66413      -60.78123
949.50000        8.62894        3.72199        2.51039      -61.66990
950.00000        8.62152        4.21752        2.57051      -60.51594
