~Version ---------------------------------------------------
VERS. 2.0 : CWLS LOG ASCII STANDARD - VERSION 2.0
WRAP. NO  : One line per depth step
DLM . SPACE : Column Data Section Delimiter
~Well ------------------------------------------------------
STRT.F         98.5 : START DEPTH
STOP.F       1003.5 : STOP DEPTH
STEP.F          0.5 : STEP
NULL.       -999.25 : NULL VALUE
COMP.                       WALSH & WATTS : COMPANY
WELL.                          SALMON D 8 : WELL
FLD .                          OLD NOCOMA : FIELD
CNTY.                            MONTAGUE : COUNTY
STAT.                               TEXAS : STATE
CTRY.                                 USA : COUNTRY
SEC .                                     : SECTION
TWP .                                     : TOWNSHIP
RGE .                                     : RANGE
LOC .                          OLD NOCOMA : LOCATION
EKB .F                          : ELEVATION KELLY BUSHING
EDF .F                      855 : ELEVATION DERRICK FLOOR
EGL .F                          : ELEVATION GROUND LEVEL
PDAT.                        RT : PERMANENT DATUM
EPD .                           : ELEVATION PERMANENT DATUM
APD .                         4 : ABOVE PERMANENT DATUM
LMF .                           : LOG MEASURED FROM
DMF .                           : DRILLING MEASURED FROM
API .            42337016420000 : API NUMBER
UWI .            42337016420000 : UWI NUMBER
DIGC.                     NthDS : DIGITIZING COMPANY
~Params ----------------------------------------------------
SRVC.              SCHLUMBERGER : LOGGING COMPANY
LOG .                        EL : LOG
DATE.                1948-12-15 : RUN DATE
RUN .                         1 : RUN NUMBER
TDD .F                          : TOTAL DEPTH DRILLER
TDL .F                          : TOTAL DEPTH LOGGER
BOTL.F                     1005 : BOTTOM LOGGED INTERVAL
TOPL.F                     1004 : TOP LOGGED INTERVAL
CSGS.IN                         : CASING SIZE
CSGD.F                          : CASING DRILLER
CSGL.F                          : CASING LOGGER
BS  .IN                       9 : BIT SIZE
MUD .                   AQUAGEL : MUD TYPE
MUDD.                      10.2 : MUD DENSITY
MUDV.                        40 : MUD VISCOSITY
PH  .                           : MUD PH
FL  .                           : FLUID LOSS
MUDS.                           : SOURCE OF SAMPLE
RM  .OHMM                    .8 : MUD RESISTIVITY
RMT .DEGF                    65 : RM TEMPERATURE
RMF .OHMM                       : MUD FILTRATE RESISTIVITY
RMFT.DEGF                       : RMF TEMPERATURE
RMC .OHMM                       : MUD CAKE RESISTIVITY
RMCT.DEGF                       : RMC TEMPERATURE
RMFS.                           : RMF SOURCE
RMCS.                           : RMC SOURCE
RMBH.OHMM                       : MUD RESISTIVITY AT BHT
BHT .DEGF                       : BOTTOM HOLE TEMPERATURE
TIMC.                           : TIME CIRCULATION STOPPED
TIML.                           : TIME LOGGER ON BOTTOM
TMAX.DEGF                       : MAXIMUM RECORDED TEMPERATURE
UNIT.                       201 : EQUIPMENT NUMBER
BASE.                           : BASE LOCATION
ENG .                    LITTLE : RECORDED BY
WIT .                 MR. WATTS : WITNESSED BY
~Curve Information -----------------------------------------
DEPT.F          :DEPTH
ILD.OHMM        :
LAT.OHMM        :
SN.OHMM         :
SP.MV           :
~ASCII ------------------------------------------------------
# ...
501.00000        4.06351        4.76057        8.40787      -75.49039
501.50000        4.00537        4.87441        8.51341      -75.17421
502.00000        3.94723        4.98824        8.61807      -74.85803
502.50000        4.03309        5.10207        8.72361      -74.54543
503.00000        4.15474        5.21591        8.90787      -74.22925
503.50000        4.22540        5.32974        9.14490      -73.98093
504.00000        4.26118        5.44358        9.38104      -73.73618
504.50000        4.29696        5.55741        9.54293      -73.43962
505.00000        4.33274        5.60277        9.40429      -73.19130
505.50000        4.36851        5.60277        9.26565      -72.94298
506.00000        4.50894        5.55296        9.12612      -72.69823
506.50000        4.71914        5.46937        8.98748      -72.44991
507.00000        4.93023        5.38577        8.84884      -72.20159
507.50000        5.16100        5.30217        8.56261      -71.90684
508.00000        5.47406        5.21947        8.05635      -71.42281
508.50000        5.84973        5.13587        7.44812      -70.93878
509.00000        6.16279        5.05227        7.41055      -70.60831
509.50000        6.26833        4.96867        7.68515      -70.90999
510.00000        6.06172        4.88597        7.96064      -71.21166
510.50000        5.85510        4.80237        8.48926      -71.51333
511.00000        5.88551        4.92954        9.01789      -71.81500
511.50000        5.97495        5.05672        8.97048      -72.04525
512.00000        5.99284        5.18389        8.69767      -72.22906
512.50000        5.39624        5.31018        8.30411      -72.44678
513.00000        5.05993        5.46314        7.91055      -72.63060
513.50000        4.96959        5.59031        7.51699      -72.81085
514.00000        4.77012        5.68103        7.12343      -72.91966
514.50000        4.57156        5.62856        6.87746      -72.73206
515.00000        4.37299        5.57697        6.85241      -72.54445
515.50000        4.32737        5.52450        6.82737      -72.35684
516.00000        4.38283        5.37154        6.80322      -72.16923
516.50000        4.43918        5.19367        7.02147      -71.98163
517.00000        4.52415        5.01581        7.35689      -72.00830
517.50000        4.61002        4.83794        7.63685      -72.89211
518.00000        4.69588        4.66008        7.91592      -73.77592
518.50000        4.78175        4.62450        8.13953      -74.65972
519.00000        4.86762        4.62450        8.13953      -75.54353
519.50000        4.76297        4.68142        8.09749      -75.71306
520.00000        4.37209        4.77658        7.88909      -75.70402
520.50000        4.29338        4.87263        7.68068      -75.69499
521.00000        4.16995        4.96779        7.47138      -75.08772
521.50000        4.01431        5.06294        7.26297      -74.48583
522.00000        3.85957        5.15810        7.05456      -73.88037
522.50000        3.70483        5.25326        6.88014      -73.27491
523.00000        3.55009        5.34842        6.84615      -72.67303
523.50000        3.57782        5.43824        6.81127      -72.65327
524.00000        3.72719        5.50672        6.83274      -73.02637
524.50000        3.87209        5.57520        6.88998      -73.40304
525.00000        3.99910        5.52628        6.94812      -73.77614
525.50000        4.15295        5.37421        7.01699      -74.14924
526.00000        4.38283        5.24703        7.07513      -74.52234
526.50000        4.82290        5.02470        7.13238      -74.51330
527.00000        5.47674        4.65030        7.24508      -74.50427
527.50000        6.58944        4.23676        7.39445      -74.38809
528.00000        8.00536        3.82411        7.54293      -73.84334
528.50000        9.15295        3.72895        7.69231      -73.29859
529.00000       10.42039        3.63379        7.84168      -72.75385
529.50000       11.00179        3.57688        7.67621      -72.41086
530.00000        9.91055        3.67559        7.43202      -72.64468
530.50000        8.38998        3.85346        7.30322      -72.88207
531.00000        6.86941        4.15049        7.25223      -73.11588
531.50000        5.65742        4.44664        7.20036      -73.34970
532.00000        4.65116        4.81304        7.14848      -73.04424
532.50000        4.36404        5.17945        7.09749      -72.73520
533.00000        4.07603        5.54496        7.00358      -71.93689
533.50000        3.85778        5.69170        6.81753      -70.81358
534.00000        3.88551        5.67836        6.66189      -69.68670
534.50000        3.91324        5.60988        6.50626      -68.56339
535.00000        3.89356        5.54140        6.35062      -67.43651
535.50000        3.68515        5.52984        6.37835      -67.31676
536.00000        3.47674        5.55652        6.40698      -67.44343
536.50000        3.33542        5.58409        6.43470      -67.36654
537.00000        3.46243        5.61077        6.46243      -66.28428
537.50000        3.59034        5.63745        6.49016      -64.66812
538.00000        3.71825        5.67035        6.51878      -62.31625
538.50000        3.84615        5.67124        6.41413      -59.13583
539.00000        4.10733        5.57075        6.22272      -55.71255
539.50000        4.36762        5.46937        6.03130      -52.13213
540.00000        4.62880        5.36798        6.23166      -50.04097
540.50000        4.88998        5.26749        6.47943      -49.45694
541.00000        5.12612        5.30306        6.69410      -49.24791
541.50000        5.26386        5.37332        6.90876      -49.46029
542.00000        5.42844        5.44358        7.16637      -49.67625
542.50000        5.69499        5.51383        7.38104      -49.88864
543.00000        5.99284        5.67035        7.44544      -49.92603
543.50000        6.29070        5.82777        7.47138      -49.91518
544.00000        6.58944        5.98429        7.49731      -49.79186
544.50000        7.04383        6.14170        7.54562      -49.20783
545.00000        7.20036        6.29822        7.62701      -48.62380
545.50000        7.25671        6.45563        7.70841      -48.04334
546.00000        7.31216        6.56680        7.78980      -47.45931
546.50000        7.36851        6.49654        7.87120      -46.87528
547.00000        7.42397        6.42628        7.90519      -45.98411
547.50000        7.40876        6.35603        7.94007      -44.88223
548.00000        7.39445        6.28577        7.86941      -43.78392
548.50000        7.37925        6.21551        7.63953      -42.68204
549.00000        7.36404        6.14614        7.41055      -42.43371
549.50000        7.34973        6.07589        7.18157      -42.18897
550.00000        7.33452        5.98873        6.95259      -42.05783
550.50000        6.94646        5.59438        6.57950      -41.81311
551.00000        6.70862        5.49763        6.35327      -41.57196
551.50000        6.46989        5.40000        6.12704      -41.32724
552.00000        6.23205        5.30325        5.91866      -41.11103
552.50000        5.99421        5.20651        5.99421      -40.89483
553.00000        6.07780        5.09201        5.55549      -40.68218
553.50000        6.16139        4.95177        5.37390      -40.64420
554.00000        6.11998        4.81154        5.10481      -40.72739
554.50000        5.82500        4.67130        4.83483      -40.81059
555.00000        5.38091        4.58964        4.56574      -40.89379
555.50000        4.93683        4.54793        4.29666      -41.25144
556.00000        4.83381        4.50532        4.16239      -41.79444
556.50000        4.95757        4.46361        4.23169      -42.33744
557.00000        4.93491        4.51154        4.30099      -42.88044
557.50000        4.69171        4.73343        4.37029      -43.42343
558.00000        4.44852        4.91893        4.53513      -44.05910
