~Version ---------------------------------------------------
VERS. 2.0 : CWLS LOG ASCII STANDARD - VERSION 2.0
WRAP. NO  : One line per depth step
DLM . SPACE : Column Data Section Delimiter
~Well ------------------------------------------------------
STRT.F          780 : START DEPTH
STOP.F       1761.5 : STOP DEPTH
STEP.F          0.5 : STEP
NULL.       -999.25 : NULL VALUE
COMP.                 WALSH & WATTS, INC. : COMPANY
WELL.                         SALMON E 42 : WELL
FLD .                        NORTH NOCONA : FIELD
CNTY.                            MONTAGUE : COUNTY
STAT.                               TEXAS : STATE
CTRY.                                 USA : COUNTRY
SEC .                                     : SECTION
TWP .                                     : TOWNSHIP
RGE .                                     : RANGE
LOC . 150' FSL & 300' W OF WELL NO. 1, 407' E OF WELL NO. 5, F. ROBERTSON SURVEY : LOCATION
EKB .F                      880 : ELEVATION KELLY BUSHING
EDF .F                          : ELEVATION DERRICK FLOOR
EGL .F                      874 : ELEVATION GROUND LEVEL
PDAT.              GROUND LEVEL : PERMANENT DATUM
EPD .                       874 : ELEVATION PERMANENT DATUM
APD .                         6 : ABOVE PERMANENT DATUM
LMF .                        KB : LOG MEASURED FROM
DMF .                        KB : DRILLING MEASURED FROM
API .            42337037780000 : API NUMBER
UWI .            42337037780000 : UWI NUMBER
DIGC.                     NthDS : DIGITIZING COMPANY
~Params ----------------------------------------------------
SRVC.                LANE WELLS : LOGGING COMPANY
LOG .                        AC : LOG
DATE.                1965-11-21 : RUN DATE
RUN .                         1 : RUN NUMBER
TDD .F                     1766 : TOTAL DEPTH DRILLER
TDL .F                     1768 : TOTAL DEPTH LOGGER
BOTL.F                     1762 : BOTTOM LOGGED INTERVAL
TOPL.F                      790 : TOP LOGGED INTERVAL
CSGS.IN                         : CASING SIZE
CSGD.F                          : CASING DRILLER
CSGL.F                          : CASING LOGGER
BS  .IN                   7.875 : BIT SIZE
MUD .              CHEMICAL GEL : MUD TYPE
MUDD.                       9.8 : MUD DENSITY
MUDV.                       123 : MUD VISCOSITY
PH  .                           : MUD PH
FL  .                           : FLUID LOSS
MUDS.                CIRCULATED : SOURCE OF SAMPLE
RM  .OHMM                   2.1 : MUD RESISTIVITY
RMT .DEGF                    70 : RM TEMPERATURE
RMF .OHMM                  1.81 : MUD FILTRATE RESISTIVITY
RMFT.DEGF                    70 : RMF TEMPERATURE
RMC .OHMM                  2.34 : MUD CAKE RESISTIVITY
RMCT.DEGF                    70 : RMC TEMPERATURE
RMFS.                  MEASURED : RMF SOURCE
RMCS.                           : RMC SOURCE
RMBH.OHMM                   1.5 : MUD RESISTIVITY AT BHT
BHT .DEGF                    98 : BOTTOM HOLE TEMPERATURE
TIMC.                           : TIME CIRCULATION STOPPED
TIML.                           : TIME LOGGER ON BOTTOM
TMAX.DEGF                    98 : MAXIMUM RECORDED TEMPERATURE
UNIT.                    L-4553 : EQUIPMENT NUMBER
BASE.                      W.F. : BASE LOCATION
ENG .                     ADAMS : RECORDED BY
WIT .   MR. HARRELSON & MR. NIX : WITNESSED BY
~Curve Information -----------------------------------------
DEPT.F          :DEPTH
CALI.IN         :
DT.US/F         :
SP.MV           :
~ASCII ------------------------------------------------------
# ...
1356.50000        8.18886       97.41294      -41.19311
1357.00000        8.09562       99.23682      -42.38170
1357.50000        7.95958       99.25871      -43.86614
1358.00000        7.82373       97.54229      -47.17602
1358.50000        7.78019       95.48259      -54.82315
1359.00000        7.79799       93.76617      -60.45061
1359.50000        7.81599       92.73632      -61.04749
1360.00000        7.83747       94.66369      -61.05265
1360.50000        7.85527       96.31841      -61.05781
1361.00000        7.85671       97.56219      -62.54226
1361.50000        7.83309       98.80598      -63.13913
1362.00000        7.80967       98.29652      -61.96087
1362.50000        7.78605       96.61692      -60.78261
1363.00000        7.76243       98.94528      -57.83025
1363.50000        7.73901      100.57214      -54.28514
1364.00000        7.71078      100.94528      -51.03588
1364.50000        7.77553      101.46767      -48.08249
1365.00000        7.86236      102.08956      -45.12909
1365.50000        7.94920      102.71145      -42.17569
1366.00000        8.03623      103.33334      -39.81401
1366.50000        8.12306      103.95523      -37.74818
1367.00000        8.14185      102.58707      -36.27406
1367.50000        8.11528      101.09453      -35.68751
1368.00000        8.08850      101.39304      -35.69267
1368.50000        8.08750      102.88558      -36.88230
1369.00000        8.09958      103.43284      -38.07088
1369.50000        8.11146      102.56219      -39.25947
1370.00000        8.09396      103.91344      -40.15220
1370.50000        8.05653      103.78110      -40.74908
1371.00000        8.01931      103.14130      -41.93767
1371.50000        8.00141      103.85175      -43.42211
1372.00000        8.01250      105.70050      -44.31588
1372.50000        8.02609      107.54826      -44.02518
1373.00000        8.03739      107.66170      -43.14278
1373.50000        8.04868      105.17413      -41.66866
1374.00000        8.05978      102.68657      -40.19455
1374.50000        8.07107      102.08956      -39.31214
1375.00000        8.07309      101.62488      -38.72559
1375.50000        8.07275       99.03782      -37.25148
1376.00000        8.08108       97.53931      -36.36907
1376.50000        8.09178       98.67065      -35.78356
1377.00000        8.00261       99.80100      -36.08458
1377.50000        7.92830       99.45274      -37.27316
1378.00000        7.94749       98.58209      -38.75761
1378.50000        7.98994       99.40299      -38.76277
1379.00000        8.03260       99.15423      -37.28865
1379.50000        8.07505       97.66170      -35.81454
1380.00000        8.09206       97.49951      -34.63628
1380.50000        8.00730       98.95821      -34.64144
1381.00000        8.01813      100.41792      -36.12692
1381.50000        8.04599      100.89553      -36.42794
1382.00000        8.03066       99.63085      -37.32067
1382.50000        7.84294       97.96020      -38.80511
1383.00000        7.70256       96.28956      -41.76884
1383.50000        7.75152       94.62687      -44.43671
1384.00000        7.77090       97.94329      -45.62530
1384.50000        7.67194      101.26070      -46.51906
1385.00000        7.65180      101.72438      -48.29936
1385.50000        7.67611      100.28757      -48.89624
1386.00000        7.70042      100.95523      -48.90140
1386.50000        7.72473       99.51344      -48.61071
1387.00000        7.74904       97.41294      -48.02416
1387.50000        7.78972       99.30349      -46.84590
1388.00000        7.89628       98.25374      -45.96349
1388.50000        8.00284      100.10846      -44.78523
1389.00000        8.03780      101.31045      -43.60800
1389.50000        8.05810       99.90050      -41.24632
1390.00000        8.07531      103.54926      -38.58878
1390.50000        8.09232      106.06966      -37.70637
1391.00000        8.10933      104.54130      -37.41568
1391.50000        8.12635      103.01393      -37.71670
1392.00000        8.12817      102.28856      -38.90529
1392.50000        8.06866      102.84578      -41.27730
1393.00000        8.00914      100.21294      -42.76278
1393.50000        7.93772       95.80697      -43.95137
1394.00000        7.87821       97.62289      -46.02752
1394.50000        7.81869      100.99503      -48.10368
1395.00000        7.80572       99.30349      -48.10884
1395.50000        7.86238      100.49752      -47.52229
1396.00000        7.91924       98.81493      -46.93575
1396.50000        7.97589       97.41294      -45.46266
1397.00000        8.03275       98.57413      -44.87611
1397.50000        8.10078       97.53234      -43.40200
1398.00000        8.15763       98.00996      -42.22374
1398.50000        8.21429       97.31344      -41.34133
1399.00000        8.16266       96.83682      -40.16307
1399.50000        8.11104       98.93433      -40.46409
1400.00000        8.09881      101.03085      -41.20556
1400.50000        8.03715      102.43782      -41.50200
1401.00000        8.01858      101.33334      -40.31623
1401.50000        8.13162       99.89055      -38.83402
1402.00000        8.24447       99.05075      -37.05536
1402.50000        8.30178       98.36219      -35.57315
1403.00000        8.27530       97.81095      -34.98027
1403.50000        8.24368       98.00996      -34.98027
1404.00000        8.21739       99.20399      -35.27671
1404.50000        8.19111       97.91045      -34.68382
1405.00000        8.16462       96.04478      -33.79449
1405.50000        8.07016       95.48956      -34.09094
1406.00000        7.93024       96.89851      -34.38738
1406.50000        7.84783       98.30846      -35.57315
1407.00000        7.92194       97.46866      -36.75892
1407.50000        7.99605       96.62886      -37.35181
1408.00000        8.07016       95.62190      -37.05536
1408.50000        8.07510       96.81593      -36.16604
1409.00000        7.97628       95.37314      -36.16604
1409.50000        7.85771       93.93035      -37.64825
1410.00000        7.79842       94.15125      -39.42690
1410.50000        7.89723       94.64677      -40.61267
1411.00000        7.99605       96.25175      -41.20556
1411.50000        7.88972       97.91045      -42.68777
1412.00000        7.78320       99.90050      -44.76287
1412.50000        7.77866       97.96617      -45.65220
1413.00000        7.95652       96.24777      -45.94864
1413.50000        7.94941       95.39404      -45.94864
1414.00000        7.94249       95.22389      -45.35576
1414.50000        7.95316       96.21891      -44.76287
1415.00000        8.03557       98.20896      -43.87354
1415.50000        8.11798       98.65672      -43.57710
1416.00000        8.10138       97.41294      -43.87354
1416.50000        8.05534       96.88856      -44.76287
1417.00000        8.00593       99.23981      -45.35576
1417.50000        7.95652      101.59204      -45.65220
1418.00000        7.90711      100.49055      -45.35576
1418.50000        7.94308       99.38906      -44.76287
1419.00000        8.01166       98.28757      -43.57710
1419.50000        8.06877       96.96518      -42.68777
1420.00000        8.11462       95.86369      -40.90912
1420.50000        8.11462       96.31841      -39.42690
1421.00000        8.11462       95.63981      -38.24113
1421.50000        8.11462       94.41891      -38.24113
1422.00000        8.03557       94.94528      -39.13046
1422.50000        7.95652       95.08458      -40.31623
1423.00000        7.87747       95.62190      -42.98422
1423.50000        7.79842       96.11941      -45.05931
1424.00000        7.71937       94.37812      -47.13441
1424.50000        7.73458       92.63682      -48.61663
1425.00000        7.74980       94.02986      -49.80240
1425.50000        7.76798       95.42289      -50.09884
1426.00000        7.78320       94.67662      -49.50595
1426.50000        7.79842       93.93035      -48.91307
1427.00000        7.81364       93.03483      -48.32018
1427.50000        7.82885       94.52737      -47.72730
