~Version ---------------------------------------------------
VERS. 2.0 : CWLS LOG ASCII STANDARD - VERSION 2.0
WRAP. NO  : One line per depth step
DLM . SPACE : Column Data Section Delimiter
~Well ------------------------------------------------------
STRT.F          194 : START DEPTH
STOP.F       1764.0 : STOP DEPTH
STEP.F          0.5 : STEP
NULL.       -999.25 : NULL VALUE
COMP.                 WALSH & WATTS, INC. : COMPANY
WELL.                         SALMON E 42 : WELL
FLD .                        NORTH NOCONA : FIELD
CNTY.                            MONTAGUE : COUNTY
STAT.                               TEXAS : STATE
CTRY.                                 USA : COUNTRY
SEC .                                     : SECTION
TWP .                                     : TOWNSHIP
RGE .                                     : RANGE
LOC . 150' FSL & 300' W OF WELL NO. 1, 407' E OF WELL NO. 5, F. ROBERTSON SURVEY : LOCATION
EKB .F                      880 : ELEVATION KELLY BUSHING
EDF .F                          : ELEVATION DERRICK FLOOR
EGL .F                      874 : ELEVATION GROUND LEVEL
PDAT.              GROUND LEVEL : PERMANENT DATUM
EPD .                       874 : ELEVATION PERMANENT DATUM
APD .                         6 : ABOVE PERMANENT DATUM
LMF .                        KB : LOG MEASURED FROM
DMF .                        KB : DRILLING MEASURED FROM
API .            42337037780000 : API NUMBER
UWI .            42337037780000 : UWI NUMBER
DIGC.                     NthDS : DIGITIZING COMPANY
~Params ----------------------------------------------------
SRVC.                LANE WELLS : LOGGING COMPANY
LOG .                       IEL : LOG
DATE.                1965-11-21 : RUN DATE
RUN .                         1 : RUN NUMBER
TDD .F                     1766 : TOTAL DEPTH DRILLER
TDL .F                     1768 : TOTAL DEPTH LOGGER
BOTL.F                     1764 : BOTTOM LOGGED INTERVAL
TOPL.F                      200 : TOP LOGGED INTERVAL
CSGS.IN                         : CASING SIZE
CSGD.F                          : CASING DRILLER
CSGL.F                          : CASING LOGGER
BS  .IN                   7.875 : BIT SIZE
MUD .              CHEMICAL GEL : MUD TYPE
MUDD.                       9.8 : MUD DENSITY
MUDV.                       123 : MUD VISCOSITY
PH  .                           : MUD PH
FL  .                           : FLUID LOSS
MUDS.                CIRCULATED : SOURCE OF SAMPLE
RM  .OHMM                   2.1 : MUD RESISTIVITY
RMT .DEGF                    70 : RM TEMPERATURE
RMF .OHMM                  1.81 : MUD FILTRATE RESISTIVITY
RMFT.DEGF                    70 : RMF TEMPERATURE
RMC .OHMM                  2.34 : MUD CAKE RESISTIVITY
RMCT.DEGF                    70 : RMC TEMPERATURE
RMFS.                  MEASURED : RMF SOURCE
RMCS.                           : RMC SOURCE
RMBH.OHMM                   1.5 : MUD RESISTIVITY AT BHT
BHT .DEGF                    98 : BOTTOM HOLE TEMPERATURE
TIMC.                           : TIME CIRCULATION STOPPED
TIML.                           : TIME LOGGER ON BOTTOM
TMAX.DEGF                    98 : MAXIMUM RECORDED TEMPERATURE
UNIT.                    L-4553 : EQUIPMENT NUMBER
BASE.                      W.F. : BASE LOCATION
ENG .                     ADAMS : RECORDED BY
WIT .   MR. HARRELSON & MR. NIX : WITNESSED BY
~Curve Information -----------------------------------------
DEPT.F          :DEPTH
CILD.MMHO       :
ILD.OHMM        :
ROP.MIN/FT      :
SN.OHMM         :
SP.MV           :
~ASCII ------------------------------------------------------
# ...
384.00000      158.68640        6.21577        -999.25        8.80905      -65.57700
384.50000      158.71760        6.25403        -999.25        8.72944      -65.87861
385.00000      157.75056        6.21371        -999.25        8.61054      -66.77311
385.50000      158.76959        6.17339        -999.25        8.49163      -67.37116
386.00000      159.78863        6.09378        -999.25        8.52989      -67.37634
386.50000      159.81462        6.05325        -999.25        8.17524      -67.08610
387.00000      160.83366        6.09152        -999.25        7.58482      -66.79484
387.50000      159.86662        6.09049        -999.25        6.79775      -66.80001
388.00000      160.88565        5.93229        -999.25        6.44309      -66.50874
388.50000      165.87682        5.81338        -999.25        7.73870      -65.62460
389.00000      171.86103        5.53731        -999.25        8.48422      -65.03689
389.50000      178.83827        5.41841        -999.25        8.24744      -64.44918
390.00000      185.82072        5.14233        -999.25        7.97137      -63.86147
390.50000      191.80492        5.02343        -999.25        7.85246      -62.97732
391.00000      196.79610        4.98311        -999.25        7.77285      -62.68606
391.50000      197.81513        4.90349        -999.25        7.77182      -62.09938
392.00000      197.84113        5.02013        -999.25        7.92796      -61.80812
392.50000      193.89498        5.13698        -999.25        8.08410      -62.40617
393.00000      188.95581        5.37171        -999.25        8.27953      -62.70779
393.50000      181.03753        5.56714        -999.25        8.59284      -63.00940
394.00000      171.13318        5.91974        -999.25        8.90615      -63.01458
394.50000      163.21489        6.07588        -999.25        9.29805      -63.31619
395.00000      158.27572        6.27131        -999.25        9.53277      -63.32136
395.50000      155.32261        6.27028        -999.25        9.64962      -63.62298
396.00000      155.34861        6.19067        -999.25        9.64838      -63.62919
396.50000      157.36068        6.11106        -999.25        9.56877      -63.93080
397.00000      163.35008        5.91357        -999.25        9.17482      -64.23242
397.50000      169.33429        5.75537        -999.25        8.89875      -64.23759
398.00000      172.33939        5.59717        -999.25        8.74055      -63.94632
398.50000      175.34449        5.51735        -999.25        8.58235      -63.65506
399.00000      178.34960        5.39845        -999.25        8.42415      -63.95667
399.50000      182.34773        5.35813        -999.25        8.26596      -63.96185
400.00000      182.71146        5.35426        -999.25        8.18907      -64.79241
400.50000      183.73049        5.35323        -999.25        8.06972      -65.09446
401.00000      183.75649        5.31283        -999.25        7.98995      -64.80377
401.50000      183.78769        5.31179        -999.25        7.91018      -64.51307
402.00000      184.80672        5.23202        -999.25        7.79104      -64.51824
402.50000      188.80486        5.19162        -999.25        7.71127      -64.52340
403.00000      191.80996        5.11185        -999.25        7.59213      -64.23271
403.50000      192.82899        5.07125        -999.25        7.59110      -63.94202
404.00000      190.86892        5.18833        -999.25        7.59007      -63.65132
404.50000      188.90885        5.22666        -999.25        7.62841      -63.65649
405.00000      186.94878        5.22563        -999.25        7.62718      -63.36683
405.50000      185.98174        5.26397        -999.25        7.58678      -63.37199
406.00000      186.01294        5.26294        -999.25        7.46764      -63.08130
406.50000      188.02500        5.18317        -999.25        7.46661      -62.49475
407.00000      189.04404        5.14277        -999.25        7.46557      -61.90820
407.50000      191.05610        5.06300        -999.25        7.46454      -61.32165
408.00000      195.05424        5.02240        -999.25        7.34540      -61.03096
408.50000      199.05238        4.82452        -999.25        7.22627      -60.74027
409.00000      204.04355        4.78412        -999.25        7.06755      -60.15372
409.50000      207.04865        4.66498        -999.25        7.02715      -60.45577
410.00000      208.07289        4.66395        -999.25        6.98675      -60.75679
410.50000      206.11281        4.74166        -999.25        7.06446      -61.35367
411.00000      203.15971        4.85873        -999.25        7.22091      -61.95054
411.50000      197.22750        5.05455        -999.25        7.33798      -62.25156
412.00000      190.30225        5.28974        -999.25        7.57317      -62.84844
412.50000      183.37700        5.48535        -999.25        7.76899      -63.14946
413.00000      176.45176        5.60243        -999.25        8.08291      -63.15462
413.50000      172.50561        5.71950        -999.25        8.35747      -63.45564
414.00000      170.54554        5.79721        -999.25        8.59266      -63.75770
414.50000      167.59243        5.87492        -999.25        8.86700      -64.35457
415.00000      165.63236        5.91326        -999.25        9.02345      -64.35974
415.50000      163.67229        6.03034        -999.25        9.25864      -64.95661
416.00000      160.72438        6.06868        -999.25        9.53319      -65.55349
416.50000      157.77128        6.30386        -999.25        9.80775      -66.74208
417.00000      153.82513        6.42094        -999.25       10.12168      -67.33895
417.50000      150.87203        6.61676        -999.25       10.47497      -66.75240
418.00000      145.93285        6.85174        -999.25       10.82827      -65.87000
418.50000      143.97278        6.92945        -999.25       11.02408      -64.98863
419.00000      141.01967        6.96779        -999.25       11.02305      -64.69793
419.50000      141.04567        6.96675        -999.25       10.94328      -64.40724
420.00000      142.06470        6.92635        -999.25       11.02099      -64.70826
420.50000      143.08374        6.88595        -999.25       11.05912      -64.41757
421.00000      145.10100        6.84555        -999.25       11.09746      -64.42273
421.50000      145.12700        6.80515        -999.25       11.17517      -64.42790
422.00000      143.16693        6.88286        -999.25       11.41036      -65.02477
422.50000      143.19293        6.92099        -999.25       11.52744      -66.21336
423.00000      142.22589        6.91996        -999.25       11.56577      -67.40298
423.50000      142.25189        6.91893        -999.25       11.44664      -67.70400
424.00000      142.27788        6.83916        -999.25       11.17002      -67.41331
424.50000      144.28995        6.75939        -999.25       10.93277      -66.53090
425.00000      148.29329        6.60088        -999.25       10.61658      -66.24021
425.50000      152.29143        6.40301        -999.25       10.45807      -66.24538
426.00000      157.28260        6.20513        -999.25       10.33893      -66.25054
426.50000      160.28770        5.96767        -999.25       10.18042      -66.84741
427.00000      166.27191        5.84853        -999.25        9.98254      -67.44429
427.50000      170.27005        5.65066        -999.25        9.78466      -68.04220
428.00000      174.26818        5.53152        -999.25        9.58678      -68.63908
428.50000      179.25936        5.37301        -999.25        9.34933      -69.53181
429.00000      185.24876        5.25387        -999.25        9.19082      -70.12868
429.50000      187.26083        5.17410        -999.25        9.07168      -70.13385
430.00000      189.27290        5.13370        -999.25        8.91317      -70.13901
430.50000      190.29193        5.13246        -999.25        8.83340      -70.44003
431.00000      190.31793        5.09206        -999.25        8.75363      -70.74105
