~Version ---------------------------------------------------
VERS. 2.0 : CWLS LOG ASCII STANDARD - VERSION 2.0
WRAP. NO  : One line per depth step
DLM . SPACE : Column Data Section Delimiter
~Well ------------------------------------------------------
STRT.F          227 : START DEPTH
STOP.F       2033.0 : STOP DEPTH
STEP.F          0.5 : STEP
NULL.       -999.25 : NULL VALUE
COMP.                  WALSH & WATTS, INC : COMPANY
WELL.                          HYNDS A 10 : WELL
FLD .                           N. NOCONA : FIELD
CNTY.                            MONTAGUE : COUNTY
STAT.                               TEXAS : STATE
CTRY.                                 USA : COUNTRY
SEC .                                     : SECTION
TWP .                                     : TOWNSHIP
RGE .                                     : RANGE
LOC .  244' SE OF NO. 5A J.J. WALL SURVEY : LOCATION
EKB .F                    903.5 : ELEVATION KELLY BUSHING
EDF .F                          : ELEVATION DERRICK FLOOR
EGL .F                      897 : ELEVATION GROUND LEVEL
PDAT.                        GL : PERMANENT DATUM
EPD .                           : ELEVATION PERMANENT DATUM
APD .                         6 : ABOVE PERMANENT DATUM
LMF .                           : LOG MEASURED FROM
DMF .                           : DRILLING MEASURED FROM
API .            42337037830000 : API NUMBER
UWI .            42337037830000 : UWI NUMBER
DIGC.                     NthDS : DIGITIZING COMPANY
~Params ----------------------------------------------------
SRVC.              SCHLUMBERGER : LOGGING COMPANY
LOG .                       IEL : LOG
DATE.                1957-10-20 : RUN DATE
RUN .                         1 : RUN NUMBER
TDD .F                          : TOTAL DEPTH DRILLER
TDL .F                          : TOTAL DEPTH LOGGER
BOTL.F                     2039 : BOTTOM LOGGED INTERVAL
TOPL.F                          : TOP LOGGED INTERVAL
CSGS.IN                         : CASING SIZE
CSGD.F                      227 : CASING DRILLER
CSGL.F                      227 : CASING LOGGER
BS  .IN                    8.75 : BIT SIZE
MUD .                       GEL : MUD TYPE
MUDD.                       9.9 : MUD DENSITY
MUDV.                        50 : MUD VISCOSITY
PH  .                           : MUD PH
FL  .                           : FLUID LOSS
MUDS.                           : SOURCE OF SAMPLE
RM  .OHMM                   2.3 : MUD RESISTIVITY
RMT .DEGF                    60 : RM TEMPERATURE
RMF .OHMM                   .76 : MUD FILTRATE RESISTIVITY
RMFT.DEGF                    96 : RMF TEMPERATURE
RMC .OHMM                   1.7 : MUD CAKE RESISTIVITY
RMCT.DEGF                    96 : RMC TEMPERATURE
RMFS.                           : RMF SOURCE
RMCS.                           : RMC SOURCE
RMBH.OHMM                   1.4 : MUD RESISTIVITY AT BHT
BHT .DEGF                    96 : BOTTOM HOLE TEMPERATURE
TIMC.                           : TIME CIRCULATION STOPPED
TIML.                           : TIME LOGGER ON BOTTOM
TMAX.DEGF                       : MAXIMUM RECORDED TEMPERATURE
UNIT.                       785 : EQUIPMENT NUMBER
BASE.                        WF : BASE LOCATION
ENG .                     JONES : RECORDED BY
WIT .               BALCH & NIX : WITNESSED BY
~Curve Information -----------------------------------------
DEPT.F          :DEPTH
CILD.MMHO       :
ILD.OHMM        :
ROP.FT/HR       :
SN.OHMM         :
SP.MV           :
~ASCII ------------------------------------------------------
# ...
939.50000      341.09228        2.99820        5.98934        3.71131      -21.30236
940.00000      338.40652        3.01616        5.30977        4.02154      -23.32817
940.50000      331.24448        3.13573        3.95731        4.57810      -28.99526
941.00000      318.71091        3.26104        3.95763        5.04201      -38.50291
941.50000      302.59632        3.42406        3.95801        5.24237      -42.60661
942.00000      288.27224        3.55476        3.95833        5.21257      -42.26468
942.50000      284.69122        3.55476        3.95864        5.24237      -38.90828
943.00000      289.16749        3.53070        3.95896        5.16086      -36.13520
943.50000      294.53902        3.47109        3.95927        5.07899      -37.40015
944.00000      300.80581        3.41113        3.95959        5.00898      -38.57452
944.50000      304.38683        3.35117        3.95991        4.73968      -37.93667
945.00000      308.86310        3.25709        3.96022        4.25242      -34.95708
945.50000      321.39667        3.11634        3.96054        3.79246      -31.00648
946.00000      341.98754        2.98420        3.96086        3.46068      -26.37291
946.50000      359.89264        2.85170        3.96124        3.17774      -23.43136
947.00000      371.53096        2.71957        3.96155        3.08797      -22.34125
947.50000      378.69300        2.67038        3.96187        3.02262      -20.78493
948.00000      383.16927        2.64201        3.96218        2.97379      -20.31619
948.50000      384.95978        2.61364        3.96250        2.98923      -20.15723
949.00000      387.64555        2.58528        3.96282        3.10162      -21.02363
949.50000      389.43606        2.58528        3.96313        3.21364      -23.86465
950.00000      391.22657        2.58528        2.77903        3.35548      -27.67129
950.50000      391.22657        2.62378        0.99784        3.68216      -32.06122
951.00000      387.64555        2.67207        1.00051        3.89189      -37.45657
951.50000      379.58825        2.72072        1.00336        3.89189      -41.47513
952.00000      370.63570        2.76937        1.00621        3.77189      -39.96292
952.50000      361.68315        2.81766        1.00907        3.55135      -33.29132
953.00000      355.41636        2.86198        1.01192        3.30558      -25.79482
953.50000      351.83534        2.89982        1.01477        3.17117      -22.53081
954.00000      347.35907        2.94558        2.39395        3.22342      -22.43707
954.50000      342.88279        2.98342        2.40386        3.37117      -22.97738
955.00000      339.30177        3.00000        2.41360        3.52252      -22.52132
955.50000      337.51126        3.01117        2.42352        3.68000      -23.33337
956.00000      337.51126        3.02270        1.03652        3.92793      -25.50411
956.50000      337.51126        3.03387        1.03684        4.67856      -31.16214
957.00000      335.72075        3.04504        1.03716        5.42955      -38.17887
957.50000      332.13973        3.05622        1.03747        6.20540      -48.32057
958.00000      327.66346        3.09586        1.03779        7.15676      -58.46227
958.50000      324.08244        3.15063        2.43816        7.49549      -59.36490
959.00000      320.50142        3.20577        2.44355        7.68757      -60.33999
959.50000      317.81565        3.26054        2.44875        7.60360      -61.20639
960.00000      313.33938        3.31531        1.98295        6.97549      -59.46411
960.50000      306.17734        3.33549        1.99232        5.88108      -50.31907
961.00000      306.17734        3.33333        2.00170        4.35135      -39.05873
961.50000      313.33938        3.24324        2.01107        3.76576      -24.56291
962.00000      324.97769        3.13513        2.50776        3.41622      -19.12500
962.50000      339.30177        3.00396        2.99582        3.36685      -20.17192
963.00000      351.83534        2.87315        2.99469        3.32721      -22.77744
963.50000      356.31162        2.84685        2.99337        3.25441      -24.73078
964.00000      358.99738        2.84685        2.99224        3.13081      -23.09720
964.50000      360.78789        2.83640        2.99111        3.00685      -18.86761
965.00000      365.26417        2.78522        2.98997        2.88288      -15.66339
965.50000      372.42621        2.72324        2.98884        2.83495      -16.22906
966.00000      379.58825        2.67171        2.98753        2.80685      -17.64980
966.50000      384.95978        2.62883        2.98639        2.79748      -19.15569
967.00000      387.64555        2.62090        2.98526        2.78811      -19.45506
967.50000      387.64555        2.61261        2.98383        2.77874      -19.99474
968.00000      388.54080        2.60432        2.98269        2.76901      -18.26333
968.50000      387.64555        2.59640        4.04424        2.75964      -15.68229
969.00000      386.75029        2.61694        4.03495        2.75027      -13.10124
969.50000      385.85504        2.65009        4.02585        2.73874      -12.95315
970.00000      383.16927        2.67784        4.01656        2.79568      -13.13115
970.50000      378.69300        2.70558        2.49515        2.85261      -13.12255
971.00000      374.21672        2.73333        2.49546        2.90955      -12.36396
971.50000      370.63570        2.76432        2.49578        2.95820      -12.63254
972.00000      367.05468        2.79604        2.49610        2.97477      -12.90048
972.50000      364.36892        2.82775        4.01494        2.99099      -13.98427
973.00000      359.89264        2.85477        4.01109        3.09405      -17.74014
973.50000      356.31162        2.87892        4.00724        3.21766      -21.24783
974.00000      353.62585        2.89874        4.00357        3.30631      -24.01639
974.50000      351.83534        2.91892        1.03344        3.37405      -25.92807
975.00000      351.83534        2.86595        1.03865        3.36108      -26.83070
975.50000      354.52111        2.81297        1.04403        3.32829      -29.78585
976.00000      361.68315        2.76000        1.04942        3.38018      -31.57978
976.50000      369.74045        2.70883        2.02510        3.48829      -31.13278
977.00000      377.79774        2.64865        2.02070        3.79099      -30.98469
977.50000      386.75029        2.59856        2.01631        4.22270      -34.70433
978.00000      391.22657        2.56540        2.01173        4.68144      -40.29896
978.50000      392.12182        2.59964        1.03144        5.09477      -44.15447
979.00000      390.33131        2.63423        1.02940        5.47748      -45.39586
979.50000      385.85504        2.66847        1.02688        6.07820      -47.50682
980.00000      379.58825        2.70270        1.02484        7.05117      -49.80618
980.50000      369.74045        2.81549        1.02280        8.11712      -52.51976
981.00000      356.31162        2.95063        1.02076        9.57513      -58.72852
981.50000      341.98754        3.06306        1.01873       10.77946      -64.67459
982.00000      328.55871        3.17586        1.02303       11.34234      -69.29160
982.50000      317.81565        3.26847        1.55794       12.13910      -74.36748
983.00000      308.86310        3.33153        1.55355       13.02342      -78.04727
983.50000      302.59632        3.39459        1.54915       13.57657      -80.38105
984.00000      296.32953        3.45766        1.54374       13.65765      -81.19310
984.50000      291.85326        3.49549        3.04567       13.09009      -81.81131
985.00000      290.06275        3.49549        3.04128       11.79567      -81.65779
985.50000      289.16749        3.49549        3.03689       10.65477      -81.54049
986.00000      290.06275        3.49549        3.03249        9.51351      -81.47030
986.50000      291.85326        3.46667        4.01040        8.75675      -82.37293
