~Version ---------------------------------------------------
VERS. 2.0 : CWLS LOG ASCII STANDARD - VERSION 2.0
WRAP. NO  : One line per depth step
DLM . SPACE : Column Data Section Delimiter
~Well ------------------------------------------------------
STRT.F          500 : START DEPTH
STOP.F        996.0 : STOP DEPTH
STEP.F          0.5 : STEP
NULL.       -999.25 : NULL VALUE
COMP.                       WALSH & WATTS : COMPANY
WELL.                           HYNDS B 6 : WELL
FLD .                           N. NOCONA : FIELD
CNTY.                            MONTAGUE : COUNTY
STAT.                               TEXAS : STATE
CTRY.                                 USA : COUNTRY
SEC .                                     : SECTION
TWP .                                     : TOWNSHIP
RGE .                                     : RANGE
LOC . 550' FR W/L OF LEASE, 150' FR S/L OF LEASE, 400' FR NO 4 WELL, 300' FR NO 3 WELL : LOCATION
EKB .F                          : ELEVATION KELLY BUSHING
EDF .F                          : ELEVATION DERRICK FLOOR
EGL .F                          : ELEVATION GROUND LEVEL
PDAT.                        GL : PERMANENT DATUM
EPD .                           : ELEVATION PERMANENT DATUM
APD .                         6 : ABOVE PERMANENT DATUM
LMF .                        KB : LOG MEASURED FROM
DMF .                        KB : DRILLING MEASURED FROM
API .            42337038650000 : API NUMBER
UWI .                           : UWI NUMBER
DIGC.                     NthDS : DIGITIZING COMPANY
~Params ----------------------------------------------------
SRVC.                LANE WELLS : LOGGING COMPANY
LOG .                       GRN : LOG
DATE.                1957-10-16 : RUN DATE
RUN .                         1 : RUN NUMBER
TDD .F                     1015 : TOTAL DEPTH DRILLER
TDL .F                      997 : TOTAL DEPTH LOGGER
BOTL.F                    996.5 : BOTTOM LOGGED INTERVAL
TOPL.F                      500 : TOP LOGGED INTERVAL
CSGS.IN                         : CASING SIZE
CSGD.F                          : CASING DRILLER
CSGL.F                          : CASING LOGGER
BS  .IN                     5.5 : BIT SIZE
MUD .                           : MUD TYPE
MUDD.                           : MUD DENSITY
MUDV.                           : MUD VISCOSITY
PH  .                           : MUD PH
FL  .                           : FLUID LOSS
MUDS.                           : SOURCE OF SAMPLE
RM  .OHMM                       : MUD RESISTIVITY
RMT .DEGF                       : RM TEMPERATURE
RMF .OHMM                       : MUD FILTRATE RESISTIVITY
RMFT.DEGF                       : RMF TEMPERATURE
RMC .OHMM                       : MUD CAKE RESISTIVITY
RMCT.DEGF                       : RMC TEMPERATURE
RMFS.                           : RMF SOURCE
RMCS.                           : RMC SOURCE
RMBH.OHMM                       : MUD RESISTIVITY AT BHT
BHT .DEGF                       : BOTTOM HOLE TEMPERATURE
TIMC.                           : TIME CIRCULATION STOPPED
TIML.                           : TIME LOGGER ON BOTTOM
TMAX.DEGF                       : MAXIMUM RECORDED TEMPERATURE
UNIT.                           : EQUIPMENT NUMBER
BASE.                           : BASE LOCATION
ENG .                     PRICE : RECORDED BY
WIT .                       NIX : WITNESSED BY
~Curve Information -----------------------------------------
DEPT.F          :DEPTH
GRN.GAPI        :
NEUT.API        :
~ASCII ------------------------------------------------------
# ...
800.00000       11.42473     3174.03395
800.50000       12.89337     3062.17412
801.00000       14.04211     3050.79946
801.50000       15.19175     2975.92076
802.00000       15.97670     3065.17502
802.50000       14.56989     3152.02137
803.00000       13.17652     3161.90457
803.50000       13.45609     3082.53351
804.00000       12.69355     2954.75275
804.50000       12.14606     2957.95131
805.00000       12.31451     2967.33136
805.50000       12.49104     3005.26487
806.00000       12.67025     3025.03127
806.50000       12.34767     3032.52453
807.00000       11.89964     3113.38705
807.50000       12.12365     3197.62783
808.00000       11.92921     3281.85065
808.50000       11.52330     3290.94319
809.00000       12.55645     3203.91714
809.50000       12.70609     3116.87313
810.00000       14.10036     3029.82911
810.50000       14.85663     3110.69163
811.00000       13.35394     3191.55416
811.50000       12.04480     3201.43736
812.00000       10.73477     3089.12829
812.50000       11.30018     2976.81923
813.00000       12.78226     2943.57575
813.50000       14.26344     2799.82015
814.00000       15.69265     2656.06455
814.50000       17.08691     2618.77794
815.00000       16.82795     2686.05556
815.50000       15.39426     2761.74289
816.00000       15.20251     2837.41224
816.50000       13.84140     2913.09956
817.00000       11.70072     2988.76892
817.50000       11.77419     3021.74286
818.00000       10.46595     2943.57575
818.50000       11.60842     2844.74378
819.00000       11.89964     2745.10318
819.50000       12.19086     2645.44461
820.00000       13.20520     2644.20471
820.50000       13.75179     2647.43922
821.00000       12.48208     2671.84173
821.50000       11.30824     2642.89294
822.00000       11.22043     2648.87677
822.50000       11.85484     2703.59375
823.00000       12.48925     2758.32869
823.50000       12.13889     2777.35834
824.00000       11.72043     2775.56139
824.50000       12.61649     2711.37452
825.00000       11.72043     2643.48594
825.50000       12.13889     2650.67372
826.00000       11.98925     2638.09510
826.50000       12.43727     2629.11038
827.00000       11.79032     2605.44461
827.50000       11.40681     2630.90732
828.00000       11.41577     2618.32871
828.50000       11.06362     2588.37363
829.00000       11.36201     2646.18135
829.50000       10.46595     2760.73660
830.00000       10.09229     2841.14989
830.50000       12.09677     2828.57127
831.00000       13.45251     2784.06094
831.50000       13.55735     2739.83813
832.00000       13.54211     2695.59734
832.50000       16.36648     2676.19034
833.00000       19.70878     2629.11038
833.50000       23.45250     2502.96484
834.00000       28.79928     2289.48777
834.50000       34.14605     2084.04305
835.00000       38.33333     1975.02240
835.50000       37.88530     1989.63156
836.00000       39.16935     1977.71782
836.50000       40.88709     1926.05565
837.00000       42.36558     1920.21558
837.50000       43.37365     1940.43121
838.00000       43.12723     1935.48961
838.50000       41.17204     1972.70434
839.00000       38.88530     2033.04575
839.50000       36.59766     2104.04305
840.00000       34.31093     2141.77889
840.50000       34.48028     2129.55967
841.00000       33.82705     2136.99902
841.50000       33.11379     2142.85706
842.00000       33.64426     2149.32606
842.50000       32.83781     2124.38447
843.00000       32.15053     2152.47072
843.50000       32.40143     2144.83370
844.00000       33.11827     2113.74655
844.50000       33.00179     2117.69983
845.00000       33.87096     2107.63694
845.50000       33.81451     2103.05473
846.00000       34.12186     2078.52643
846.50000       35.71236     2064.27666
847.00000       38.28852     2059.47881
847.50000       39.89067     2014.55519
848.00000       40.84229     1998.38268
848.50000       40.31988     1968.19401
849.00000       41.09587     1928.66122
849.50000       40.57347     1934.59114
850.00000       41.85393     1965.13920
850.50000       41.06988     2021.38358
851.00000       39.44981     2010.96130
851.50000       37.95967     2056.78340
852.00000       36.98924     2086.43299
852.50000       38.79390     2041.50936
853.00000       38.60214     1951.66211
853.50000       41.62634     1904.94154
854.00000       44.90053     1921.11405
854.50000       48.54838     1897.16077
855.00000       50.51970     1908.17604
855.50000       50.44802     1931.30273
856.00000       50.78852     1955.25600
856.50000       51.45160     1938.77802
857.00000       52.86737     1949.86517
857.50000       54.14246     1929.38000
858.00000       53.76074     1942.67739
858.50000       49.80286     1977.46624
859.00000       42.96057     2006.05564
859.50000       36.11738     2029.52374
860.00000       31.27240     2010.24252
860.50000       30.04480     2006.46894
861.00000       28.54121     2018.14908
861.50000       30.20878     1958.84989
862.00000       31.87634     1915.72321
862.50000       33.54480     1973.22545
863.00000       34.39067     2045.10325
863.50000       31.62455     2116.98105
864.00000       28.20788     2174.48329
864.50000       28.73028     2189.45184
865.00000       27.96863     2192.45274
865.50000       27.61021     2155.30989
866.00000       28.70609     2132.36290
866.50000       28.26792     2149.32606
867.00000       28.44265     2163.10863
867.50000       29.28315     2151.12301
868.00000       29.42652     2117.69983
868.50000       31.32885     2120.93433
869.00000       30.80645     2088.22993
869.50000       32.86738     2026.23533
870.00000       38.24372     1939.08350
870.50000       42.65680     1890.20659
871.00000       42.41935     1901.34765
871.50000       42.12902     1916.17245
872.00000       43.55465     1900.44918
872.50000       44.65949     1906.01971
873.00000       44.17383     1908.76904
873.50000       42.46325     1927.85259
874.00000       40.75268     1935.48961
874.50000       41.48566     1906.73849
875.00000       42.21863     1891.64415
875.50000       41.96236     1889.48782
876.00000       41.66666     1905.30093
876.50000       42.37813     1913.92627
877.00000       43.78673     1922.31800
877.50000       43.65859     1958.25690
878.00000       44.74641     1982.21018
878.50000       43.70967     2006.16346
879.00000       43.21684     2025.33686
879.50000       41.68996     2019.35303
880.00000       39.72580     2091.96758
880.50000       38.24372     2179.73037
881.00000       38.69175     2248.75103
881.50000       38.06451     2242.76720
882.00000       34.12186     2333.72856
882.50000       30.29838     2461.09602
883.00000       29.55197     2491.94956
883.50000       31.14516     2273.31527
884.00000       33.07616     2046.90020
884.50000       36.36200     1985.80407
885.00000       39.43458     1990.11674
885.50000       40.68548     1976.98107
886.00000       40.06182     1995.77711
886.50000       41.02150     2014.55519
887.00000       39.46236     2008.48151
887.50000       38.63171     2032.07540
888.00000       39.08601     2037.91547
888.50000       38.66218     2067.11583
889.00000       39.40859     2074.75285
889.50000       36.63082     2130.76362
890.00000       33.85304     2240.57493
890.50000       33.85304     2271.15893
891.00000       31.83691     2288.89478
891.50000       29.82078     2280.23351
892.00000       29.81093     2233.96217
892.50000       30.45788     2187.69084
893.00000       30.47759     2141.41950
893.50000       30.07974     2109.79327
894.00000       30.91576     2210.06280
894.50000       32.06093     2265.40871
895.00000       32.15053     2282.55156
895.50000       29.68637     2303.27034
896.00000       26.99820     2251.23081
896.50000       25.57347     2187.06191
897.00000       26.03494     2187.96038
897.50000       27.20967     2194.69892
898.00000       27.90322     2169.99093
898.50000       27.64068     2171.55427
899.00000       29.16039     2190.65580
899.50000       30.89605     2182.80315
