~Version ---------------------------------------------------
VERS. 2.0 : CWLS LOG ASCII STANDARD - VERSION 2.0
WRAP. NO  : One line per depth step
DLM . SPACE : Column Data Section Delimiter
~Well ------------------------------------------------------
STRT.F          780 : START DEPTH
STOP.F       1761.5 : STOP DEPTH
STEP.F          0.5 : STEP
NULL.       -999.25 : NULL VALUE
COMP.                 WALSH & WATTS, INC. : COMPANY
WELL.                         SALMON E 42 : WELL
FLD .                        NORTH NOCONA : FIELD
CNTY.                            MONTAGUE : COUNTY
STAT.                               TEXAS : STATE
CTRY.                                 USA : COUNTRY
SEC .                                     : SECTION
TWP .                                     : TOWNSHIP
RGE .                                     : RANGE
LOC . 150' FSL & 300' W OF WELL NO. 1, 407' E OF WELL NO. 5, F. ROBERTSON SURVEY : LOCATION
EKB .F                      880 : ELEVATION KELLY BUSHING
EDF .F                          : ELEVATION DERRICK FLOOR
EGL .F                      874 : ELEVATION GROUND LEVEL
PDAT.              GROUND LEVEL : PERMANENT DATUM
EPD .                       874 : ELEVATION PERMANENT DATUM
APD .                         6 : ABOVE PERMANENT DATUM
LMF .                        KB : LOG MEASURED FROM
DMF .                        KB : DRILLING MEASURED FROM
API .            42337037780000 : API NUMBER
UWI .            42337037780000 : UWI NUMBER
DIGC.                     NthDS : DIGITIZING COMPANY
~Params ----------------------------------------------------
SRVC.                LANE WELLS : LOGGING COMPANY
LOG .                        AC : LOG
DATE.                1965-11-21 : RUN DATE
RUN .                         1 : RUN NUMBER
TDD .F                     1766 : TOTAL DEPTH DRILLER
TDL .F                     1768 : TOTAL DEPTH LOGGER
BOTL.F                     1762 : BOTTOM LOGGED INTERVAL
TOPL.F                      790 : TOP LOGGED INTERVAL
CSGS.IN                         : CASING SIZE
CSGD.F                          : CASING DRILLER
CSGL.F                          : CASING LOGGER
BS  .IN                   7.875 : BIT SIZE
MUD .              CHEMICAL GEL : MUD TYPE
MUDD.                       9.8 : MUD DENSITY
MUDV.                       123 : MUD VISCOSITY
PH  .                           : MUD PH
FL  .                           : FLUID LOSS
MUDS.                CIRCULATED : SOURCE OF SAMPLE
RM  .OHMM                   2.1 : MUD RESISTIVITY
RMT .DEGF                    70 : RM TEMPERATURE
RMF .OHMM                  1.81 : MUD FILTRATE RESISTIVITY
RMFT.DEGF                    70 : RMF TEMPERATURE
RMC .OHMM                  2.34 : MUD CAKE RESISTIVITY
RMCT.DEGF                    70 : RMC TEMPERATURE
RMFS.                  MEASURED : RMF SOURCE
RMCS.                           : RMC SOURCE
RMBH.OHMM                   1.5 : MUD RESISTIVITY AT BHT
BHT .DEGF                    98 : BOTTOM HOLE TEMPERATURE
TIMC.                           : TIME CIRCULATION STOPPED
TIML.                           : TIME LOGGER ON BOTTOM
TMAX.DEGF                    98 : MAXIMUM RECORDED TEMPERATURE
UNIT.                    L-4553 : EQUIPMENT NUMBER
BASE.                      W.F. : BASE LOCATION
ENG .                     ADAMS : RECORDED BY
WIT .   MR. HARRELSON & MR. NIX : WITNESSED BY
~Curve Information -----------------------------------------
DEPT.F          :DEPTH
CALI.IN         :
DT.US/F         :
SP.MV           :
~ASCII ------------------------------------------------------
780.00000        8.15825        -999.25      -56.13838
780.50000        7.94795        -999.25      -57.22213
781.00000        7.78438        -999.25      -58.57680
781.50000        7.80633        -999.25      -57.93625
782.00000        7.82849        -999.25      -56.27036
782.50000        7.85496        -999.25      -54.60447
783.00000        7.90661        -999.25      -52.88215
783.50000        7.95807        -999.25      -50.91926
784.00000        8.00973        -999.25      -48.56497
784.50000        8.23262        -999.25      -45.61304
785.00000        8.36348        -999.25      -43.80756
785.50000        8.41177        -999.25      -42.97626
786.00000        8.44284        -999.25      -42.99441
786.50000        8.44871        -999.25      -43.69039
787.00000        8.45364        -999.25      -44.38571
787.50000        8.45045        -999.25      -45.13152
788.00000        8.43518        -999.25      -45.45030
788.50000        8.41670        -999.25      -46.41293
789.00000        8.40143        -999.25      -47.37555
789.50000        8.37587        -999.25      -47.18876
790.00000        8.27997        -999.25      -46.71091
790.50000        8.05244      122.55116      -45.84166
791.00000        8.17498      120.86314      -44.96878
791.50000        8.29753      117.92210      -44.98692
792.00000        8.44458      113.94557      -46.49373
792.50000        8.37070      114.42665      -47.99691
793.00000        8.29702      124.54997      -50.69175
793.50000        8.24924      128.36002      -52.78895
794.00000        8.38010      130.77706      -54.29213
794.50000        8.30681      130.48203      -54.31390
795.00000        8.23373      124.34934      -53.44103
795.50000        8.14575      116.35997      -51.67712
796.00000        8.07266      114.33434      -49.91322
796.50000        8.17580      115.10695      -48.14932
797.00000        8.32310      117.59862      -46.38905
797.50000        8.34481      120.79674      -45.81318
798.00000        8.33687      124.63793      -46.12833
798.50000        8.32913      129.88276      -47.33451
799.00000        8.31976      133.25302      -49.13832
799.50000        8.31201      134.74969      -50.64150
800.00000        8.30570      134.28018      -52.08336
800.50000        8.38214      123.71787      -53.27383
801.00000        8.53393      120.58666      -52.97621
801.50000        8.68552      116.67363      -52.08336
802.00000        8.83730      117.14084      -50.89288
802.50000        8.45694      120.35545      -50.29764
803.00000        8.59921      125.02613      -49.96431
803.50000        8.43809      129.60913      -49.87800
804.00000        8.43393      126.08170      -49.78871
804.50000        8.66528      123.05048      -49.70241
805.00000        8.89682      122.42536      -48.80955
805.50000        8.92540      114.56010      -47.91669
806.00000        8.59484      107.99899      -47.32145
806.50000        8.65079      108.50661      -46.72622
807.00000        8.78968      113.85255      -46.72622
807.50000        8.52639      120.58941      -46.72622
808.00000        8.44048      117.56912      -47.91669
808.50000        8.45536      115.15189      -49.40479
809.00000        8.32143      112.73436      -50.89288
809.50000        8.42778      109.60484      -51.48812
810.00000        8.53393      108.24290      -52.08336
810.50000        8.57044      101.68247      -53.27383
811.00000        8.32679       97.00085      -55.65478
811.50000        8.08333      101.08664      -58.63097
812.00000        8.38452      105.02943      -62.07443
812.50000        8.10496      111.38895      -64.28574
813.00000        7.82540      123.31009      -64.58335
813.50000        7.83194      114.49481      -62.50002
814.00000        7.83869      101.86631      -59.22621
814.50000        7.84524      108.11193      -57.14288
815.00000        8.20238      106.82844      -55.65478
815.50000        8.23948      100.52620      -55.65478
816.00000        8.10317       99.21788      -56.54764
816.50000        8.16667      101.23818      -57.44050
817.00000        7.92857      103.25848      -58.03574
817.50000        7.80556      103.82698      -57.73812
818.00000        7.86508      102.21678      -57.14288
818.50000        7.84028      100.60658      -56.25002
819.00000        7.81548      101.41906      -55.95240
819.50000        7.79067      106.67165      -55.65478
820.00000        7.76587      120.67746      -55.65478
820.50000        7.77778      137.02382      -55.65478
821.00000        7.99821      136.17696      -55.65478
821.50000        8.23155      121.68157      -55.95240
822.00000        8.46508      112.84643      -55.65478
822.50000        8.69841      113.61949      -55.35717
823.00000        8.65873      118.34052      -54.16669
823.50000        8.51706      121.33100      -53.57145
824.00000        8.34702      121.82303      -53.86907
824.50000        8.31091      117.97853      -53.27383
825.00000        8.43353      111.70310      -52.38098
825.50000        8.55595      105.38726      -51.48812
826.00000        8.67857      100.36205      -50.29764
826.50000        8.49147      106.82018      -49.70241
827.00000        8.33552      107.29603      -50.00002
827.50000        8.29504      102.76366      -51.19050
828.00000        8.42718       97.09894      -52.38098
828.50000        8.55952      101.29496      -54.76193
829.00000        8.31151      103.88396      -56.54764
829.50000        8.08571      101.96394      -59.52383
830.00000        8.19742      104.23050      -61.60716
830.50000        8.19960      102.51207      -63.09526
831.00000        8.12877       97.44019      -64.28574
831.50000        8.05774       99.60646      -63.98812
832.00000        7.98690      104.77365      -63.39288
832.50000        7.90198      115.02582      -61.01193
833.00000        7.84524      116.26828      -59.22621
833.50000        8.04365      109.25335      -58.33336
834.00000        8.29167       98.53146      -57.44050
834.50000        8.53968      109.97526      -57.14288
835.00000        8.34127      124.95423      -56.25002
835.50000        8.18690      116.23894      -53.86907
836.00000        8.40734      104.80208      -52.38098
836.50000        8.50794      112.65113      -50.89288
837.00000        8.42857      120.10228      -50.29764
837.50000        8.43690      119.11341      -50.29764
838.00000        8.57698      112.69430      -50.89288
838.50000        8.74504      104.67115      -51.78574
839.00000        8.81746       98.63335      -52.38098
839.50000        8.61905       95.09470      -53.27383
840.00000        8.42063      100.70945      -53.27383
840.50000        8.22222      103.35535      -53.27383
841.00000        8.12302      105.23464      -52.38098
841.50000        8.08333      110.92585      -50.59526
842.00000        8.16686      115.66902      -49.10717
842.50000        8.25040      109.93480      -49.10717
843.00000        8.33393      104.93838      -50.29764
843.50000        8.38095      102.89423      -52.08336
844.00000        8.28175      103.19561      -53.57145
844.50000        8.16270      102.04915      -55.65478
845.00000        8.10317      102.03574      -56.84526
845.50000        8.10317      103.28048      -56.54764
846.00000        8.10317      106.26302      -55.95240
846.50000        8.10317      106.44394      -55.65478
847.00000        8.10317      102.03272      -56.84526
847.50000        8.03770       99.71946      -60.71431
848.00000        7.92857      103.06644      -63.09526
848.50000        7.87500      108.69410      -63.69050
849.00000        7.85853      102.88837      -63.98812
849.50000        7.84186       98.24379      -65.17859
850.00000        7.82540       98.27208      -66.96431
850.50000        7.76772       99.35557      -66.83170
851.00000        7.72277      101.88331      -65.94061
851.50000        7.75584      102.60345      -63.26735
852.00000        7.78871      104.48478      -60.89111
852.50000        7.82178      110.08350      -59.10893
