~Version ---------------------------------------------------
VERS. 2.0 : CWLS LOG ASCII STANDARD - VERSION 2.0
WRAP. NO  : One line per depth step
DLM . SPACE : Column Data Section Delimiter
~Well ------------------------------------------------------
STRT.F          227 : START DEPTH
STOP.F       2033.0 : STOP DEPTH
STEP.F          0.5 : STEP
NULL.       -999.25 : NULL VALUE
COMP.                  WALSH & WATTS, INC : COMPANY
WELL.                          HYNDS A 10 : WELL
FLD .                           N. NOCONA : FIELD
CNTY.                            MONTAGUE : COUNTY
STAT.                               TEXAS : STATE
CTRY.                                 USA : COUNTRY
SEC .                                     : SECTION
TWP .                                     : TOWNSHIP
RGE .                                     : RANGE
LOC .  244' SE OF NO. 5A J.J. WALL SURVEY : LOCATION
EKB .F                    903.5 : ELEVATION KELLY BUSHING
EDF .F                          : ELEVATION DERRICK FLOOR
EGL .F                      897 : ELEVATION GROUND LEVEL
PDAT.                        GL : PERMANENT DATUM
EPD .                           : ELEVATION PERMANENT DATUM
APD .                         6 : ABOVE PERMANENT DATUM
LMF .                           : LOG MEASURED FROM
DMF .                           : DRILLING MEASURED FROM
API .            42337037830000 : API NUMBER
UWI .            42337037830000 : UWI NUMBER
DIGC.                     NthDS : DIGITIZING COMPANY
~Params ----------------------------------------------------
SRVC.              SCHLUMBERGER : LOGGING COMPANY
LOG .                       IEL : LOG
DATE.                1957-10-20 : RUN DATE
RUN .                         1 : RUN NUMBER
TDD .F                          : TOTAL DEPTH DRILLER
TDL .F                          : TOTAL DEPTH LOGGER
BOTL.F                     2039 : BOTTOM LOGGED INTERVAL
TOPL.F                          : TOP LOGGED INTERVAL
CSGS.IN                         : CASING SIZE
CSGD.F                      227 : CASING DRILLER
CSGL.F                      227 : CASING LOGGER
BS  .IN                    8.75 : BIT SIZE
MUD .                       GEL : MUD TYPE
MUDD.                       9.9 : MUD DENSITY
MUDV.                        50 : MUD VISCOSITY
PH  .                           : MUD PH
FL  .                           : FLUID LOSS
MUDS.                           : SOURCE OF SAMPLE
RM  .OHMM                   2.3 : MUD RESISTIVITY
RMT .DEGF                    60 : RM TEMPERATURE
RMF .OHMM                   .76 : MUD FILTRATE RESISTIVITY
RMFT.DEGF                    96 : RMF TEMPERATURE
RMC .OHMM                   1.7 : MUD CAKE RESISTIVITY
RMCT.DEGF                    96 : RMC TEMPERATURE
RMFS.                           : RMF SOURCE
RMCS.                           : RMC SOURCE
RMBH.OHMM                   1.4 : MUD RESISTIVITY AT BHT
BHT .DEGF                    96 : BOTTOM HOLE TEMPERATURE
TIMC.                           : TIME CIRCULATION STOPPED
TIML.                           : TIME LOGGER ON BOTTOM
TMAX.DEGF                       : MAXIMUM RECORDED TEMPERATURE
UNIT.                       785 : EQUIPMENT NUMBER
BASE.                        WF : BASE LOCATION
ENG .                     JONES : RECORDED BY
WIT .               BALCH & NIX : WITNESSED BY
~Curve Information -----------------------------------------
DEPT.F          :DEPTH
CILD.MMHO       :
ILD.OHMM        :
ROP.FT/HR       :
SN.OHMM         :
SP.MV           :
~ASCII ------------------------------------------------------
# ...
1269.00000       85.06664       17.46869        9.96585       35.87935      -74.98364
1269.50000       80.82873       19.31022        9.96471       37.22440      -74.76853
1270.00000       76.59081       20.79660        9.96358       38.56946      -75.08176
1270.50000       72.34394       23.36326        9.96226       39.91451      -75.73801
1271.00000       67.26023       26.44399        9.96113       41.71001      -76.42869
1271.50000       62.48516       29.01426        9.95970       44.22497      -77.17009
1272.00000       57.71905       31.58092        9.95857       46.48894      -77.91330
1272.50000       53.77656       34.14759        9.95743       49.00516      -78.65651
1273.00000       53.15543       34.65661        9.95612       51.52137      -79.54220
1273.50000       53.34896       34.65032        9.95499       54.03759      -80.27998
1274.00000       53.82471       34.43863        9.95355       55.95561      -81.27319
1274.50000       54.00033       33.19506        9.95242       56.97995      -82.26639
1275.00000       54.02377       33.54912        9.95129       56.71780      -82.26323
1275.50000       54.04721       33.90319        9.94997       54.98414      -82.25944
1276.00000       54.36608       32.77259        9.94884       52.94903      -82.06244
1276.50000       56.18469       31.63838        9.94771       50.91753      -81.73500
1277.00000       57.70318       30.50777        9.94628       48.88243      -81.40938
1277.50000       58.36224       29.84923        8.61725       46.85093      -80.45514
1278.00000       59.03025       29.20745        7.95688       45.13654      -79.12345
1278.50000       59.68931       28.67144        7.96173       43.08216      -78.01341
1279.00000       60.35733       28.26155        7.96657       41.36777      -76.73308
1279.50000       61.14641       27.93814        7.97142       40.07500      -75.20276
1280.00000       61.76071       27.61474        9.94733       39.41286      -73.67062
1280.50000       62.34815       27.35259        9.94765       39.17594      -71.77916
1281.00000       62.92663       27.34505        9.94796       40.63631      -70.44811
1281.50000       63.29026       27.33876        9.94828       42.38371      -70.44494
1282.00000       62.19934       29.13426        9.94866       43.87290      -70.98526
1282.50000       59.42066       30.92976        9.94897       45.48823      -71.46579
1283.00000       56.65094       32.72526        9.94929       46.88373      -71.09968
1283.50000       53.89913       34.52076        9.94961       47.38915      -69.88819
1284.00000       51.97989       35.23519        9.94992       46.20449      -68.07344
1284.50000       53.03286       34.25467        9.95030       44.59821      -65.71523
1285.00000       54.30537       32.62677        9.95062       40.75285      -62.02848
1285.50000       57.13987       30.35023        6.97994       37.55018      -58.09962
1286.00000       60.42199       27.64125        6.98025       34.34391      -54.06569
1286.50000       64.72469       24.75210        6.98057       31.14125      -49.87234
1287.00000       69.72568       21.14223        6.98089       27.93498      -44.84140
1287.50000       80.48776       17.26065        7.47939       19.55505      -41.23862
1288.00000       90.25144       15.10760        7.98169       17.75263      -38.51809
1288.50000      100.02407       12.33930        7.98787       15.46793      -35.58016
1289.00000      112.35710       10.66661        7.99290       13.36028      -31.66335
1289.50000      129.21579        9.15248        7.32075       11.25300      -28.23086
1290.00000      143.26768        7.85803        5.97162        9.51568      -24.68787
1290.50000      160.61406        6.86642        5.97719        8.19975      -21.20103
1291.00000      178.79303        5.91985        5.98276        7.22327      -17.12117
1291.50000      200.60241        5.14337        5.83036        6.24643      -15.30643
1292.00000      221.02843        4.51812        5.52042        5.49036      -13.49168
1292.50000      244.80266        4.07100        5.52526        5.03316      -12.40157
1293.00000      271.55847        3.69668        5.53011        4.57596      -11.46119
1293.50000      281.02203        3.53822        5.53495        4.31587      -11.30767
1294.00000      292.84477        3.39056        6.98550        4.10515      -11.48566
1294.50000      301.61472        3.22152        6.98582        3.93732      -11.66366
1295.00000      308.58098        3.23423        6.98614        3.83062      -12.56629
1295.50000      309.72347        3.24693        6.98645        3.81485      -13.55225
1296.00000      309.16500        3.25963        6.98677        3.79909      -14.88722
1296.50000      307.46062        3.27234        6.98715        3.80747      -15.99818
1297.00000      305.76519        3.28504        6.98746        3.82198      -16.78668
1297.50000      303.49254        3.28982        7.24140        3.77486      -17.56250
1298.00000      303.64132        3.28906        7.49534        3.60798      -18.25317
1298.50000      306.13562        3.26790        7.49566        3.46861      -18.70291
1299.00000      312.32728        3.20204        7.49603        3.40781      -20.65562
1299.50000      322.29687        3.07637        7.49635        3.35312      -23.33360
1300.00000      333.63230        3.01584        6.53647        3.38737      -25.48686
1300.50000      339.61330        2.93016        6.47273        3.26674      -26.18183
1301.00000      350.32198        2.85458        6.47273        3.14575      -26.80547
1301.50000      358.18652        2.80157        6.47273        3.07653      -28.10365
1302.00000      362.69394        2.78905        6.47273        3.05392      -28.46729
1302.50000      365.85851        2.77617        3.92727        3.03671      -28.54547
1303.00000      368.12784        2.76545        3.92727        3.00041      -29.03092
1303.50000      369.62727        2.75581        3.92727        2.88735      -30.93456
1304.00000      370.61642        2.74618        3.92727        2.89573      -32.40002
1304.50000      371.61452        2.73654        3.92727        2.98519      -32.63638
1305.00000      372.62783        2.73231        3.92727        2.94852      -32.66729
1305.50000      373.44688        2.73155        3.92727        2.88290      -32.68911
1306.00000      374.27489        2.73092        3.92727        2.83615      -31.58365
1306.50000      375.06709        2.71840        3.92727        2.82182      -30.48002
1307.00000      375.84138        2.70264        3.92727        2.80714      -29.30911
1307.50000      376.78577        2.68687        3.92727        2.80795      -28.54547
1308.00000      378.38368        2.67147        4.94545        2.81850      -29.77274
1308.50000      379.98159        2.65571        4.94545        2.82904      -30.76365
1309.00000      381.57949        2.64607        4.94545        2.83237      -30.18183
1309.50000      383.16575        2.63450        4.94545        2.82333      -30.18183
1310.00000      383.94899        2.62486        4.94545        2.81585      -29.74547
1310.50000      384.72329        2.61955        4.94545        2.80838      -27.49093
1311.00000      383.76083        2.63117        4.94545        2.80090      -24.58184
1311.50000      382.79837        2.64316        4.94545        2.79595      -23.89093
1312.00000      381.83591        2.65478        4.94545        2.79532      -24.56184
1312.50000      380.56907        2.66676        4.94545        2.79469      -25.96729
1313.00000      378.84567        2.67839        4.94545        2.79406      -26.65456
1313.50000      377.12226        2.68893        4.94545        2.79343      -25.83820
1314.00000      375.40780        2.69827        3.92727        2.79268      -25.43456
1314.50000      373.34151        2.70629        3.92818        2.79205      -24.59093
1315.00000      371.34058        2.71430        3.92909        2.79142      -22.18184
1315.50000      369.33069        2.72845        3.93000        2.79079      -20.00002
