~Version ---------------------------------------------------
VERS. 2.0 : CWLS LOG ASCII STANDARD - VERSION 2.0
WRAP. NO  : One line per depth step
DLM . SPACE : Column Data Section Delimiter
~Well ------------------------------------------------------
STRT.F          227 : START DEPTH
STOP.F       2033.0 : STOP DEPTH
STEP.F          0.5 : STEP
NULL.       -999.25 : NULL VALUE
COMP.                  WALSH & WATTS, INC : COMPANY
WELL.                          HYNDS A 10 : WELL
FLD .                           N. NOCONA : FIELD
CNTY.                            MONTAGUE : COUNTY
STAT.                               TEXAS : STATE
CTRY.                                 USA : COUNTRY
SEC .                                     : SECTION
TWP .                                     : TOWNSHIP
RGE .                                     : RANGE
LOC .  244' SE OF NO. 5A J.J. WALL SURVEY : LOCATION
EKB .F                    903.5 : ELEVATION KELLY BUSHING
EDF .F                          : ELEVATION DERRICK FLOOR
EGL .F                      897 : ELEVATION GROUND LEVEL
PDAT.                        GL : PERMANENT DATUM
EPD .                           : ELEVATION PERMANENT DATUM
APD .                         6 : ABOVE PERMANENT DATUM
LMF .                           : LOG MEASURED FROM
DMF .                           : DRILLING MEASURED FROM
API .            42337037830000 : API NUMBER
UWI .            42337037830000 : UWI NUMBER
DIGC.                     NthDS : DIGITIZING COMPANY
~Params ----------------------------------------------------
SRVC.              SCHLUMBERGER : LOGGING COMPANY
LOG .                       IEL : LOG
DATE.                1957-10-20 : RUN DATE
RUN .                         1 : RUN NUMBER
TDD .F                          : TOTAL DEPTH DRILLER
TDL .F                          : TOTAL DEPTH LOGGER
BOTL.F                     2039 : BOTTOM LOGGED INTERVAL
TOPL.F                          : TOP LOGGED INTERVAL
CSGS.IN                         : CASING SIZE
CSGD.F                      227 : CASING DRILLER
CSGL.F                      227 : CASING LOGGER
BS  .IN                    8.75 : BIT SIZE
MUD .                       GEL : MUD TYPE
MUDD.                       9.9 : MUD DENSITY
MUDV.                        50 : MUD VISCOSITY
PH  .                           : MUD PH
FL  .                           : FLUID LOSS
MUDS.                           : SOURCE OF SAMPLE
RM  .OHMM                   2.3 : MUD RESISTIVITY
RMT .DEGF                    60 : RM TEMPERATURE
RMF .OHMM                   .76 : MUD FILTRATE RESISTIVITY
RMFT.DEGF                    96 : RMF TEMPERATURE
RMC .OHMM                   1.7 : MUD CAKE RESISTIVITY
RMCT.DEGF                    96 : RMC TEMPERATURE
RMFS.                           : RMF SOURCE
RMCS.                           : RMC SOURCE
RMBH.OHMM                   1.4 : MUD RESISTIVITY AT BHT
BHT .DEGF                    96 : BOTTOM HOLE TEMPERATURE
TIMC.                           : TIME CIRCULATION STOPPED
TIML.                           : TIME LOGGER ON BOTTOM
TMAX.DEGF                       : MAXIMUM RECORDED TEMPERATURE
UNIT.                       785 : EQUIPMENT NUMBER
BASE.                        WF : BASE LOCATION
ENG .                     JONES : RECORDED BY
WIT .               BALCH & NIX : WITNESSED BY
~Curve Information -----------------------------------------
DEPT.F          :DEPTH
CILD.MMHO       :
ILD.OHMM        :
ROP.FT/HR       :
SN.OHMM         :
SP.MV           :
~ASCII ------------------------------------------------------
# ...
1410.00000      166.39625        8.02315        4.02609       29.12196      -50.05255
1410.50000      144.69040        8.91297        4.02717       32.35169      -55.61595
1411.00000      131.82037        9.24711        4.02826       34.84268      -59.73370
1411.50000      126.52392        9.04360        4.02935       37.33007      -63.84965
1412.00000      128.05800        8.86532        4.03043       37.32252      -65.83334
1412.50000      131.46195        8.72487        4.03152       36.59551      -67.28262
1413.00000      133.21984        8.63703        4.03279       35.38923      -68.11595
1413.50000      134.25260        8.64578        4.03388       34.02079      -68.65943
1414.00000      133.41434        8.89740        4.03496       32.01812      -67.81885
1414.50000      132.11057        9.26421        4.03623       30.01544      -66.97646
1415.00000      128.55980        9.67799        4.03732       28.01277      -65.92211
1415.50000      124.43608       10.03916        4.03840       26.01010      -64.00907
1416.00000      120.32132       10.32177        4.03949       24.00742      -61.77537
1416.50000      118.04062        9.92475        4.54601       21.60349      -59.05798
1417.00000      120.55945        9.44845        4.53967       20.01427      -56.61233
1417.50000      125.81765        8.59737        4.53424       17.46555      -54.71016
1418.00000      138.94484        7.58774        4.02174       14.42734      -51.99276
1418.50000      152.06308        6.56285        4.02174       11.90420      -49.03443
1419.00000      172.23452        5.78673        4.02174        8.90756      -45.10871
1419.50000      194.28707        5.01061        4.02174        6.37385      -36.95654
1420.00000      228.17329        4.23449        4.02174        5.35160      -29.43842
1420.50000      259.13329        3.54450        4.02174        4.67026      -24.45654
1421.00000      294.16654        3.20009        4.02174        4.10531      -23.91306
1421.50000      330.64891        2.83861        4.02174        3.76810      -23.82248
1422.00000      351.78833        2.75474        4.02174        3.62321      -22.64494
1422.50000      365.93493        2.67087        4.02174        3.50258      -22.52357
1423.00000      372.58968        2.64466        4.02174        3.41943      -22.78987
1423.50000      374.98317        2.65628        4.02174        3.39321      -23.82248
1424.00000      373.97482        2.66826        4.02174        3.36700      -25.26270
1424.50000      372.96648        2.67989        4.02174        3.35051      -26.82791
1425.00000      371.96708        2.69187        4.02174        3.34088      -28.10147
1425.50000      370.95874        2.70349        4.02174        3.33124      -28.23733
1426.00000      369.75230        2.70539        4.02174        3.32160      -28.01994
1426.50000      368.96776        2.70463        4.02174        3.31737      -27.28625
1427.00000      368.50550        2.70400        4.02174        3.30076      -26.26813
1427.50000      369.24284        2.70337        4.02174        3.25977      -25.26089
1428.00000      370.77692        2.70275        4.02174        3.27932      -24.45654
1428.50000      372.30205        2.70212        4.54185        3.33887      -24.45654
1429.00000      373.45900        2.70149        4.53768        3.32851      -25.02357
1429.50000      372.28951        2.70086        4.53243        3.30086      -26.99277
1430.00000      368.35379        2.72185        5.03605        3.27320      -29.71016
1430.50000      364.40912        2.74825        5.03551        3.24554      -30.79712
1431.00000      360.47340        2.77465        5.03496        3.23158      -30.52538
1431.50000      358.22070        2.80632        5.03442        3.22086      -29.84603
1432.00000      359.75478        2.81074        5.03388        3.20822      -29.16668
1432.50000      360.51002        2.81480        5.03333        3.21407      -28.41125
1433.00000      360.10147        2.81921        5.03279        3.24552      -27.82610
1433.50000      358.36686        2.82327        5.03206        3.27660      -28.23552
1434.00000      355.89035        2.82768        5.03152        3.30768      -27.82067
1434.50000      353.41384        2.83174        5.03098        3.28687      -26.78625
1435.00000      351.34018        2.83616        5.03043        3.26642      -25.75002
1435.50000      349.89318        2.84165        5.02989        3.24561      -24.81886
1436.00000      349.33244        2.84787        5.02935        3.22192      -23.91306
1436.50000      349.37150        2.85540        5.02880        3.19355      -23.21016
1437.00000      349.15876        2.86162        5.02826        3.15964      -23.32429
1437.50000      348.88450        2.86784        5.02772        3.16802      -23.48552
1438.00000      348.60128        2.87910        5.02699        3.17640      -23.71922
1438.50000      347.29751        2.89361        5.02645        3.18478      -23.91306
1439.00000      345.99374        2.90776        5.02590        3.19316      -23.55074
1439.50000      344.68997        2.92226        5.02536        3.20442      -21.88951
1440.00000      343.38620        2.93677        5.02482        3.21604      -21.19567
1440.50000      341.93025        2.95019        5.02427        3.22731      -21.71379
1441.00000      340.18668        2.96326        5.02373        3.26524      -22.32792
1441.50000      338.73968        2.97908        5.02319        3.30317      -23.00726
1442.00000      337.17629        2.99250        5.02246        3.32043      -23.68661
1442.50000      335.53234        3.00557        5.02192        3.28701      -24.02538
1443.00000      335.57140        3.00602        5.02138        3.24818      -23.55074
1443.50000      336.01331        3.00323        5.02083        3.18737      -21.99821
1444.00000      338.09348        3.00044        5.02029        3.16332      -20.69748
1444.50000      340.06508        2.99765        5.01975        3.19476      -20.59241
1445.00000      339.57596        2.99486        5.01920        3.22585      -21.07067
1445.50000      339.09580        2.99206        5.01866        3.25693      -21.76632
1446.00000      338.60668        2.98927        4.03985        3.19612      -22.37321
1446.50000      338.14442        2.98564        4.04221        3.18000      -21.92031
1447.00000      337.68216        2.98285        4.04438        3.17347      -21.73915
1447.50000      339.09986        2.98005        4.04674        3.16852      -21.73915
1448.00000      340.51756        2.97726        4.04909        3.16321      -22.41850
1448.50000      342.17583        2.97447        4.05127        3.15789      -22.82610
1449.00000      343.53087        2.97168        4.05362        3.15258      -22.82610
1449.50000      344.88591        2.96889        4.05598        3.14727      -23.32973
1450.00000      343.07034        2.99422        4.05815        3.16899      -23.73190
1450.50000      342.73401        2.99106        4.03892        3.15791      -24.14416
1451.00000      342.39768        2.98431        4.04126        3.14647      -22.70272
1451.50000      342.07029        2.97274        4.04360        3.13310      -21.26128
1452.00000      341.73396        2.96311        4.04576        3.17247      -21.86128
1452.50000      341.80870        2.95347        4.04811        3.19058      -22.16218
1453.00000      342.48216        2.94383        4.05045        3.12221      -21.56218
1453.50000      343.29747        2.93419        4.05261        3.09455      -21.03605
1454.00000      343.97093        2.92455        5.04468        3.09392      -20.81083
1454.50000      344.39418        2.91492        5.04234        3.09329      -21.44146
1455.00000      344.43318        2.91897        5.04036        3.09266      -22.34236
1455.50000      344.47217        2.92663        5.03856        3.10861      -22.39101
1456.00000      344.06435        2.93561        5.03658        3.13272      -22.22704
1456.50000      342.98632        2.94327        5.03459        3.15299      -22.56758
