~Version ---------------------------------------------------
VERS. 2.0 : CWLS LOG ASCII STANDARD - VERSION 2.0
WRAP. NO  : One line per depth step
DLM . SPACE : Column Data Section Delimiter
~Well ------------------------------------------------------
STRT.F          642 : START DEPTH
STOP.F       1779.0 : STOP DEPTH
STEP.F          0.5 : STEP
NULL.       -999.25 : NULL VALUE
COMP.                       WALSH & WATTS : COMPANY
WELL.                        SALMON E 24  : WELL
FLD .                               NORTH : FIELD
CNTY.                            MONTAGUE : COUNTY
STAT.                               TEXAS : STATE
CTRY.                                 USA : COUNTRY
SEC .                                     : SECTION
TWP .                                     : TOWNSHIP
RGE .                                     : RANGE
LOC .                 SW CORNER OF LEAGUE : LOCATION
EKB .F                          : ELEVATION KELLY BUSHING
EDF .F                          : ELEVATION DERRICK FLOOR
EGL .F                      850 : ELEVATION GROUND LEVEL
PDAT.                        GL : PERMANENT DATUM
EPD .                       850 : ELEVATION PERMANENT DATUM
APD .                         5 : ABOVE PERMANENT DATUM
LMF .                        RT : LOG MEASURED FROM
DMF .                        RT : DRILLING MEASURED FROM
API .            42337038630000 : API NUMBER
UWI .                           : UWI NUMBER
DIGC.                     NthDS : DIGITIZING COMPANY
~Params ----------------------------------------------------
SRVC.              SCHLUMBERGER : LOGGING COMPANY
LOG .                       GRN : LOG
DATE.                1964-03-24 : RUN DATE
RUN .                         1 : RUN NUMBER
TDD .F                     1783 : TOTAL DEPTH DRILLER
TDL .F                     1782 : TOTAL DEPTH LOGGER
BOTL.F                     1780 : BOTTOM LOGGED INTERVAL
TOPL.F                      650 : TOP LOGGED INTERVAL
CSGS.IN                     4.5 : CASING SIZE
CSGD.F                     1802 : CASING DRILLER
CSGL.F                          : CASING LOGGER
BS  .IN                       9 : BIT SIZE
MUD .                     WATER : MUD TYPE
MUDD.                           : MUD DENSITY
MUDV.                           : MUD VISCOSITY
PH  .                           : MUD PH
FL  .                           : FLUID LOSS
MUDS.                           : SOURCE OF SAMPLE
RM  .OHMM                       : MUD RESISTIVITY
RMT .DEGF                       : RM TEMPERATURE
RMF .OHMM                       : MUD FILTRATE RESISTIVITY
RMFT.DEGF                       : RMF TEMPERATURE
RMC .OHMM                       : MUD CAKE RESISTIVITY
RMCT.DEGF                       : RMC TEMPERATURE
RMFS.                           : RMF SOURCE
RMCS.                           : RMC SOURCE
RMBH.OHMM                       : MUD RESISTIVITY AT BHT
BHT .DEGF                       : BOTTOM HOLE TEMPERATURE
TIMC.                           : TIME CIRCULATION STOPPED
TIML.                           : TIME LOGGER ON BOTTOM
TMAX.DEGF                   107 : MAXIMUM RECORDED TEMPERATURE
UNIT.                           : EQUIPMENT NUMBER
BASE.                           : BASE LOCATION
ENG .                    MCCUNE : RECORDED BY
WIT .                       NIX : WITNESSED BY
~Curve Information -----------------------------------------
DEPT.F          :DEPTH
GRN.GAPI        :
NEUT.API        :
~ASCII ------------------------------------------------------
# ...
942.00000       44.77417      530.50146
942.50000       43.49441      518.50745
943.00000       44.13905      505.18078
943.50000       45.74505      490.52144
944.00000       48.47328      469.19877
944.50000       53.12534      447.87609
945.00000       56.81549      429.21875
945.50000       59.38341      411.89408
946.00000       61.14972      393.23674
946.50000       63.71763      377.24473
947.00000       66.12522      367.91606
947.50000       68.21218      366.58340
948.00000       70.78065      375.91207
948.50000       73.18824      383.90807
949.00000       73.99264      385.24074
949.50000       73.67480      382.57540
950.00000       73.23523      371.91406
950.50000       72.27611      354.58939
951.00000       69.23283      347.92606
951.50000       65.54828      350.59139
952.00000       63.78756      353.25672
952.50000       64.11100      361.25273
953.00000       65.23603      375.91207
953.50000       65.88011      393.23674
954.00000       65.72259      409.22875
954.50000       65.24443      425.22075
955.00000       65.72818      442.54542
955.50000       66.85322      467.86610
956.00000       67.65762      494.51944
956.50000       68.14137      526.50346
957.00000       67.02193      547.82613
957.50000       64.78026      559.82014
958.00000       61.25602      562.48547
958.50000       57.57147      553.15680
959.00000       53.88692      546.49346
959.50000       48.43885      553.15680
960.00000       41.86854      557.15480
960.50000       37.38239      563.81814
961.00000       36.10263      565.15080
961.50000       36.26575      571.81414
962.00000       36.58919      574.47947
962.50000       37.07294      575.81214
963.00000       37.23606      579.81014
963.50000       36.43726      575.81214
964.00000       35.95910      566.48347
964.50000       35.96190      555.82213
965.00000       35.64406      543.82813
965.50000       35.48654      538.49746
966.00000       36.13117      538.49746
966.50000       36.45461      537.16479
967.00000       35.65581      538.49746
967.50000       34.05541      535.83213
968.00000       33.25661      530.50146
968.50000       33.74037      533.16679
969.00000       34.54476      535.83213
969.50000       34.38724      527.83612
970.00000       33.10748      526.50346
970.50000       32.78964      523.83812
971.00000       33.11308      518.50745
971.50000       33.59684      514.50945
972.00000       35.04251      503.84811
972.50000       37.61042      491.85411
973.00000       41.14025      479.86011
973.50000       44.50976      469.19877
974.00000       45.95600      461.20277
974.50000       46.92071      451.87409
975.00000       49.16799      446.54343
975.50000       52.37718      443.87809
976.00000       56.06733      439.88009
976.50000       60.23844      433.21675
977.00000       64.89050      423.88808
977.50000       68.90129      415.89208
978.00000       70.98824      409.22875
978.50000       70.35032      399.90008
979.00000       69.07057      395.90207
979.50000       68.75272      393.23674
980.00000       68.75552      378.57740
980.50000       69.07896      366.58340
981.00000       69.24208      359.92006
981.50000       69.08456      353.25672
982.00000       68.44608      350.59139
982.50000       67.80759      349.25872
983.00000       66.52784      346.59339
983.50000       64.60680      338.59739
984.00000       63.32704      335.93205
984.50000       62.52824      337.26472
985.00000       62.05008      338.59739
985.50000       63.17511      345.26072
986.00000       64.13983      354.58939
986.50000       64.30295      365.25073
987.00000       63.34383      373.24673
987.50000       61.90375      370.58140
988.00000       60.62399      369.24873
988.50000       60.78711      378.57740
989.00000       61.75182      389.23874
989.50000       62.23558      399.90008
990.00000       63.36118      415.89208
990.50000       64.80685      426.55342
991.00000       64.64933      426.55342
991.50000       64.33149      421.22275
992.00000       65.29620      419.89008
992.50000       66.74188      423.88808
993.00000       68.34787      426.55342
993.50000       69.47291      426.55342
994.00000       69.47571      427.88609
994.50000       68.19595      426.55342
995.00000       67.23683      423.88808
995.50000       65.95707      425.22075
996.00000       62.91380      427.88609
996.50000       59.22924      421.22275
997.00000       56.82725      417.22475
997.50000       56.18877      419.89008
998.00000       58.27572      425.22075
998.50000       61.32459      435.88209
999.00000       64.05282      449.20876
999.50000       64.21594      459.87010
1000.00000       61.21069      466.53343
1000.50000       60.25213      479.86011
1001.00000       59.29301      490.52144
1001.50000       60.41805      497.18478
1002.00000       63.78756      513.17678
1002.50000       65.55387      506.51345
1003.00000       64.11380      505.18078
1003.50000       61.71180      487.85611
1004.00000       59.95108      473.19677
1004.50000       59.15228      459.87010
1005.00000       59.95668      447.87609
1005.50000       60.76107      431.88409
1006.00000       59.96227      423.88808
1006.50000       59.32379      415.89208
1007.00000       58.84563      410.56141
1007.50000       57.56587      413.22675
1008.00000       59.17187      419.89008
1008.50000       62.22074      439.88009
1009.00000       64.30769      462.53543
1009.50000       63.82953      481.19277
1010.00000       61.74817      491.85411
1010.50000       59.50706      502.95523
1011.00000       57.90666      501.51595
1011.50000       56.62690      506.24692
1012.00000       55.82810      487.85611
1012.50000       55.83090      475.86210
1013.00000       57.27657      462.53543
1013.50000       59.36353      443.87809
1014.00000       61.12984      423.88808
1014.50000       63.05647      407.89608
1015.00000       65.78471      398.56741
1015.50000       69.63518      405.23074
1016.00000       72.36341      402.20559
1016.50000       74.29004      399.16711
1017.00000       74.77380      401.41932
1017.50000       74.77716      400.84627
1018.00000       74.13867      397.99436
1018.50000       73.33987      395.14245
1019.00000       72.86171      390.30487
1019.50000       72.54387      397.90107
1020.00000       71.90539      406.56341
1020.50000       70.94627      418.55742
1021.00000       70.62843      426.55342
1021.50000       72.23443      429.21875
1022.00000       71.91659      426.55342
1022.50000       68.87331      423.88808
1023.00000       64.70780      426.55342
1023.50000       61.34388      425.22075
1024.00000       61.50700      429.21875
1024.50000       64.23523      435.88209
1025.00000       67.12379      438.54742
1025.50000       67.60754      443.87809
1026.00000       66.32778      442.54542
1026.50000       64.88770      446.54343
1027.00000       63.92859      443.87809
1027.50000       62.80915      437.21476
1028.00000       62.01035      438.54742
1028.50000       62.97506      446.54343
1029.00000       65.06201      449.20876
1029.50000       65.86697      455.87210
1030.00000       64.10625      463.86810
1030.50000       61.86458      471.86410
1031.00000       61.06578      475.86210
1031.50000       61.54953      469.19877
1032.00000       62.51425      455.87210
1032.50000       65.08216      441.21276
1033.00000       67.16911      426.55342
1033.50000       67.17191      429.21875
1034.00000       66.85407      441.21276
1034.50000       68.46007      451.87409
1035.00000       68.78350      457.20476
1035.50000       67.34342      478.52744
1036.00000       64.30015      497.18478
1036.50000       58.53144      513.17678
1037.00000       52.60241      530.50146
1037.50000       47.95594      550.49147
1038.00000       43.63011      561.15280
1038.50000       42.51067      570.48147
1039.00000       43.79603      573.14681
1039.50000       44.92106      563.81814
1040.00000       45.24450      547.82613
1040.50000       46.36954      535.83213
