~Version ---------------------------------------------------
VERS. 2.0 : CWLS LOG ASCII STANDARD - VERSION 2.0
WRAP. NO  : One line per depth step
DLM . SPACE : Column Data Section Delimiter
~Well ------------------------------------------------------
STRT.F        986.5 : START DEPTH
STOP.F       1761.0 : STOP DEPTH
STEP.F          0.5 : STEP
NULL.       -999.25 : NULL VALUE
COMP.                 WALSH & WATTS, INC. : COMPANY
WELL.                       SALMON D E 6D : WELL
FLD .                             REGULAR : FIELD
CNTY.                            MONTAGUE : COUNTY
STAT.                               TEXAS : STATE
CTRY.                                 USA : COUNTRY
SEC .                                     : SECTION
TWP .                                     : TOWNSHIP
RGE .                                     : RANGE
LOC .  460 FSL 755 FEL
F. ROBERTSON A-620 : LOCATION
EKB .F                      880 : ELEVATION KELLY BUSHING
EDF .F                      878 : ELEVATION DERRICK FLOOR
EGL .F                      874 : ELEVATION GROUND LEVEL
PDAT.                        GL : PERMANENT DATUM
EPD .                       874 : ELEVATION PERMANENT DATUM
APD .                           : ABOVE PERMANENT DATUM
LMF .                        KB : LOG MEASURED FROM
DMF .                        KB : DRILLING MEASURED FROM
API .            42337016430000 : API NUMBER
UWI .            42337016430000 : UWI NUMBER
DIGC.                     NthDS : DIGITIZING COMPANY
~Params ----------------------------------------------------
SRVC.              SCHLUMBERGER : LOGGING COMPANY
LOG .                      DIFL : LOG
DATE.                2005-08-03 : RUN DATE
RUN .                         1 : RUN NUMBER
TDD .F                     1750 : TOTAL DEPTH DRILLER
TDL .F                     1750 : TOTAL DEPTH LOGGER
BOTL.F                     1750 : BOTTOM LOGGED INTERVAL
TOPL.F                      980 : TOP LOGGED INTERVAL
CSGS.IN                       7 : CASING SIZE
CSGD.F                      980 : CASING DRILLER
CSGL.F                      980 : CASING LOGGER
BS  .IN                     6.5 : BIT SIZE
MUD .                       FGM : MUD TYPE
MUDD.                       0.2 : MUD DENSITY
MUDV.                        80 : MUD VISCOSITY
PH  .                        11 : MUD PH
FL  .                         7 : FLUID LOSS
MUDS.                       PIT : SOURCE OF SAMPLE
RM  .OHMM                  1.70 : MUD RESISTIVITY
RMT .DEGF                    70 : RM TEMPERATURE
RMF .OHMM                  1.33 : MUD FILTRATE RESISTIVITY
RMFT.DEGF                    70 : RMF TEMPERATURE
RMC .OHMM                  2.67 : MUD CAKE RESISTIVITY
RMCT.DEGF                    70 : RMC TEMPERATURE
RMFS.                      MEAS : RMF SOURCE
RMCS.                       CAL : RMC SOURCE
RMBH.OHMM                  1.41 : MUD RESISTIVITY AT BHT
BHT .DEGF                    98 : BOTTOM HOLE TEMPERATURE
TIMC.                     2100  : TIME CIRCULATION STOPPED
TIML.                     0300  : TIME LOGGER ON BOTTOM
TMAX.DEGF                    98 : MAXIMUM RECORDED TEMPERATURE
UNIT.                       303 : EQUIPMENT NUMBER
BASE.                  WITCHATA : BASE LOCATION
ENG .              DAVID PARKER : RECORDED BY
WIT .              MR. BURLESON : WITNESSED BY
~Curve Information -----------------------------------------
DEPT.F          :DEPTH
GRR.API         :
ILD.OHMM        :
ILM.OHMM        :
SFL.OHMM        :
SP.MV           :
~ASCII ------------------------------------------------------
# ...
1127.50000       76.49998        3.75375        4.34791        6.64440     -109.46002
1128.00000       70.01398        3.82762        4.21674        6.77829     -113.28802
1128.50000       61.19998        4.02165        4.14435        6.91488     -117.11202
1129.00000       55.44899        4.22591        4.29684        7.36893     -120.94002
1129.50000       50.39999        4.56503        4.52510        8.06923     -124.24002
1130.00000       46.19999        5.02342        4.87921        8.91845     -125.70002
1130.50000       41.99999        5.52835        5.22804        9.69401     -127.46802
1131.00000       38.69999        5.93895        5.59404       10.45453     -128.13202
1131.50000       38.14799        6.34906        6.06667       11.14307     -128.80002
1132.00000       37.59599        6.71237        6.49079       11.49765     -129.66802
1132.50000       37.04099        6.77143        6.90932       11.76845     -128.00002
1133.00000       36.92699        6.75189        7.20673       11.86104     -128.33202
1133.50000       38.89199        6.73240        7.51764       11.69088     -126.80002
1134.00000       40.46399        6.66165        7.42763       11.55839     -126.80002
1134.50000       41.77499        6.57946        7.33938       11.42740     -124.80002
1135.00000       42.56999        6.40343        7.25151       11.29789     -122.80002
1135.50000       43.01999        6.24077        7.16138       11.16986     -121.05602
1136.00000       44.24999        6.19577        7.05734       11.04327     -119.48402
1136.50000       46.29899        6.19677        6.95481       10.91811     -117.91602
1137.00000       48.56099        6.19777        6.85378       11.00503     -114.80002
1137.50000       49.87499        6.19877        6.75421       11.17536     -113.46802
1138.00000       51.18599        6.33129        6.68260       11.31862     -111.37202
1138.50000       52.49999        6.46723        6.71838       11.46372     -109.08402
1139.00000       54.12599        6.44738        6.76082       11.26067     -106.80002
1139.50000       55.74899        5.92873        6.79702       10.83646     -102.80002
1140.00000       58.76099        5.50125        6.52767       10.32842      -98.80002
1140.50000       62.69998        5.25353        6.19752        9.47270      -95.05603
1141.00000       70.70098        4.91502        5.88461        8.68707      -91.48403
1141.50000       80.35798        4.57839        5.46284        7.96734      -87.91603
1142.00000       90.69898        4.19247        4.99544        7.26479      -84.80003
1142.50000      100.49998        3.83872        4.56802        6.62419      -82.80003
1143.00000      104.57097        3.51482        4.16676        6.04008      -81.46803
1143.50000      107.74197        3.21855        3.78566        5.55863      -81.20003
1144.00000      112.45797        3.03465        3.43974        5.30833      -81.50003
1144.50000      118.79997        2.88223        3.25221        5.06930      -82.00003
1145.00000      119.09997        2.73747        3.10576        4.84103      -82.50003
1145.50000      117.59997        2.66966        2.98241        4.65177      -83.00003
1146.00000      116.60097        2.70813        2.87457        4.48814      -83.50003
1146.50000      115.59897        2.74742        2.88116        4.69347      -83.28003
1147.00000      113.91297        2.89953        2.96433        5.00813      -82.88003
1147.50000      111.54897        3.11057        3.04962        5.42004      -83.01203
1148.00000      108.29997        3.42449        3.13765        5.98492      -83.28003
1148.50000      105.05097        3.77045        3.39226        6.49997      -83.54803
1149.00000       98.15998        4.11670        3.66754        7.05935      -83.86803
1149.50000       91.07998        4.37932        4.02774        7.55705      -84.20003
1150.00000       84.09898        4.45534        4.24578        7.78770      -84.29203
1150.50000       76.80359        4.60732        4.48873        8.15755      -83.73951
1151.00000       78.65830        4.72807        4.74559        8.54496      -83.47498
1151.50000       83.86771        4.86185        4.84166        8.03290      -82.80564
1152.00000       96.45088        3.99513        4.68216        7.34968      -81.87177
1152.50000      111.02101        3.68520        4.44083        6.72456      -80.93390
1153.00000      115.88173        3.41949        3.89607        6.15261      -80.22849
1153.50000      117.94987        3.24864        3.70039        5.62931      -79.67137
1154.00000      118.51199        3.10724        3.51454        5.30668      -79.11426
1154.50000      120.54105        3.00182        3.33832        5.23297      -78.55714
1155.00000      123.54706        2.98707        3.24781        5.15981      -78.30464
1155.50000      126.55308        2.99447        3.21100        5.17785      -78.15634
1156.00000      125.73243        3.00188        3.09004        5.21859      -78.15634
1156.50000      123.95588        3.00932        3.08682        5.25964      -77.65534
1157.00000      120.94085        3.06230        3.11226        5.31084      -76.40484
1157.50000      117.03304        3.12777        3.13762        5.40185      -75.15033
1158.00000      117.31560        3.17666        3.16347        5.49441      -73.96396
1158.50000      118.54506        3.21411        3.19013        5.58857      -73.03811
1159.00000      121.35568        3.25201        3.21880        5.68434      -72.11226
1159.50000      124.84867        3.24172        3.24802        5.63188      -71.57117
1160.00000      126.85368        3.15996        3.27721        5.54391      -71.28660
1160.50000      133.16630        3.09453        3.30666        5.45681      -70.99803
1161.00000      131.06209        3.04000        3.25923        5.37157      -71.68340
1161.50000      126.82662        2.98616        3.21247        5.28717      -72.60524
1162.00000      122.59115        2.93354        3.16639        5.23756      -73.34672
1162.50000      120.74246        2.96319        3.12298        5.19340      -73.34672
1163.00000      122.04406        2.99313        3.08759        5.17411      -73.74753
1163.50000      124.89977        3.01417        3.05260        5.15536      -73.52308
1164.00000      127.53003        2.99826        3.01801        5.13620      -73.94793
1164.50000      129.40879        2.98270        3.03781        5.11712      -75.65133
1165.00000      127.90578        2.96695        3.05775        5.14357      -75.39883
1165.50000      124.14827        2.99167        3.07782        5.18068      -75.67137
1166.00000      120.39075        3.02694        3.09802        5.24273      -76.07217
1166.50000      117.23444        3.06263        3.11836        5.40455      -75.61927
1167.00000      108.98895        3.15775        3.14929        5.57137      -74.81767
1167.50000       97.39477        3.29672        3.22346        5.74334      -74.73751
1168.00000       93.27352        3.44181        3.29939        5.92062      -75.05414
1168.50000       85.97192        3.53266        3.37710        6.10337      -75.37077
1169.00000       84.19537        3.61018        3.46816        6.32384      -75.68741
1169.50000       82.41882        3.68941        3.61010        6.55289      -76.10023
1170.00000       79.55108        3.81033        3.75784        6.78960      -76.53710
1170.50000       76.40679        3.91814        3.91163        6.85568      -76.96997
1171.00000       76.59317        3.91878        4.07171        6.80436      -77.40684
1171.50000       78.99798        3.82311        4.11438        6.75280      -77.81566
1172.00000       82.77653        3.72979        4.12686        6.70225      -78.12428
1172.50000       87.47493        3.61259        4.13976        6.38804      -78.43290
1173.00000       95.38976        3.46238        3.99672        6.08855      -78.03209
1173.50000      103.16631        3.31811        3.76209        5.80364      -77.15434
1174.00000      108.21641        3.14185        3.54123        5.53155      -76.27658
