~Version ---------------------------------------------------
VERS. 2.0 : CWLS LOG ASCII STANDARD - VERSION 2.0
WRAP. NO  : One line per depth step
DLM . SPACE : Column Data Section Delimiter
~Well ------------------------------------------------------
STRT.F        986.5 : START DEPTH
STOP.F       1761.0 : STOP DEPTH
STEP.F          0.5 : STEP
NULL.       -999.25 : NULL VALUE
COMP.                 WALSH & WATTS, INC. : COMPANY
WELL.                       SALMON D E 6D : WELL
FLD .                             REGULAR : FIELD
CNTY.                            MONTAGUE : COUNTY
STAT.                               TEXAS : STATE
CTRY.                                 USA : COUNTRY
SEC .                                     : SECTION
TWP .                                     : TOWNSHIP
RGE .                                     : RANGE
LOC .  460 FSL 755 FEL
F. ROBERTSON A-620 : LOCATION
EKB .F                      880 : ELEVATION KELLY BUSHING
EDF .F                      878 : ELEVATION DERRICK FLOOR
EGL .F                      874 : ELEVATION GROUND LEVEL
PDAT.                        GL : PERMANENT DATUM
EPD .                       874 : ELEVATION PERMANENT DATUM
APD .                           : ABOVE PERMANENT DATUM
LMF .                        KB : LOG MEASURED FROM
DMF .                        KB : DRILLING MEASURED FROM
API .            42337016430000 : API NUMBER
UWI .            42337016430000 : UWI NUMBER
DIGC.                     NthDS : DIGITIZING COMPANY
~Params ----------------------------------------------------
SRVC.              SCHLUMBERGER : LOGGING COMPANY
LOG .                      DIFL : LOG
DATE.                2005-08-03 : RUN DATE
RUN .                         1 : RUN NUMBER
TDD .F                     1750 : TOTAL DEPTH DRILLER
TDL .F                     1750 : TOTAL DEPTH LOGGER
BOTL.F                     1750 : BOTTOM LOGGED INTERVAL
TOPL.F                      980 : TOP LOGGED INTERVAL
CSGS.IN                       7 : CASING SIZE
CSGD.F                      980 : CASING DRILLER
CSGL.F                      980 : CASING LOGGER
BS  .IN                     6.5 : BIT SIZE
MUD .                       FGM : MUD TYPE
MUDD.                       0.2 : MUD DENSITY
MUDV.                        80 : MUD VISCOSITY
PH  .                        11 : MUD PH
FL  .                         7 : FLUID LOSS
MUDS.                       PIT : SOURCE OF SAMPLE
RM  .OHMM                  1.70 : MUD RESISTIVITY
RMT .DEGF                    70 : RM TEMPERATURE
RMF .OHMM                  1.33 : MUD FILTRATE RESISTIVITY
RMFT.DEGF                    70 : RMF TEMPERATURE
RMC .OHMM                  2.67 : MUD CAKE RESISTIVITY
RMCT.DEGF                    70 : RMC TEMPERATURE
RMFS.                      MEAS : RMF SOURCE
RMCS.                       CAL : RMC SOURCE
RMBH.OHMM                  1.41 : MUD RESISTIVITY AT BHT
BHT .DEGF                    98 : BOTTOM HOLE TEMPERATURE
TIMC.                     2100  : TIME CIRCULATION STOPPED
TIML.                     0300  : TIME LOGGER ON BOTTOM
TMAX.DEGF                    98 : MAXIMUM RECORDED TEMPERATURE
UNIT.                       303 : EQUIPMENT NUMBER
BASE.                  WITCHATA : BASE LOCATION
ENG .              DAVID PARKER : RECORDED BY
WIT .              MR. BURLESON : WITNESSED BY
~Curve Information -----------------------------------------
DEPT.F          :DEPTH
GRR.API         :
ILD.OHMM        :
ILM.OHMM        :
SFL.OHMM        :
SP.MV           :
~ASCII ------------------------------------------------------
# ...
1597.50000      128.82146        3.38592        3.52622        5.97038      -51.60574
1598.00000      128.81095        3.38347        3.53181        5.96880      -51.66393
1598.50000      128.80043        3.38101        3.53740        5.96723      -51.71811
1599.00000      129.09112        3.37857        3.54300        5.96621      -51.77229
1599.50000      130.40587        3.37612        3.54861        5.96464      -51.82647
1600.00000      128.01310        3.35034        3.52929        5.91500      -52.48397
1600.50000      121.57805        3.34872        3.53572        5.91541      -52.54216
1601.00000      118.71519        3.34711        3.53271        5.91529      -52.59634
1601.50000      117.65350        3.34517        3.52386        5.91516      -52.65052
1602.00000      116.85987        3.34356        3.51275        5.91557      -53.16653
1602.50000      116.18070        3.34194        3.50395        5.91544      -53.56207
1603.00000      114.54673        3.34187        3.49582        5.91314      -53.77688
1603.50000      112.27724        3.34303        3.48963        5.91029      -54.38125
1604.00000      111.66433        3.34419        3.48345        5.90744      -55.80366
1604.50000      112.25411        3.34535        3.47697        5.90459      -56.98632
1605.00000      114.02367        3.34651        3.47081        5.90174      -58.17301
1605.50000      115.79323        3.34767        3.46467        5.89890      -59.35969
1606.00000      115.68634        3.34883        3.45854        5.89605      -60.05240
1606.50000      115.52522        3.34999        3.45400        5.89264      -60.62464
1607.00000      118.31283        3.35115        3.45234        5.88980      -61.19688
1607.50000      122.03114        3.35231        3.45067        5.88696      -61.58438
1608.00000      121.99955        3.35348        3.44901        5.88412      -61.23295
1608.50000      119.27826        3.35186        3.45466        5.88129      -60.88151
1609.00000      116.97864        3.34560        3.46126        5.87845      -60.89553
1609.50000      114.95914        3.34030        3.46692        5.87562      -60.90955
1610.00000      112.13846        3.33500        3.47228        5.87278      -60.92357
1610.50000      105.72539        3.32971        3.47764        5.86995      -61.85202
1611.00000      104.88659        3.32443        3.48302        5.86712      -62.78167
1611.50000      107.32481        3.31915        3.48840        5.86429      -62.85995
1612.00000      110.88951        3.31419        3.49379        5.86147      -62.73341
1612.50000      119.91492        3.31077        3.49758        5.85864      -62.60285
1613.00000      120.90739        3.31497        3.49589        5.85582      -62.99839
1613.50000      120.31556        3.31917        3.49421        5.85243      -63.39392
1614.00000      120.00385        3.32369        3.49252        5.84961      -63.79347
1614.50000      119.33070        3.32790        3.49084        5.84679      -64.18901
1615.00000      116.97085        3.33212        3.48145        5.84397      -64.98614
1615.50000      112.92429        3.32561        3.47177        5.84115      -65.88367
1616.00000      110.70600        3.31818        3.46243        5.83833      -66.78120
1616.50000      110.02382        3.31170        3.45120        5.83552      -67.85824
1617.00000      107.17000        3.30523        3.44160        5.83270      -68.75577
1617.50000      100.89248        3.29908        3.43235        5.82989      -68.62521
1618.00000       97.27362        3.29263        3.42280        5.82708      -68.49867
1618.50000       96.09145        3.29681        3.41360        5.82427      -68.44844
1619.00000       97.87607        3.30373        3.41541        5.82898      -68.73153
1619.50000      104.10335        3.31066        3.41754        5.83314      -69.01461
1620.00000      107.01747        3.31577        3.41936        5.83785      -69.17321
1620.50000      108.08524        3.31418        3.42117        5.84308      -68.85390
1621.00000      110.04154        3.31258        3.42330        5.84726      -68.53459
1621.50000      112.22073        3.31098        3.42512        5.85198      -68.48034
1622.00000      113.33369        3.30938        3.42725        5.85617      -69.69915
1622.50000      113.73280        3.30779        3.42907        5.85712      -69.71317
1623.00000      113.45422        3.31319        3.43248        5.85699      -70.69102
1623.50000      112.15157        3.32045        3.44474        5.85633      -72.63550
1624.00000      110.84892        3.32772        3.45483        5.85620      -73.37240
1624.50000      110.54926        3.33532        3.46495        5.85607      -74.50285
1625.00000      113.02362        3.34263        3.47510        5.85594      -75.34015
1625.50000      116.02508        3.35026        3.48528        5.85582      -75.02084
1626.00000      119.02654        3.35760        3.47815        5.85569      -74.70153
1626.50000      121.72680        3.34642        3.47104        5.85502      -73.96055
1627.00000      123.09276        3.33527        3.46362        5.85489      -73.40430
1627.50000      123.94367        3.32385        3.45653        5.85477      -73.28178
1628.00000      122.87084        3.32378        3.44946        5.85461      -73.16327
1628.50000      121.62843        3.32677        3.44399        5.85449      -73.49856
1629.00000      119.28966        3.32945        3.44486        5.85382      -74.54469
1629.50000      116.67680        3.33214        3.44574        5.85369      -75.70727
1630.00000      111.41039        3.33514        3.44694        5.85357      -77.10157
1630.50000      105.87893        3.33843        3.44812        5.85344      -77.86657
1631.00000      103.55823        3.34113        3.44899        5.85331      -78.36652
1631.50000      101.73843        3.33952        3.44987        5.85264      -78.86647
1632.00000      102.02911        3.33791        3.45107        5.85252      -79.36642
1632.50000      102.68123        3.33630        3.45195        5.85239      -79.87039
1633.00000      103.24902        3.33469        3.45282        5.85226      -80.37034
1633.50000      104.93425        3.33308        3.45402        5.85160      -80.87029
1634.00000      107.70981        3.33147        3.45490        5.85147      -81.05700
1634.50000      111.21427        3.32987        3.45483        5.85134      -81.24772
1635.00000      114.31512        3.32826        3.45316        5.85119      -81.43442
1635.50000      117.16599        3.32666        3.45150        5.85052      -81.62514
1636.00000      118.20966        3.32505        3.44983        5.85040      -81.64719
1636.50000      117.44616        3.32345        3.44817        5.85027      -81.38290
1637.00000      116.48085        3.32185        3.44651        5.85014      -81.15998
1637.50000      115.46734        3.31993        3.44484        5.85001      -80.88484
1638.00000      116.45982        3.31833        3.44380        5.84935      -80.39687
1638.50000      117.90710        3.31673        3.44436        5.84922      -79.90889
1639.00000      121.15855        3.31513        3.44492        5.84909      -79.42091
1639.50000      123.55762        3.31353        3.44548        5.84897      -78.93294
1640.00000      120.23393        3.31193        3.44604        5.84830      -78.44496
1640.50000      118.64213        3.31034        3.44692        5.84817      -78.25818
1641.00000      117.69279        3.31057        3.44748        5.84805      -78.27220
1641.50000      117.26964        3.31416        3.44804        5.84792      -77.56334
1642.00000      118.03922        3.31744        3.44860        5.84723      -77.45688
1642.50000      119.63711        3.32073        3.44916        5.84710      -78.07330
1643.00000      122.03617        3.32403        3.44972        5.84751      -77.92668
1643.50000      123.32081        3.32732        3.45028        5.84738      -77.53910
1644.00000      121.99707        3.33001        3.45116        5.84780      -77.55592
