~Version ---------------------------------------------------
VERS. 2.0 : CWLS LOG ASCII STANDARD - VERSION 2.0
WRAP. NO  : One line per depth step
DLM . SPACE : Column Data Section Delimiter
~Well ------------------------------------------------------
STRT.F          100 : START DEPTH
STOP.F       1786.5 : STOP DEPTH
STEP.F          0.5 : STEP
NULL.       -999.25 : NULL VALUE
COMP.                 WALSH & WATTS, INC. : COMPANY
WELL.                         SALMON E 41 : WELL
FLD .                        NORTH NOCONA : FIELD
CNTY.                            MONTAGUE : COUNTY
STAT.                               TEXAS : STATE
CTRY.                                 USA : COUNTRY
SEC .                                     : SECTION
TWP .                                     : TOWNSHIP
RGE .                                     : RANGE
LOC . 300' N OF NO. 40
150' W OF EL & 385' E OF NO. 87
F. ROBERTSON SURVEY : LOCATION
EKB .F                          : ELEVATION KELLY BUSHING
EDF .F                          : ELEVATION DERRICK FLOOR
EGL .F                      878 : ELEVATION GROUND LEVEL
PDAT.              GROUND LEVEL : PERMANENT DATUM
EPD .                       878 : ELEVATION PERMANENT DATUM
APD .                           : ABOVE PERMANENT DATUM
LMF .                        KB : LOG MEASURED FROM
DMF .                        KB : DRILLING MEASURED FROM
API .            42337037790000 : API NUMBER
UWI .            42337037790000 : UWI NUMBER
DIGC.                     NthDS : DIGITIZING COMPANY
~Params ----------------------------------------------------
SRVC.                LANE WELLS : LOGGING COMPANY
LOG .                       IEL : LOG
DATE.                1965-12-01 : RUN DATE
RUN .                         1 : RUN NUMBER
TDD .F                     1790 : TOTAL DEPTH DRILLER
TDL .F                     1791 : TOTAL DEPTH LOGGER
BOTL.F                     1787 : BOTTOM LOGGED INTERVAL
TOPL.F                      100 : TOP LOGGED INTERVAL
CSGS.IN                         : CASING SIZE
CSGD.F                          : CASING DRILLER
CSGL.F                          : CASING LOGGER
BS  .IN                       9 : BIT SIZE
MUD .                       GEL : MUD TYPE
MUDD.                        10 : MUD DENSITY
MUDV.                        80 : MUD VISCOSITY
PH  .                       9.0 : MUD PH
FL  .                       6.8 : FLUID LOSS
MUDS.                       PIT : SOURCE OF SAMPLE
RM  .OHMM                  1.95 : MUD RESISTIVITY
RMT .DEGF                    74 : RM TEMPERATURE
RMF .OHMM                   1.5 : MUD FILTRATE RESISTIVITY
RMFT.DEGF                    74 : RMF TEMPERATURE
RMC .OHMM                   2.3 : MUD CAKE RESISTIVITY
RMCT.DEGF                    74 : RMC TEMPERATURE
RMFS.                  MEASURED : RMF SOURCE
RMCS.                           : RMC SOURCE
RMBH.OHMM                   1.5 : MUD RESISTIVITY AT BHT
BHT .DEGF                    97 : BOTTOM HOLE TEMPERATURE
TIMC.                           : TIME CIRCULATION STOPPED
TIML.                           : TIME LOGGER ON BOTTOM
TMAX.DEGF                    97 : MAXIMUM RECORDED TEMPERATURE
UNIT.                    L-5172 : EQUIPMENT NUMBER
BASE.                      W.F. : BASE LOCATION
ENG .             ADAMS & BAKER : RECORDED BY
WIT .                   MR. NIX : WITNESSED BY
~Curve Information -----------------------------------------
DEPT.F          :DEPTH
CILD.MMHO       :
ILD.OHMM        :
ROP.FT/HR       :
SN.OHMM         :
SP.MV           :
~ASCII ------------------------------------------------------
# ...
860.00000      370.78081        2.76986        -999.25        3.57431      -42.92027
860.50000      373.73044        2.67896        -999.25        3.70945      -45.30602
861.00000      374.69401        2.69489        -999.25        3.77330      -49.18875
861.50000      374.66454        2.73339        -999.25        3.73933      -52.17330
862.00000      369.66403        2.77189        -999.25        3.56833      -52.46329
862.50000      364.66941        2.81040        -999.25        3.39733      -49.45805
863.00000      359.67479        2.84930        -999.25        3.25246      -45.25711
863.50000      357.65926        2.88780        -999.25        3.21334      -41.95436
864.00000      355.64374        2.92630        -999.25        3.18769      -40.14858
864.50000      352.63518        2.96481        -999.25        3.21510      -39.54038
865.00000      348.62770        3.00331        -999.25        3.24252      -39.83037
865.50000      344.62611        3.04181        -999.25        3.26993      -40.12036
866.00000      341.61755        3.07923        -999.25        3.30299      -39.51217
866.50000      338.60900        3.10308        -999.25        3.26743      -37.40699
867.00000      334.60741        3.12693        -999.25        3.23188      -34.10236
867.50000      328.61976        3.15078        -999.25        3.28860      -31.09900
868.00000      324.61228        3.17463        -999.25        3.36829      -30.49081
868.50000      324.58281        3.19808        -999.25        3.45788      -31.08019
869.00000      325.54638        3.22193        -999.25        3.54946      -32.26836
869.50000      328.49601        3.20697        -999.25        3.62321      -33.75593
870.00000      330.45261        3.18211        -999.25        3.62369      -34.94411
870.50000      332.40920        3.15724        -999.25        3.58299      -37.03047
871.00000      335.35883        3.13199        -999.25        3.51456      -39.41623
871.50000      338.30846        3.10207        -999.25        3.43237      -40.90380
872.00000      340.25917        3.07721        -999.25        3.36394      -40.29560
872.50000      343.20880        3.05235        -999.25        3.29908      -38.48982
873.00000      348.14449        3.01283        -999.25        3.24847      -36.98156
873.50000      356.05927        2.91430        -999.25        3.19787      -36.67276
874.00000      365.96012        2.81578        -999.25        3.14726      -37.26214
874.50000      376.85399        2.71725        -999.25        3.09666      -38.15092
875.00000      391.72000        2.61873        -999.25        3.04605      -39.03970
875.50000      408.57206        2.52020        -999.25        2.99545      -39.92848
876.00000      422.44503        2.42168        -999.25        3.00742      -40.81726
876.50000      430.35982        2.32315        -999.25        3.01978      -41.70604
877.00000      432.31641        2.25750        -999.25        3.03422      -43.79240
877.50000      425.32984        2.33728        -999.25        3.09372      -46.77695
878.00000      413.38400        2.40391        -999.25        3.16470      -50.36029
878.50000      399.45210        2.47053        -999.25        3.23607      -49.75209
879.00000      383.53414        2.55022        -999.25        3.25438      -45.85055
879.50000      360.65907        2.68258        -999.25        3.27308      -39.25256
880.00000      343.74808        2.81495        -999.25        3.27713      -35.94981
880.50000      337.76043        2.94771        -999.25        3.27761      -33.84464
881.00000      334.75187        3.08007        -999.25        3.31215      -33.83523
881.50000      336.70847        3.06274        -999.25        3.48214      -35.02341
882.00000      339.65810        3.04500        -999.25        3.65253      -37.40916
882.50000      341.60880        3.02420        -999.25        3.75489      -39.49552
883.00000      342.57237        3.00646        -999.25        3.75537      -41.28249
883.50000      340.55684        2.98913        -999.25        3.87467      -43.36885
884.00000      337.54829        2.97139        -999.25        3.94129      -44.25763
884.50000      335.53276        2.98178        -999.25        3.80950      -44.54762
885.00000      336.49633        3.01038        -999.25        3.67810      -44.83761
885.50000      336.46686        3.03938        -999.25        3.67858      -44.82820
886.00000      333.45241        3.06798        -999.25        3.67907      -45.11819
886.50000      329.45082        3.09698        -999.25        3.67955      -45.70569
887.00000      323.46317        3.12558        -999.25        3.68004      -45.39689
887.50000      318.46855        3.15418        -999.25        3.66745      -44.18991
888.00000      314.46697        3.21021        -999.25        3.65219      -41.48594
888.50000      311.45841        3.26574        -999.25        3.64356      -39.38077
889.00000      306.45790        3.32128        -999.25        3.65157      -36.97620
889.50000      304.44237        3.36889        -999.25        3.65958      -34.57164
890.00000      304.41291        3.38442        -999.25        3.66799      -32.46646
890.50000      306.36950        3.40035        -999.25        3.67599      -31.85827
891.00000      308.32610        3.36361        -999.25        3.68400      -33.64335
891.50000      310.28270        3.29201        -999.25        3.78350      -35.72971
892.00000      309.26020        3.20972        -999.25        3.88299      -37.81607
892.50000      306.24575        3.28942        -999.25        3.86565      -39.90243
893.00000      301.25113        3.28990        -999.25        3.84792      -39.29424
893.50000      295.26348        3.36969        -999.25        3.99899      -36.88967
894.00000      292.25493        3.44938        -999.25        4.10047      -35.08389
894.50000      290.23940        3.48947        -999.25        3.99125      -35.07449
895.00000      292.19600        3.48995        -999.25        3.92559      -34.76569
895.50000      297.13169        3.41123        -999.25        3.92608      -33.85809
896.00000      307.02664        3.33250        -999.25        3.89923      -33.84869
896.50000      320.89961        3.25378        -999.25        3.76269      -34.43807
897.00000      337.75168        3.09585        -999.25        3.62575      -35.92564
897.50000      351.62465        2.93792        -999.25        3.50029      -37.71261
898.00000      363.51156        2.85919        -999.25        3.38196      -39.20018
898.50000      373.41240        2.78047        -999.25        3.29175      -41.28466
899.00000      379.34112        2.70175        -999.25        3.20600      -42.47283
899.50000      384.27682        2.62312        -999.25        3.17757      -43.66101
900.00000      385.24628        2.61914        -999.25        3.17469      -43.79647
900.50000      385.44118        2.57994        -999.25        3.25454      -42.88706
901.00000      385.61419        2.58042        -999.25        3.25502      -40.17769
901.50000      387.56684        2.58091        -999.25        3.21583      -37.76831
902.00000      388.53136        2.58139        -999.25        3.25599      -36.55891
902.50000      387.50785        2.62156        -999.25        3.29616      -37.44947
903.00000      386.48434        2.62205        -999.25        3.33633      -40.43999
903.50000      385.46083        2.58285        -999.25        3.33681      -41.63054
904.00000      384.43732        2.62301        -999.25        3.25793      -41.62111
904.50000      381.41987        2.70286        -999.25        3.22231      -40.70982
905.00000      377.41430        2.66367        -999.25        3.23113      -39.80041
905.50000      371.42070        2.78320        -999.25        3.24034      -37.99102
906.00000      367.41514        2.78368        -999.25        3.24956      -35.88164
906.50000      363.40957        2.74449        -999.25        3.25877      -34.67224
907.00000      364.36820        2.74507        -999.25        3.26094      -34.36282
