~Version ---------------------------------------------------
VERS. 2.0 : CWLS LOG ASCII STANDARD - VERSION 2.0
WRAP. NO  : One line per depth step
DLM . SPACE : Column Data Section Delimiter
~Well ------------------------------------------------------
STRT.F        986.5 : START DEPTH
STOP.F       1761.0 : STOP DEPTH
STEP.F          0.5 : STEP
NULL.       -999.25 : NULL VALUE
COMP.                 WALSH & WATTS, INC. : COMPANY
WELL.                       SALMON D E 6D : WELL
FLD .                             REGULAR : FIELD
CNTY.                            MONTAGUE : COUNTY
STAT.                               TEXAS : STATE
CTRY.                                 USA : COUNTRY
SEC .                                     : SECTION
TWP .                                     : TOWNSHIP
RGE .                                     : RANGE
LOC .  460 FSL 755 FEL
F. ROBERTSON A-620 : LOCATION
EKB .F                      880 : ELEVATION KELLY BUSHING
EDF .F                      878 : ELEVATION DERRICK FLOOR
EGL .F                      874 : ELEVATION GROUND LEVEL
PDAT.                        GL : PERMANENT DATUM
EPD .                       874 : ELEVATION PERMANENT DATUM
APD .                           : ABOVE PERMANENT DATUM
LMF .                        KB : LOG MEASURED FROM
DMF .                        KB : DRILLING MEASURED FROM
API .            42337016430000 : API NUMBER
UWI .            42337016430000 : UWI NUMBER
DIGC.                     NthDS : DIGITIZING COMPANY
~Params ----------------------------------------------------
SRVC.              SCHLUMBERGER : LOGGING COMPANY
LOG .                      DIFL : LOG
DATE.                2005-08-03 : RUN DATE
RUN .                         1 : RUN NUMBER
TDD .F                     1750 : TOTAL DEPTH DRILLER
TDL .F                     1750 : TOTAL DEPTH LOGGER
BOTL.F                     1750 : BOTTOM LOGGED INTERVAL
TOPL.F                      980 : TOP LOGGED INTERVAL
CSGS.IN                       7 : CASING SIZE
CSGD.F                      980 : CASING DRILLER
CSGL.F                      980 : CASING LOGGER
BS  .IN                     6.5 : BIT SIZE
MUD .                       FGM : MUD TYPE
MUDD.                       0.2 : MUD DENSITY
MUDV.                        80 : MUD VISCOSITY
PH  .                        11 : MUD PH
FL  .                         7 : FLUID LOSS
MUDS.                       PIT : SOURCE OF SAMPLE
RM  .OHMM                  1.70 : MUD RESISTIVITY
RMT .DEGF                    70 : RM TEMPERATURE
RMF .OHMM                  1.33 : MUD FILTRATE RESISTIVITY
RMFT.DEGF                    70 : RMF TEMPERATURE
RMC .OHMM                  2.67 : MUD CAKE RESISTIVITY
RMCT.DEGF                    70 : RMC TEMPERATURE
RMFS.                      MEAS : RMF SOURCE
RMCS.                       CAL : RMC SOURCE
RMBH.OHMM                  1.41 : MUD RESISTIVITY AT BHT
BHT .DEGF                    98 : BOTTOM HOLE TEMPERATURE
TIMC.                     2100  : TIME CIRCULATION STOPPED
TIML.                     0300  : TIME LOGGER ON BOTTOM
TMAX.DEGF                    98 : MAXIMUM RECORDED TEMPERATURE
UNIT.                       303 : EQUIPMENT NUMBER
BASE.                  WITCHATA : BASE LOCATION
ENG .              DAVID PARKER : RECORDED BY
WIT .              MR. BURLESON : WITNESSED BY
~Curve Information -----------------------------------------
DEPT.F          :DEPTH
GRR.API         :
ILD.OHMM        :
ILM.OHMM        :
SFL.OHMM        :
SP.MV           :
~ASCII ------------------------------------------------------
# ...
1268.50000      120.69444        3.58678        3.72847        6.27052      -22.40782
1269.00000      120.08153        3.64757        3.75434        6.29769      -22.06040
1269.50000      118.35118        3.71077        3.78038        6.32557      -20.62867
1270.00000      116.61782        3.69425        3.80661        6.32833      -20.64269
1270.50000      114.75795        3.67747        3.83301        6.28039      -20.65671
1271.00000      112.38003        3.66111        3.83967        6.23281      -20.67073
1271.50000      110.00210        3.64143        3.81623        6.21081      -20.68475
1272.00000      107.78381        3.60783        3.78835        6.19519      -20.69876
1272.50000      105.80648        3.57058        3.76557        6.17961      -21.67661
1273.00000      103.82613        3.53372        3.74257        6.16406      -22.89542
1273.50000      102.66596        3.52679        3.72007        6.14799      -24.11423
1274.00000      103.92951        3.52019        3.69735        6.13253      -25.33304
1274.50000      105.69907        3.51329        3.68022        6.11368      -25.45549
1275.00000      106.76082        3.50672        3.66282        6.09831      -25.30084
1275.50000      106.31357        3.49984        3.64585        6.08297      -24.81286
1276.00000      109.48972        3.49298        3.62861        6.12177      -23.82289
1276.50000      112.59569        3.51134        3.64062        6.16025      -23.99353
1277.00000      114.07008        3.53766        3.66418        6.19954      -24.45332
1277.50000      114.02735        3.56418        3.68789        6.23851      -23.40311
1278.00000      115.37012        3.59123        3.71176        6.27830      -22.35691
1278.50000      116.96709        3.61815        3.73578        6.31777      -21.30670
1279.00000      117.76077        3.64527        3.75996        6.34632      -20.89502
1279.50000      117.75026        3.65633        3.78429        6.32860      -20.47934
1280.00000      114.55910        3.66777        3.80878        6.30740      -19.95923
1280.50000      111.13301        3.67142        3.81222        6.28979      -19.43913
1281.00000      106.75513        3.66422        3.81038        6.28152      -19.61378
1281.50000      103.15133        3.65669        3.80853        6.28777      -20.02940
1282.00000      105.98713        3.64781        3.80632        6.29403      -20.48919
1282.50000      111.06083        3.64032        3.80448        6.29972      -20.82047
1283.00000      109.71601        3.63318        3.80264        6.30599      -21.66579
1283.50000      104.54297        3.62438        3.80080        6.31169      -23.32234
1284.00000      105.90893        3.61526        3.79896        6.31797      -24.58131
1284.50000      109.31099        3.60583        3.79712        6.28346      -24.54994
1285.00000      113.28833        3.59643        3.78372        6.24160      -26.00167
1285.50000      117.15121        3.58307        3.77001        6.20751      -25.87112
1286.00000      117.65574        3.55396        3.75671        6.17360      -25.35101
1286.50000      116.35610        3.51920        3.74345        6.13931      -24.83091
1287.00000      116.62269        3.49061        3.72746        6.10577      -24.50758
1287.50000      117.28084        3.46192        3.70505        6.07242      -24.36498
1288.00000      121.02023        3.46185        3.64650        6.03869      -24.42317
1288.50000      125.25660        3.48006        3.58889        6.00571      -24.48137
1289.00000      128.48095        3.49870        3.59878        6.05017      -24.53956
1289.50000      130.19027        3.51711        3.62576        6.10452      -24.59776
1290.00000      129.60146        3.53595        3.65260        6.14971      -24.65595
1290.50000      129.00963        3.56806        3.67964        6.19581      -24.71415
1291.00000      125.55342        3.60413        3.70722        6.24167      -24.76832
1291.50000      119.20571        3.64022        3.73466        6.28788      -24.82652
1292.00000      116.58382        3.68449        3.76821        6.33501      -24.87668
1292.50000      115.87151        3.68100        3.79611        6.38191      -24.89070
1293.00000      116.12605        3.65109        3.80798        6.37882      -24.90472
1293.50000      118.44078        3.62109        3.81600        6.37573      -24.91874
1294.00000      120.75852        3.59166        3.82404        6.37265      -26.13754
1294.50000      119.99502        3.56445        3.81972        6.28822      -25.86643
1295.00000      121.47242        3.53745        3.76807        6.18826      -25.44672
1295.50000      126.31721        3.51065        3.71677        6.10684      -25.67760
1296.00000      130.68610        3.48406        3.67772        6.05890      -25.90849
1296.50000      134.74175        3.45254        3.65628        6.03305      -26.13535
1297.00000      136.89986        3.45087        3.63091        6.00787      -26.36623
1297.50000      138.51581        3.44920        3.60974        5.98224      -26.59310
1298.00000      136.48728        3.44753        3.58903        5.95727      -26.51876
1298.50000      132.26000        3.44586        3.57768        5.93185      -26.36411
1299.00000      126.89118        3.44419        3.58158        5.90654      -26.20946
1299.50000      119.25526        3.44252        3.58514        5.90311      -26.05882
1300.00000      116.71820        3.41219        3.54573        5.93640      -26.50188
1300.50000      120.09616        3.42039        3.54802        5.89191      -25.00992
1301.00000      123.53435        3.43685        3.55163        5.93339      -23.21955
1301.50000      126.98761        3.45052        3.55591        5.97516      -23.33397
1302.00000      125.98314        3.46457        3.55428        6.01668      -22.72953
1302.50000      123.86425        3.47835        3.55264        6.05904      -22.12509
1303.00000      123.54049        3.44037        3.53924        5.99122      -22.03871
1303.50000      123.66853        3.32735        3.47869        5.69841      -22.71938
1304.00000      122.20624        3.02258        3.41918        5.29044      -23.40406
1304.50000      114.06340        2.74598        3.13856        4.80853      -25.42607
1305.00000      104.56516        2.50000        2.88097        4.44085      -27.44807
1305.50000       90.84807        2.29609        2.64672        4.10128      -29.36967
1306.00000       80.17516        2.16201        2.43466        3.78768      -31.29127
1306.50000       72.45400        2.05616        2.22846        3.49773      -33.21287
1307.00000       65.15240        2.02734        2.09061        3.44139      -35.13448
1307.50000       61.70824        2.04727        2.03766        3.43981      -34.14450
1308.00000       65.58016        2.14455        1.98624        3.60525      -32.35134
1308.50000       76.58654        2.26706        2.08004        3.82390      -30.35737
1309.00000       86.55770        2.39658        2.21782        4.05581      -28.36341
1309.50000       96.63730        2.56265        2.36473        4.37787      -26.36944
1310.00000      103.82541        2.74023        2.49522        4.72595      -24.37548
1310.50000      109.23645        2.89785        2.62611        4.98488      -22.38152
1311.00000      113.62342        3.01488        2.76386        5.17807      -22.96982
1311.50000      117.13992        3.13635        2.89466        5.37826      -23.81514
1312.00000      118.20770        3.22054        3.01017        5.58669      -24.83315
1312.50000      117.10685        3.24261        3.13029        5.62706      -25.85116
1313.00000      115.46384        3.26454        3.25491        5.66825      -26.41014
1313.50000      114.74250        3.28692        3.35960        5.66774      -26.32376
1314.00000      115.40065        3.28298        3.36581        5.64062      -26.23738
1314.50000      117.16419        3.26125        3.37204        5.61311      -26.15100
1315.00000      119.66265        3.23996        3.37827        5.58626      -26.77544
