~Version ---------------------------------------------------
VERS. 2.0 : CWLS LOG ASCII STANDARD - VERSION 2.0
WRAP. NO  : One line per depth step
DLM . SPACE : Column Data Section Delimiter
~Well ------------------------------------------------------
STRT.F          500 : START DEPTH
STOP.F       2022.5 : STOP DEPTH
STEP.F          0.5 : STEP
NULL.       -999.25 : NULL VALUE
COMP.                 WALSH & WATTS, INC. : COMPANY
WELL.                          HYNDS A 10 : WELL
FLD .                           N. NOCONA : FIELD
CNTY.                            MONTAGUE : COUNTY
STAT.                               TEXAS : STATE
CTRY.                                 USA : COUNTRY
SEC .                                     : SECTION
TWP .                                     : TOWNSHIP
RGE .                                     : RANGE
LOC .  244' SE OF NO. 5A J.J. WALL SURVEY : LOCATION
EKB .F                    903.5 : ELEVATION KELLY BUSHING
EDF .F                          : ELEVATION DERRICK FLOOR
EGL .F                      897 : ELEVATION GROUND LEVEL
PDAT.                        GL : PERMANENT DATUM
EPD .                           : ELEVATION PERMANENT DATUM
APD .                         6 : ABOVE PERMANENT DATUM
LMF .                           : LOG MEASURED FROM
DMF .                           : DRILLING MEASURED FROM
API .            42337037830000 : API NUMBER
UWI .            42337037830000 : UWI NUMBER
DIGC.                     NthDS : DIGITIZING COMPANY
~Params ----------------------------------------------------
SRVC.                LANE WELLS : LOGGING COMPANY
LOG .                       GRN : LOG
DATE.                1957-11-30 : RUN DATE
RUN .                         1 : RUN NUMBER
TDD .F                     2039 : TOTAL DEPTH DRILLER
TDL .F                     2015 : TOTAL DEPTH LOGGER
BOTL.F                     2023 : BOTTOM LOGGED INTERVAL
TOPL.F                      500 : TOP LOGGED INTERVAL
CSGS.IN                     5.5 : CASING SIZE
CSGD.F                     2038 : CASING DRILLER
CSGL.F                          : CASING LOGGER
BS  .IN                    8.75 : BIT SIZE
MUD .                     WATER : MUD TYPE
MUDD.                           : MUD DENSITY
MUDV.                           : MUD VISCOSITY
PH  .                           : MUD PH
FL  .                           : FLUID LOSS
MUDS.                           : SOURCE OF SAMPLE
RM  .OHMM                       : MUD RESISTIVITY
RMT .DEGF                       : RM TEMPERATURE
RMF .OHMM                       : MUD FILTRATE RESISTIVITY
RMFT.DEGF                       : RMF TEMPERATURE
RMC .OHMM                       : MUD CAKE RESISTIVITY
RMCT.DEGF                       : RMC TEMPERATURE
RMFS.                           : RMF SOURCE
RMCS.                           : RMC SOURCE
RMBH.OHMM                       : MUD RESISTIVITY AT BHT
BHT .DEGF                       : BOTTOM HOLE TEMPERATURE
TIMC.                           : TIME CIRCULATION STOPPED
TIML.                           : TIME LOGGER ON BOTTOM
TMAX.DEGF                       : MAXIMUM RECORDED TEMPERATURE
UNIT.                           : EQUIPMENT NUMBER
BASE.                           : BASE LOCATION
ENG .                   ROBERTS : RECORDED BY
WIT .                       NIX : WITNESSED BY
~Curve Information -----------------------------------------
DEPT.F          :DEPTH
GRN.GAPI        :
NEUT.API        :
~ASCII ------------------------------------------------------
# ...
1588.00000       27.90437     2278.34949
1588.50000       29.99532     2191.85264
1589.00000       32.06825     2180.97556
1589.50000       33.40245     2162.85868
1590.00000       32.23214     2086.56996
1590.50000       31.51229     2005.72016
1591.00000       32.87712     1975.29213
1591.50000       34.29419     1973.82680
1592.00000       34.66803     2038.08079
1592.50000       33.14818     2106.44337
1593.00000       31.51661     2165.44851
1593.50000       31.96810     2199.82021
1594.00000       30.27528     2187.58566
1594.50000       27.75362     2195.62257
1595.00000       27.01575     2189.81335
1595.50000       26.74635     2231.64205
1596.00000       24.75532     2276.42097
1596.50000       22.76520     2325.61617
1597.00000       20.77418     2374.81137
1597.50000       19.01739     2413.25546
1598.00000       18.19213     2431.51859
1598.50000       18.32813     2483.98980
1599.00000       18.94431     2505.81854
1599.50000       20.64697     2510.27174
1600.00000       21.01641     2496.84267
1600.50000       22.12306     2425.97364
1601.00000       22.48559     2377.74341
1601.50000       21.91955     2335.68646
1602.00000       21.76400     2339.27923
1602.50000       19.95673     2357.31241
1603.00000       18.45036     2352.96296
1603.50000       18.82826     2372.92754
1604.00000       19.78844     2359.96800
1604.50000       20.89419     2347.49583
1605.00000       22.66269     2350.60124
1605.50000       24.43028     2328.32764
1606.00000       26.41233     2346.35735
1606.50000       26.11211     2369.80568
1607.00000       26.95656     2394.28289
1607.50000       26.54151     2395.04174
1608.00000       25.85522     2414.57311
1608.50000       25.44470     2413.05759
1609.00000       24.88047     2373.32915
1609.50000       24.03414     2416.43448
1610.00000       22.53157     2457.44595
1610.50000       20.87512     2490.15419
1611.00000       19.88503     2506.83358
1611.50000       21.56582     2476.13040
1612.00000       22.48983     2430.98680
1612.50000       24.86411     2434.57611
1613.00000       24.82339     2432.75373
1613.50000       24.61738     2438.15156
1614.00000       26.07123     2398.42312
1614.50000       27.52508     2358.69468
1615.00000       28.30442     2392.52205
1615.50000       26.38396     2428.28082
1616.00000       23.85319     2466.94573
1616.50000       23.33868     2505.61064
1617.00000       24.86487     2498.31896
1617.50000       25.21853     2460.39557
1618.00000       26.83422     2460.37824
1618.50000       25.77180     2495.14424
1619.00000       26.08641     2510.16298
1619.50000       27.18945     2484.87148
1620.00000       24.62884     2499.89023
1620.50000       25.38287     2525.90173
1621.00000       25.04196     2528.14071
1621.50000       24.30250     2545.16307
1622.00000       24.81331     2564.20707
1622.50000       22.85487     2531.69883
1623.00000       21.10800     2495.58049
1623.50000       20.20471     2494.11913
1624.00000       21.81317     2473.88523
1624.50000       23.05455     2378.20022
1625.00000       22.82937     2442.85786
1625.50000       24.09624     2520.45424
1626.00000       24.79059     2516.53801
1626.50000       26.61153     2524.82391
1627.00000       26.40444     2552.71267
1627.50000       23.91888     2574.24764
1628.00000       22.03910     2569.41083
1628.50000       22.31573     2559.46573
1629.00000       20.87718     2560.35092
1629.50000       22.38545     2486.32652
1630.00000       24.96950     2444.79303
1630.50000       25.56982     2432.14035
1631.00000       25.82386     2419.48767
1631.50000       26.72888     2437.51738
1632.00000       26.82016     2455.55056
1632.50000       25.61398     2452.95201
1633.00000       22.80671     2462.73611
1633.50000       20.46762     2498.81979
1634.00000       18.66379     2495.64363
1634.50000       19.33193     2514.81399
1635.00000       20.49102     2516.81832
1635.50000       21.65011     2517.16200
1636.00000       22.43579     2504.14831
1636.50000       21.72599     2462.86752
1637.00000       23.05433     2421.60479
1637.50000       24.16280     2390.37467
1638.00000       23.91502     2398.66058
1638.50000       22.50269     2391.24254
1639.00000       20.93394     2395.43098
1639.50000       19.36610     2439.79985
1640.00000       18.47094     2484.15067
1640.50000       19.33076     2484.13334
1641.00000       20.59762     2461.01136
1641.50000       20.14641     2459.18899
1642.00000       20.46374     2479.02722
1642.50000       20.96189     2488.26980
1643.00000       20.51068     2455.16589
1643.50000       21.36507     2486.62865
1644.00000       22.03411     2544.78810
1644.50000       22.32194     2577.85735
1645.00000       22.88322     2556.17595
1645.50000       24.14990     2539.49801
1646.00000       25.12726     2497.82011
1646.50000       25.28636     2456.16027
1647.00000       24.31526     2418.92280
1647.50000       23.83421     2391.23404
1648.00000       25.98082     2396.45136
1648.50000       26.30718     2391.79506
1649.00000       27.43824     2364.70197
1649.50000       28.56931     2367.39222
1650.00000       28.06522     2376.60172
1650.50000       28.25596     2373.82015
1651.00000       27.41596     2381.02954
1651.50000       27.08229     2377.54337
1652.00000       28.37175     2341.84407
1652.50000       29.61584     2347.40937
1653.00000       29.07059     2386.81381
1653.50000       27.78485     2402.31239
1654.00000       26.49910     2414.03848
1654.50000       26.95205     2400.47102
1655.00000       27.70608     2419.42383
1655.50000       27.67728     2423.38119
1656.00000       26.77399     2451.36741
1656.50000       27.03345     2471.76556
1657.00000       27.67988     2504.62982
1657.50000       27.68075     2544.35946
1658.00000       26.50622     2524.10382
1658.50000       26.98177     2469.16337
1659.00000       26.58752     2493.35555
1659.50000       28.59760     2431.31484
1660.00000       30.65542     2356.01309
1660.50000       32.71325     2302.24352
1661.00000       34.77107     2296.51706
1661.50000       36.51244     2265.29833
1662.00000       37.54405     2245.73270
1662.50000       37.45468     2272.81558
1663.00000       36.33439     2303.11434
1663.50000       35.99982     2334.20805
1664.00000       36.65348     2334.78344
1664.50000       36.15616     2352.83291
1665.00000       36.55486     2320.15077
1665.50000       36.68231     2269.69089
1666.00000       37.64158     2229.33036
1666.50000       36.45456     2237.98509
1667.00000       37.29449     2260.00925
1667.50000       37.10187     2292.50870
1668.00000       35.97887     2308.75149
1668.50000       35.65695     2334.93103
1669.00000       36.36306     2317.15401
1669.50000       37.37659     2284.76094
1670.00000       36.83496     2299.64871
1670.50000       37.78537     2340.10103
1671.00000       38.91643     2313.16067
1671.50000       40.65780     2287.84979
1672.00000       40.00316     2300.02754
1672.50000       39.00945     2318.34801
1673.00000       38.37741     2341.81753
1673.50000       39.04102     2331.79117
1674.00000       38.74098     2308.53991
1674.50000       39.84221     2314.53881
1675.00000       39.01396     2301.05823
1675.50000       40.11248     2295.83764
1676.00000       39.91986     2322.19784
1676.50000       39.71006     2312.42442
1677.00000       40.76517     2323.78917
1677.50000       40.46513     2335.96693
1678.00000       40.99583     2310.80058
1678.50000       41.91352     2263.80606
1679.00000       41.58889     2263.19251
1679.50000       41.19193     2309.89594
1680.00000       39.20365     2323.98878
1680.50000       39.56618     2310.11419
1681.00000       40.01913     2296.54674
1681.50000       38.21185     2279.72726
1682.00000       39.69825     2240.19433
1682.50000       40.61865     2212.80577
1683.00000       40.20360     2232.49932
1683.50000       38.90881     2252.19287
1684.00000       37.65833     2234.10871
1684.50000       38.03623     2258.17443
1685.00000       39.26404     2276.83817
1685.50000       39.24971     2278.31691
