~Version ---------------------------------------------------
VERS. 2.0 : CWLS LOG ASCII STANDARD - VERSION 2.0
WRAP. NO  : One line per depth step
DLM . SPACE : Column Data Section Delimiter
~Well ------------------------------------------------------
STRT.F          100 : START DEPTH
STOP.F       1786.5 : STOP DEPTH
STEP.F          0.5 : STEP
NULL.       -999.25 : NULL VALUE
COMP.                 WALSH & WATTS, INC. : COMPANY
WELL.                         SALMON E 41 : WELL
FLD .                        NORTH NOCONA : FIELD
CNTY.                            MONTAGUE : COUNTY
STAT.                               TEXAS : STATE
CTRY.                                 USA : COUNTRY
SEC .                                     : SECTION
TWP .                                     : TOWNSHIP
RGE .                                     : RANGE
LOC . 300' N OF NO. 40
150' W OF EL & 385' E OF NO. 87
F. ROBERTSON SURVEY : LOCATION
EKB .F                          : ELEVATION KELLY BUSHING
EDF .F                          : ELEVATION DERRICK FLOOR
EGL .F                      878 : ELEVATION GROUND LEVEL
PDAT.              GROUND LEVEL : PERMANENT DATUM
EPD .                       878 : ELEVATION PERMANENT DATUM
APD .                           : ABOVE PERMANENT DATUM
LMF .                        KB : LOG MEASURED FROM
DMF .                        KB : DRILLING MEASURED FROM
API .            42337037790000 : API NUMBER
UWI .            42337037790000 : UWI NUMBER
DIGC.                     NthDS : DIGITIZING COMPANY
~Params ----------------------------------------------------
SRVC.                LANE WELLS : LOGGING COMPANY
LOG .                       IEL : LOG
DATE.                1965-12-01 : RUN DATE
RUN .                         1 : RUN NUMBER
TDD .F                     1790 : TOTAL DEPTH DRILLER
TDL .F                     1791 : TOTAL DEPTH LOGGER
BOTL.F                     1787 : BOTTOM LOGGED INTERVAL
TOPL.F                      100 : TOP LOGGED INTERVAL
CSGS.IN                         : CASING SIZE
CSGD.F                          : CASING DRILLER
CSGL.F                          : CASING LOGGER
BS  .IN                       9 : BIT SIZE
MUD .                       GEL : MUD TYPE
MUDD.                        10 : MUD DENSITY
MUDV.                        80 : MUD VISCOSITY
PH  .                       9.0 : MUD PH
FL  .                       6.8 : FLUID LOSS
MUDS.                       PIT : SOURCE OF SAMPLE
RM  .OHMM                  1.95 : MUD RESISTIVITY
RMT .DEGF                    74 : RM TEMPERATURE
RMF .OHMM                   1.5 : MUD FILTRATE RESISTIVITY
RMFT.DEGF                    74 : RMF TEMPERATURE
RMC .OHMM                   2.3 : MUD CAKE RESISTIVITY
RMCT.DEGF                    74 : RMC TEMPERATURE
RMFS.                  MEASURED : RMF SOURCE
RMCS.                           : RMC SOURCE
RMBH.OHMM                   1.5 : MUD RESISTIVITY AT BHT
BHT .DEGF                    97 : BOTTOM HOLE TEMPERATURE
TIMC.                           : TIME CIRCULATION STOPPED
TIML.                           : TIME LOGGER ON BOTTOM
TMAX.DEGF                    97 : MAXIMUM RECORDED TEMPERATURE
UNIT.                    L-5172 : EQUIPMENT NUMBER
BASE.                      W.F. : BASE LOCATION
ENG .             ADAMS & BAKER : RECORDED BY
WIT .                   MR. NIX : WITNESSED BY
~Curve Information -----------------------------------------
DEPT.F          :DEPTH
CILD.MMHO       :
ILD.OHMM        :
ROP.FT/HR       :
SN.OHMM         :
SP.MV           :
~ASCII ------------------------------------------------------
# ...
1425.50000      358.42970        2.78096        -999.25        3.12579      -41.86552
1426.00000      357.72787        2.78179        -999.25        3.11274      -42.16193
1426.50000      357.03599        2.78262        -999.25        3.10008      -41.85713
1427.00000      356.33417        2.78345        -999.25        3.17448      -42.45413
1427.50000      355.50590        2.78445        -999.25        3.23603      -43.05113
1428.00000      354.80407        2.78528        -999.25        3.24757      -43.34670
1428.50000      354.11219        2.78611        -999.25        3.22499      -43.64310
1429.00000      353.41037        2.78694        -999.25        3.20241      -43.63890
1429.50000      352.71848        2.78777        -999.25        3.18459      -43.33411
1430.00000      353.04051        2.78860        -999.25        3.18542      -42.42811
1430.50000      353.36254        2.78943        -999.25        3.18625      -41.52211
1431.00000      353.69451        2.79264        -999.25        3.18709      -41.81851
1431.50000      354.01654        2.79665        -999.25        3.18792      -42.41552
1432.00000      354.33857        2.80066        -999.25        3.18875      -42.41132
1432.50000      354.66060        2.80427        -999.25        3.18799      -41.50532
1433.00000      354.99257        2.80827        -999.25        3.18168      -40.59933
1433.50000      355.31460        2.81228        -999.25        3.17537      -40.29369
1434.00000      355.63663        2.81589        -999.25        3.16906      -39.38769
1434.50000      356.03101        2.81989        -999.25        3.16275      -38.48170
1435.00000      356.35304        2.82390        -999.25        3.15604      -38.47750
1435.50000      356.67507        2.82751        -999.25        3.14972      -38.47330
1436.00000      356.65913        2.83151        -999.25        3.14341      -38.46910
1436.50000      356.11635        2.83552        -999.25        3.13710      -38.76551
1437.00000      353.19784        2.83913        -999.25        3.12937      -39.06191
1437.50000      348.69881        2.85798        -999.25        3.12306      -39.35831
1438.00000      346.41648        2.87627        -999.25        3.13024      -39.65471
1438.50000      347.47409        2.89417        -999.25        3.15726      -40.25172
1439.00000      348.54164        2.91246        -999.25        3.18468      -41.44908
1439.50000      349.59926        2.91527        -999.25        3.23313      -42.34668
1440.00000      352.38648        2.89587        -999.25        3.31332      -43.24429
1440.50000      356.33673        2.87646        -999.25        3.33518      -44.14189
1441.00000      360.28698        2.85705        -999.25        3.27014      -45.34009
1441.50000      365.02528        2.83725        -999.25        3.20471      -47.13949
1442.00000      368.97553        2.81784        -999.25        3.15355      -47.13530
1442.50000      368.49239        2.79843        -999.25        3.12383      -45.92870
1443.00000      368.00925        2.77903        -999.25        3.09410      -42.91850
1443.50000      365.84620        2.77430        -999.25        3.06438      -40.81011
1444.00000      363.69309        2.77990        -999.25        3.03505      -40.20471
1444.50000      361.53004        2.78549        -999.25        3.02001      -40.19967
1445.00000      361.34512        2.79108        -999.25        3.06489      -40.79668
1445.50000      361.66715        2.79668        -999.25        3.12762      -41.09308
1446.00000      361.97923        2.80227        -999.25        3.21655      -41.38948
1446.50000      362.29132        2.80786        -999.25        3.19794      -41.98648
1447.00000      362.60341        2.81306        -999.25        3.08901      -42.58349
1447.50000      362.92544        2.81009        -999.25        3.02001      -43.18049
1448.00000      363.62520        2.79187        -999.25        3.03790      -43.77749
1448.50000      366.32574        2.77326        -999.25        3.05619      -44.37449
1449.00000      368.57619        2.75464        -999.25        3.07409      -45.27210
1449.50000      370.82665        2.73603        -999.25        3.09238      -45.86910
1450.00000      372.29369        2.63911        -999.25        2.98940      -46.70618
1450.50000      374.54191        2.62046        -999.25        2.93616      -46.10236
1451.00000      376.79013        2.60181        -999.25        2.88252      -46.09818
1451.50000      379.03834        2.58236        -999.25        2.82928      -46.39340
1452.00000      382.50800        2.55934        -999.25        2.79791      -46.68862
1452.50000      387.82473        2.53632        -999.25        2.85401      -47.88204
1453.00000      393.13152        2.51329        -999.25        2.91011      -49.37486
1453.50000      395.75709        2.49027        -999.25        2.97711      -51.16708
1454.00000      394.35091        2.47218        -999.25        3.02446      -53.25870
1454.50000      387.41346        2.47301        -999.25        3.06943      -56.24852
1455.00000      379.08852        2.50486        -999.25        3.11440      -58.34014
1455.50000      372.15107        2.58363        -999.25        3.17447      -56.53956
1456.00000      365.77966        2.66239        -999.25        3.29459      -53.24198
1456.50000      361.65253        2.74076        -999.25        3.37495      -51.14200
1457.00000      357.52540        2.81952        -999.25        3.29506      -49.94022
1457.50000      357.90669        2.82234        -999.25        3.21081      -48.13964
1458.00000      359.41013        2.78898        -999.25        3.12655      -46.33822
1458.50000      363.49547        2.75562        -999.25        3.06672      -46.03464
1459.00000      368.22630        2.71566        -999.25        3.05204      -45.43166
1459.50000      372.95713        2.68270        -999.25        3.03697      -45.12808
1460.00000      377.68796        2.64934        -999.25        3.02230      -46.62090
1460.50000      378.64522        2.61598        -999.25        3.00723      -47.81432
1461.00000      376.41757        2.61403        -999.25        2.99255      -47.81014
1461.50000      373.62112        2.63235        -999.25        2.97748      -46.30896
1462.00000      370.83460        2.65108        -999.25        2.96281      -44.20898
1462.50000      368.03815        2.66941        -999.25        3.02567      -43.60600
1463.00000      365.54954        2.68773        -999.25        3.08853      -44.79942
1463.50000      364.25259        2.70646        -999.25        3.16428      -45.99284
1464.00000      362.96557        2.72853        -999.25        3.11103      -47.18625
1464.50000      361.66861        2.74726        -999.25        3.05739      -48.08027
1465.00000      360.30215        2.76558        -999.25        3.12701      -48.97346
1465.50000      358.82645        2.77795        -999.25        3.22725      -48.96928
1466.00000      357.35075        2.78832        -999.25        3.24796      -49.26450
1466.50000      355.87504        2.79910        -999.25        3.24879      -48.96092
1467.00000      354.78663        2.80987        -999.25        3.24963      -49.55554
1467.50000      354.27418        2.82064        -999.25        3.25046      -49.55136
1468.00000      353.65527        2.83102        -999.25        3.25129      -50.14597
1468.50000      353.14282        2.84179        -999.25        3.25229      -49.84239
1469.00000      352.62044        2.85472        -999.25        3.25312      -49.83821
1469.50000      352.10800        2.86509        -999.25        3.25396      -49.53463
1470.00000      351.59555        2.87587        -999.25        3.25479      -48.93165
1470.50000      351.08310        2.88664        -999.25        3.25562      -48.62807
1471.00000      350.57065        2.89702        -999.25        3.25646      -48.32449
1471.50000      349.50210        2.90779        -999.25        3.26961      -48.32031
1472.00000      346.24885        2.91856        -999.25        3.30106      -48.01590
