~Version ---------------------------------------------------
VERS. 2.0 : CWLS LOG ASCII STANDARD - VERSION 2.0
WRAP. NO  : One line per depth step
DLM . SPACE : Column Data Section Delimiter
~Well ------------------------------------------------------
STRT.F         98.5 : START DEPTH
STOP.F       1003.5 : STOP DEPTH
STEP.F          0.5 : STEP
NULL.       -999.25 : NULL VALUE
COMP.                       WALSH & WATTS : COMPANY
WELL.                          SALMON D 8 : WELL
FLD .                          OLD NOCOMA : FIELD
CNTY.                            MONTAGUE : COUNTY
STAT.                               TEXAS : STATE
CTRY.                                 USA : COUNTRY
SEC .                                     : SECTION
TWP .                                     : TOWNSHIP
RGE .                                     : RANGE
LOC .                          OLD NOCOMA : LOCATION
EKB .F                          : ELEVATION KELLY BUSHING
EDF .F                      855 : ELEVATION DERRICK FLOOR
EGL .F                          : ELEVATION GROUND LEVEL
PDAT.                        RT : PERMANENT DATUM
EPD .                           : ELEVATION PERMANENT DATUM
APD .                         4 : ABOVE PERMANENT DATUM
LMF .                           : LOG MEASURED FROM
DMF .                           : DRILLING MEASURED FROM
API .            42337016420000 : API NUMBER
UWI .            42337016420000 : UWI NUMBER
DIGC.                     NthDS : DIGITIZING COMPANY
~Params ----------------------------------------------------
SRVC.              SCHLUMBERGER : LOGGING COMPANY
LOG .                        EL : LOG
DATE.                1948-12-15 : RUN DATE
RUN .                         1 : RUN NUMBER
TDD .F                          : TOTAL DEPTH DRILLER
TDL .F                          : TOTAL DEPTH LOGGER
BOTL.F                     1005 : BOTTOM LOGGED INTERVAL
TOPL.F                     1004 : TOP LOGGED INTERVAL
CSGS.IN                         : CASING SIZE
CSGD.F                          : CASING DRILLER
CSGL.F                          : CASING LOGGER
BS  .IN                       9 : BIT SIZE
MUD .                   AQUAGEL : MUD TYPE
MUDD.                      10.2 : MUD DENSITY
MUDV.                        40 : MUD VISCOSITY
PH  .                           : MUD PH
FL  .                           : FLUID LOSS
MUDS.                           : SOURCE OF SAMPLE
RM  .OHMM                    .8 : MUD RESISTIVITY
RMT .DEGF                    65 : RM TEMPERATURE
RMF .OHMM                       : MUD FILTRATE RESISTIVITY
RMFT.DEGF                       : RMF TEMPERATURE
RMC .OHMM                       : MUD CAKE RESISTIVITY
RMCT.DEGF                       : RMC TEMPERATURE
RMFS.                           : RMF SOURCE
RMCS.                           : RMC SOURCE
RMBH.OHMM                       : MUD RESISTIVITY AT BHT
BHT .DEGF                       : BOTTOM HOLE TEMPERATURE
TIMC.                           : TIME CIRCULATION STOPPED
TIML.                           : TIME LOGGER ON BOTTOM
TMAX.DEGF                       : MAXIMUM RECORDED TEMPERATURE
UNIT.                       201 : EQUIPMENT NUMBER
BASE.                           : BASE LOCATION
ENG .                    LITTLE : RECORDED BY
WIT .                 MR. WATTS : WITNESSED BY
~Curve Information -----------------------------------------
DEPT.F          :DEPTH
ILD.OHMM        :
LAT.OHMM        :
SN.OHMM         :
SP.MV           :
~ASCII ------------------------------------------------------
# ...
271.00000       11.54375        8.31213        8.82232      -43.58142
271.50000       10.25268        8.49497        8.58839      -43.19647
272.00000        9.50000        8.67692        8.39286      -42.81152
272.50000        8.87500        8.89970        8.43750      -42.42657
273.00000        8.54553        9.18195        8.48214      -42.04162
273.50000        8.29107        9.46509        8.35089      -41.65310
274.00000        8.03571        9.74733        8.21964      -41.37508
274.50000        7.51518       10.02958        8.08839      -41.51766
275.00000        7.23214       10.02958        8.10625      -41.65667
275.50000        7.25803        9.64881        8.22411      -41.82776
276.00000        7.44821        9.40828        8.34107      -41.97033
276.50000        7.63661        9.26006        8.45893      -42.10934
277.00000        7.82411        9.10296        8.51786      -42.25191
277.50000        8.01250        8.90769        8.56250      -42.39449
278.00000        8.23661        8.71242        8.67321      -42.53350
278.50000        8.51607        8.51716        8.80089      -42.67607
279.00000        8.69911        8.32189        8.90893      -42.81865
279.50000        8.68661        8.18077        8.80982      -42.95766
280.00000        8.58214        8.25444        8.61607      -43.10023
280.50000        8.47678        8.32810        8.28125      -43.00756
281.00000        8.39286        8.40266        8.11250      -42.88637
281.50000        8.39286        8.47633        7.90178      -42.76518
282.00000        8.25893        8.59704        7.56696      -42.64399
282.50000        8.03571        8.78698        7.44018      -42.52281
283.00000        7.89286        8.97692        7.32143      -42.39805
283.50000        8.07143        8.98935        7.27678      -42.27687
284.00000        8.25000        8.88284        7.38839      -42.15568
284.50000        8.48661        8.77633        7.76786      -42.22696
285.00000        8.95714        8.66982        8.21428      -43.05746
285.50000        9.42678        8.56331        8.68661      -44.05548
286.00000        9.99018        8.56952        9.37500      -44.95370
286.50000       10.38660        8.64941        9.94910      -45.95884
287.00000       10.73393        8.49497       10.19910      -46.96043
287.50000       10.80357        7.98816       10.23393      -47.57350
288.00000       11.00446        7.45562       10.26785      -46.62181
288.50000       12.23214        7.01183        9.94910      -45.67013
289.00000       14.46428        6.74556        9.89821      -44.95013
289.50000       15.71428        6.52367        9.95000      -45.14974
290.00000       14.93660        6.45000        9.70268      -45.34578
290.50000       13.57143        6.59734        9.64286      -45.58459
291.00000       11.78571        6.74556        9.68125      -45.08914
291.50000        9.59821        6.89379        8.97946      -44.42261
292.00000        8.07500        7.31361        8.27768      -43.75251
292.50000        6.78571        7.80177        7.78928      -43.08597
293.00000        6.69643        8.25444        7.58482      -42.41588
293.50000        6.94018        8.60148        7.41518      -42.17350
294.00000        7.18303        8.56065        7.24464      -41.93112
294.50000        7.15178        8.52071        7.08036      -41.68518
295.00000        7.05089        8.22515        6.92411      -41.44281
295.50000        6.95000        7.92870        6.76786      -41.42855
296.00000        6.84911        7.75384        6.61161      -41.52835
296.50000        6.74821        7.65887        6.49821      -41.63172
297.00000        6.64732        7.56302        6.44821      -41.73508
297.50000        6.63125        7.49556        6.39911      -41.83489
298.00000        6.67232        7.43521        6.34911      -41.93825
298.50000        6.66696        7.37485        6.30000      -42.03805
299.00000        6.59196        7.31450        6.25000      -41.88122
299.50000        6.51786        7.24881        6.13839      -41.65667
300.00000        6.44375        7.17692        6.02678      -41.43568
300.50000        6.34314        7.00118        5.88235      -40.97419
301.00000        6.26827        6.92929        5.97148      -40.79526
301.50000        6.28788        6.85739        6.06060      -40.79526
302.00000        6.36809        6.78461        5.98663      -40.79526
302.50000        6.54189        6.71272        5.91176      -40.79526
303.00000        6.85383        6.63994        5.83779      -40.79526
303.50000        7.15953        6.56805        5.83601      -40.79526
304.00000        7.45722        6.51834        5.94207      -40.78811
304.50000        7.75401        6.50858        6.04813      -40.74158
305.00000        8.05080        6.65680        6.15419      -40.69864
305.50000        8.25936        6.66923        6.23440      -40.65212
306.00000        8.11052        6.47929        6.21390      -40.60918
306.50000        8.18449        6.28935        6.19340      -40.56266
307.00000        8.15330        6.18639        6.17290      -40.51972
307.50000        8.09536        6.14201        6.15151      -40.47320
308.00000        8.03654        6.17308        6.13101      -40.47677
308.50000        7.97861        6.25296        6.11052      -40.66286
309.00000        7.84314        6.29112        6.09002      -40.85252
309.50000        7.39750        6.26272        6.06863      -41.03860
310.00000        6.95187        6.23521        5.93315      -41.00282
310.50000        6.37255        6.23698        5.71925      -40.63065
311.00000        5.85829        6.35858        5.50624      -40.25848
311.50000        5.73797        6.47929        5.29323      -39.88632
312.00000        5.61854        6.60000        5.08021      -39.51415
312.50000        5.49822        6.72160        5.00980      -39.36385
313.00000        5.35472        6.78284        4.92513      -39.36385
313.50000        5.27362        6.81923        4.85472      -39.36385
314.00000        5.34759        6.74556        4.83244      -39.36385
314.50000        5.42157        6.59734        4.88235      -39.76107
315.00000        5.49643        6.45000        5.10606      -40.25848
315.50000        5.69429        6.30177        5.44563      -40.75590
316.00000        5.97504        6.18018        5.78431      -41.12807
316.50000        6.25579        6.09674        6.12388      -40.99924
317.00000        6.53565        6.01331        6.43226      -40.84536
317.50000        6.81640        5.92988        6.69162      -41.06365
318.00000        7.11408        5.84734        6.95187      -41.51097
318.50000        7.47861        5.76390        7.09536      -41.95828
319.00000        7.84314        5.68047        7.23797      -42.40560
319.50000        7.92424        5.84467        7.38146      -42.85292
320.00000        8.00535        6.00887        7.52495      -43.30023
320.50000        8.02139        6.17396        7.66845      -43.74755
321.00000        8.02139        6.33816        7.82353      -43.89785
321.50000        7.89394        6.50237        7.99822      -43.59725
322.00000        7.73529        6.60976        8.17290      -43.30023
322.50000        7.57576        6.67988        8.34670      -42.80282
323.00000        7.76114        6.75000        8.52139      -42.30540
323.50000        7.94741        6.82012        8.43761      -41.80799
324.00000        7.81551        6.97633        8.20499      -41.51097
324.50000        7.47326        7.15384        7.91622      -41.51097
325.00000        7.13012        7.33136        7.62834      -41.51097
325.50000        6.91622        7.31183        7.39750      -41.51097
326.00000        6.68449        7.25592        7.39750      -41.51097
326.50000        6.23886        7.20089        7.29055      -41.51097
327.00000        5.79323        7.32781        7.02317      -41.47518
327.50000        5.70410        7.50000        6.75579      -41.42866
328.00000        5.51782        7.67219        6.51604      -41.38572
