~Version ---------------------------------------------------
VERS. 2.0 : CWLS LOG ASCII STANDARD - VERSION 2.0
WRAP. NO  : One line per depth step
DLM . SPACE : Column Data Section Delimiter
~Well ------------------------------------------------------
STRT.F          100 : START DEPTH
STOP.F       1786.5 : STOP DEPTH
STEP.F          0.5 : STEP
NULL.       -999.25 : NULL VALUE
COMP.                 WALSH & WATTS, INC. : COMPANY
WELL.                         SALMON E 41 : WELL
FLD .                        NORTH NOCONA : FIELD
CNTY.                            MONTAGUE : COUNTY
STAT.                               TEXAS : STATE
CTRY.                                 USA : COUNTRY
SEC .                                     : SECTION
TWP .                                     : TOWNSHIP
RGE .                                     : RANGE
LOC . 300' N OF NO. 40
150' W OF EL & 385' E OF NO. 87
F. ROBERTSON SURVEY : LOCATION
EKB .F                          : ELEVATION KELLY BUSHING
EDF .F                          : ELEVATION DERRICK FLOOR
EGL .F                      878 : ELEVATION GROUND LEVEL
PDAT.              GROUND LEVEL : PERMANENT DATUM
EPD .                       878 : ELEVATION PERMANENT DATUM
APD .                           : ABOVE PERMANENT DATUM
LMF .                        KB : LOG MEASURED FROM
DMF .                        KB : DRILLING MEASURED FROM
API .            42337037790000 : API NUMBER
UWI .            42337037790000 : UWI NUMBER
DIGC.                     NthDS : DIGITIZING COMPANY
~Params ----------------------------------------------------
SRVC.                LANE WELLS : LOGGING COMPANY
LOG .                       IEL : LOG
DATE.                1965-12-01 : RUN DATE
RUN .                         1 : RUN NUMBER
TDD .F                     1790 : TOTAL DEPTH DRILLER
TDL .F                     1791 : TOTAL DEPTH LOGGER
BOTL.F                     1787 : BOTTOM LOGGED INTERVAL
TOPL.F                      100 : TOP LOGGED INTERVAL
CSGS.IN                         : CASING SIZE
CSGD.F                          : CASING DRILLER
CSGL.F                          : CASING LOGGER
BS  .IN                       9 : BIT SIZE
MUD .                       GEL : MUD TYPE
MUDD.                        10 : MUD DENSITY
MUDV.                        80 : MUD VISCOSITY
PH  .                       9.0 : MUD PH
FL  .                       6.8 : FLUID LOSS
MUDS.                       PIT : SOURCE OF SAMPLE
RM  .OHMM                  1.95 : MUD RESISTIVITY
RMT .DEGF                    74 : RM TEMPERATURE
RMF .OHMM                   1.5 : MUD FILTRATE RESISTIVITY
RMFT.DEGF                    74 : RMF TEMPERATURE
RMC .OHMM                   2.3 : MUD CAKE RESISTIVITY
RMCT.DEGF                    74 : RMC TEMPERATURE
RMFS.                  MEASURED : RMF SOURCE
RMCS.                           : RMC SOURCE
RMBH.OHMM                   1.5 : MUD RESISTIVITY AT BHT
BHT .DEGF                    97 : BOTTOM HOLE TEMPERATURE
TIMC.                           : TIME CIRCULATION STOPPED
TIML.                           : TIME LOGGER ON BOTTOM
TMAX.DEGF                    97 : MAXIMUM RECORDED TEMPERATURE
UNIT.                    L-5172 : EQUIPMENT NUMBER
BASE.                      W.F. : BASE LOCATION
ENG .             ADAMS & BAKER : RECORDED BY
WIT .                   MR. NIX : WITNESSED BY
~Curve Information -----------------------------------------
DEPT.F          :DEPTH
CILD.MMHO       :
ILD.OHMM        :
ROP.FT/HR       :
SN.OHMM         :
SP.MV           :
~ASCII ------------------------------------------------------
# ...
765.00000      272.17020        3.78112        -999.25        4.61776      -37.13770
765.50000      276.11286        3.70263        -999.25        4.45959      -36.23011
766.00000      279.06249        3.66397        -999.25        4.42093      -35.92131
766.50000      278.03999        3.62531        -999.25        4.46195      -35.01371
767.00000      275.02554        3.70617        -999.25        4.50297      -35.00431
767.50000      270.03093        3.70736        -999.25        4.46431      -34.99490
768.00000      267.02237        3.74838        -999.25        4.38582      -34.68610
768.50000      265.99987        3.82924        -999.25        4.38700      -34.07790
769.00000      265.97041        3.87026        -999.25        4.42802      -34.06850
769.50000      266.93398        3.83160        -999.25        4.46904      -34.35849
770.00000      267.89754        3.79295        -999.25        4.51006      -33.74841
770.50000      269.85414        3.79413        -999.25        4.51125      -32.84082
771.00000      272.80377        3.79531        -999.25        4.47259      -32.23262
771.50000      277.73357        3.75665        -999.25        4.35425      -31.02564
772.00000      282.66926        3.63831        -999.25        4.27575      -30.41744
772.50000      285.61889        3.59966        -999.25        4.15742      -30.10864
773.00000      288.56852        3.56100        -999.25        4.11876      -30.39863
773.50000      289.53208        3.52234        -999.25        4.08010      -30.98801
774.00000      289.50262        3.48368        -999.25        4.04144      -31.27800
774.50000      289.47316        3.48487        -999.25        4.04286      -30.96920
775.00000      288.45066        3.56596        -999.25        4.08388      -29.76221
775.50000      286.43513        3.52731        -999.25        4.12490      -29.45341
776.00000      285.41264        3.60817        -999.25        4.16593      -29.74340
776.50000      286.37031        3.56951        -999.25        4.16711      -30.03339
777.00000      288.32691        3.57069        -999.25        4.16829      -30.02398
777.50000      291.27654        3.53203        -999.25        4.12963      -30.01458
778.00000      295.21920        3.49338        -999.25        4.13082      -30.30457
778.50000      296.18277        3.45472        -999.25        4.05232      -30.29516
779.00000      300.12543        3.45590        -999.25        3.97382      -30.58515
779.50000      304.06809        3.37740        -999.25        3.89532      -30.87514
780.00000      308.01075        3.33874        -999.25        3.85666      -31.16513
780.50000      309.96734        3.26025        -999.25        3.85808      -31.45512
781.00000      313.91000        3.26143        -999.25        3.81919      -32.04450
781.50000      318.83980        3.22277        -999.25        3.74093      -32.33449
782.00000      321.78943        3.14427        -999.25        3.70203      -32.62260
782.50000      326.72512        3.14546        -999.25        3.66337      -32.61320
783.00000      330.66778        3.10680        -999.25        3.62472      -32.90319
783.50000      335.60347        3.06814        -999.25        3.58606      -32.89378
784.00000      339.54613        2.98964        -999.25        3.50756      -32.88437
784.50000      341.50273        2.95098        -999.25        3.46890      -32.27618
785.00000      343.45933        2.95217        -999.25        3.43048      -30.76979
785.50000      344.42290        2.91351        -999.25        3.43166      -30.46099
786.00000      343.40040        2.91493        -999.25        3.43285      -31.34977
786.50000      342.37791        2.91611        -999.25        3.43403      -31.93916
787.00000      341.34952        2.95713        -999.25        3.43521      -31.92975
787.50000      338.34096        2.95831        -999.25        3.43639      -32.21974
788.00000      337.31847        2.99934        -999.25        3.47383      -32.80913
788.50000      335.30294        3.00052        -999.25        3.51127      -33.39851
789.00000      334.28044        3.04154        -999.25        3.51962      -33.68850
789.50000      333.25795        3.00288        -999.25        3.52080      -33.37970
790.00000      334.22152        3.00406        -999.25        3.52198      -33.37029
790.50000      337.17114        3.00525        -999.25        3.52316      -33.36089
791.00000      339.12774        2.96659        -999.25        3.52435      -33.05209
791.50000      340.08542        2.96777        -999.25        3.52553      -33.64147
792.00000      339.06292        2.96895        -999.25        3.48687      -34.82965
792.50000      336.05436        2.97013        -999.25        3.52789      -36.31722
793.00000      330.06671        2.97132        -999.25        3.52908      -38.10418
793.50000      324.07906        3.01234        -999.25        3.57010      -39.59175
794.00000      317.09838        3.09320        -999.25        3.61112      -38.68416
794.50000      308.13164        3.17406        -999.25        3.73182      -37.17778
795.00000      301.14506        3.29476        -999.25        3.85276      -36.56958
795.50000      297.14348        3.33602        -999.25        3.89378      -35.95950
796.00000      298.10704        3.45672        -999.25        3.85512      -35.65070
796.50000      301.05667        3.51567        -999.25        3.78977      -36.24009
797.00000      305.99236        3.48100        -999.25        3.72482      -36.53008
797.50000      312.91412        3.41804        -999.25        3.84871      -36.22128
798.00000      320.82890        3.31365        -999.25        3.91682      -36.51126
798.50000      328.74368        3.20965        -999.25        3.80406      -36.20246
799.00000      332.68634        3.10526        -999.25        3.69130      -35.29487
799.50000      334.64294        3.06660        -999.25        3.63113      -32.59091
800.00000      338.61775        2.93088        -999.25        3.60894      -31.79671
800.50000      338.58828        2.89245        -999.25        3.62685      -31.78728
801.00000      339.55185        2.93323        -999.25        3.56588      -31.47786
801.50000      340.50952        2.93440        -999.25        3.50452      -31.76843
802.00000      339.48703        2.89597        -999.25        3.44355      -32.65899
802.50000      338.46453        2.89715        -999.25        3.41031      -32.94956
803.00000      337.44204        2.89856        -999.25        3.39794      -33.24013
803.50000      336.41954        2.93934        -999.25        3.41905      -32.62883
804.00000      336.39008        2.94051        -999.25        3.43616      -33.21939
804.50000      334.37455        2.94169        -999.25        3.55687      -35.30993
805.00000      329.37993        2.98246        -999.25        3.63773      -36.80047
805.50000      321.40622        3.02324        -999.25        3.67875      -37.99102
806.00000      311.44645        3.10679        -999.25        3.75961      -38.28159
806.50000      303.47273        3.19074        -999.25        3.80063      -37.07219
807.00000      297.48508        3.27429        -999.25        3.88149      -36.46278
807.50000      294.47653        3.37471        -999.25        4.08211      -35.85337
808.00000      295.44009        3.38578        -999.25        4.16297      -36.44393
808.50000      297.39669        3.42656        -999.25        4.12432      -37.63448
809.00000      301.33935        3.38813        -999.25        4.12550      -38.52504
809.50000      308.26110        3.38931        -999.25        4.16652      -38.51373
810.00000      317.16892        3.23207        -999.25        4.16770      -37.90432
810.50000      327.06976        3.19364        -999.25        4.12905      -36.99491
811.00000      334.98455        3.07601        -999.25        3.85135      -36.68549
811.50000      338.92721        2.95837        -999.25        3.73301      -37.57605
812.00000      338.89775        2.91994        -999.25        3.73419      -37.86662
