~Version ---------------------------------------------------
VERS. 2.0 : CWLS LOG ASCII STANDARD - VERSION 2.0
WRAP. NO  : One line per depth step
DLM . SPACE : Column Data Section Delimiter
~Well ------------------------------------------------------
STRT.F          100 : START DEPTH
STOP.F       2271.5 : STOP DEPTH
STEP.F          0.5 : STEP
NULL.       -999.25 : NULL VALUE
COMP.                       WALSH & WATTS : COMPANY
WELL.                        SALMON E 24  : WELL
FLD .                               NORTH : FIELD
CNTY.                            MONTAGUE : COUNTY
STAT.                               TEXAS : STATE
CTRY.                                 USA : COUNTRY
SEC .                                     : SECTION
TWP .                                     : TOWNSHIP
RGE .                                     : RANGE
LOC .                 SW CORNER OF LEAGUE : LOCATION
EKB .F                          : ELEVATION KELLY BUSHING
EDF .F                          : ELEVATION DERRICK FLOOR
EGL .F                      850 : ELEVATION GROUND LEVEL
PDAT.                        GL : PERMANENT DATUM
EPD .                       850 : ELEVATION PERMANENT DATUM
APD .                         5 : ABOVE PERMANENT DATUM
LMF .                        RT : LOG MEASURED FROM
DMF .                        RT : DRILLING MEASURED FROM
API .            42337038630000 : API NUMBER
UWI .                           : UWI NUMBER
DIGC.                     NthDS : DIGITIZING COMPANY
~Params ----------------------------------------------------
SRVC.               HALLIBURTON : LOGGING COMPANY
LOG .                        EL : LOG
DATE.                1950-09-25 : RUN DATE
RUN .                         1 : RUN NUMBER
TDD .F                     2272 : TOTAL DEPTH DRILLER
TDL .F                     2272 : TOTAL DEPTH LOGGER
BOTL.F                     2272 : BOTTOM LOGGED INTERVAL
TOPL.F                          : TOP LOGGED INTERVAL
CSGS.IN                         : CASING SIZE
CSGD.F                          : CASING DRILLER
CSGL.F                          : CASING LOGGER
BS  .IN                       9 : BIT SIZE
MUD .        WATER BASE AQUAGEL : MUD TYPE
MUDD.                       9.8 : MUD DENSITY
MUDV.                        39 : MUD VISCOSITY
PH  .                           : MUD PH
FL  .                           : FLUID LOSS
MUDS.                           : SOURCE OF SAMPLE
RM  .OHMM                   2.3 : MUD RESISTIVITY
RMT .DEGF                    70 : RM TEMPERATURE
RMF .OHMM                       : MUD FILTRATE RESISTIVITY
RMFT.DEGF                       : RMF TEMPERATURE
RMC .OHMM                       : MUD CAKE RESISTIVITY
RMCT.DEGF                       : RMC TEMPERATURE
RMFS.                           : RMF SOURCE
RMCS.                           : RMC SOURCE
RMBH.OHMM                       : MUD RESISTIVITY AT BHT
BHT .DEGF                       : BOTTOM HOLE TEMPERATURE
TIMC.                           : TIME CIRCULATION STOPPED
TIML.                           : TIME LOGGER ON BOTTOM
TMAX.DEGF                       : MAXIMUM RECORDED TEMPERATURE
UNIT.                           : EQUIPMENT NUMBER
BASE.                           : BASE LOCATION
ENG .                  HARRISON : RECORDED BY
WIT .                    DAWSON : WITNESSED BY
~Curve Information -----------------------------------------
DEPT.F          :DEPTH
ILD.OHMM        :
SN.OHMM         :
SP.MV           :
~ASCII ------------------------------------------------------
# ...
392.00000        9.51586        4.25709      -23.98411
392.50000        9.25042        4.59098      -23.99083
393.00000        9.02254        5.00835      -23.99754
393.50000        8.85976        5.25876      -24.00426
394.00000        8.75709        5.50918      -24.34689
394.50000        8.71870        5.75960      -24.01903
395.00000        8.68113        6.01002      -24.69489
395.50000        8.93155        6.17696      -24.70160
396.00000        9.59933        6.26043      -25.04289
396.50000       10.26711        6.34391      -25.38417
397.00000       11.18531        6.42738      -25.39089
397.50000       12.52087        6.34391      -25.39760
398.00000       13.41152        6.09349      -25.40432
398.50000       13.85642        5.67613      -25.41103
399.00000       13.26043        5.50918      -25.41775
399.50000       12.48414        5.25876      -25.75903
400.00000       11.88063        5.25876      -25.09288
400.50000       10.88898        5.09182      -25.09959
401.00000        9.97913        5.25876      -25.77545
401.50000        9.12604        5.59265      -26.11673
402.00000        8.48664        6.17696      -26.45802
402.50000        8.34724        7.01168      -26.79930
403.00000        9.01502        7.69783      -27.80973
403.50000        9.68280        8.34724      -29.15472
404.00000        9.84975        8.53255      -29.83058
404.50000        9.59432        8.65860      -30.17186
405.00000        9.29299        8.54424      -30.17858
405.50000        8.99165        8.43072      -29.85072
406.00000        8.64190        8.37896      -30.19201
406.50000        8.28047        8.32638      -30.19872
407.00000        7.91903        8.27462      -30.54001
407.50000        7.86310        8.18030      -30.54672
408.00000        7.77963        8.07596      -31.55715
408.50000        7.69616        7.92988      -31.89843
409.00000        7.59182        7.87062      -32.57429
409.50000        7.48163        7.77128      -33.25014
410.00000        7.37229        7.67112      -33.25686
410.50000        7.26210        7.57178      -33.59814
411.00000        7.48664        7.50250      -33.60486
411.50000        7.71118        7.47579      -33.61157
412.00000        7.88481        7.44991      -33.61829
412.50000        7.98163        7.40484      -33.29043
413.00000        8.09683        7.28214      -33.63306
413.50000        8.22204        7.15860      -33.63978
414.00000        7.96661        7.03589      -33.64649
414.50000        7.47078        7.01168      -33.65321
415.00000        6.97496        7.01168      -33.65992
415.50000        6.51085        7.15442      -34.00121
416.00000        6.27212        7.33389      -34.34249
416.50000        6.03422        7.51252      -34.01464
417.00000        5.84307        7.84641      -33.35221
417.50000        5.83389        8.26377      -33.69350
418.00000        5.78714        8.76461      -33.36564
418.50000        5.92654        9.18197      -33.03779
419.00000        6.34391        9.76628      -33.04450
419.50000        8.23956       10.51753      -32.38208
420.00000       11.60267       11.43572      -31.71966
420.50000       16.11018       11.85309      -30.72266
421.00000       18.61435       11.35225      -29.72567
421.50000       20.84056       10.10016      -29.39781
422.00000       19.84724        8.76461      -28.40082
422.50000       18.04925        7.51252      -28.07297
423.00000       15.60935        6.51085      -27.41054
423.50000       11.74541        5.67613      -27.08269
424.00000        8.98748        4.92487      -26.08569
424.50000        7.59599        4.42404      -25.75784
425.00000        6.90067        4.17362      -25.09541
425.50000        6.20451        4.17362      -25.10213
426.00000        5.86394        4.00668      -24.43971
426.50000        5.75960        4.00668      -24.44642
427.00000        5.65526        3.92320      -24.45314
427.50000        5.53339        4.00668      -24.45985
428.00000        5.38648        4.00668      -24.46657
428.50000        5.23873        4.35977      -24.80785
429.00000        5.09182        4.48831      -24.81457
429.50000        4.79716        4.65693      -24.15214
430.00000        4.50250        4.98414      -24.82800
430.50000        4.20785        5.31219      -24.83471
431.00000        4.22955        5.67613      -25.17600
431.50000        4.46077        6.09349      -25.85320
432.00000        5.06427        6.51085      -25.85991
432.50000        5.75960        6.48330      -26.20120
433.00000        6.98414        6.23956      -26.54248
433.50000        8.45325        5.67613      -26.54920
434.00000        9.73873        5.34224      -25.88677
434.50000        9.99582        4.84140      -25.55892
435.00000        9.40484        4.84140      -25.23106
435.50000        8.84808        4.84140      -24.56864
436.00000        8.43072        5.00835      -24.24078
436.50000        8.74791        5.09182      -24.58207
437.00000        9.24875        5.25876      -23.91965
437.50000        9.58347        5.34224      -23.92636
438.00000        9.87646        5.42571      -24.26765
438.50000       10.16945        5.42571      -24.60893
439.00000       10.46244        5.67613      -24.61565
439.50000       10.75542        5.92654      -24.62236
440.00000       11.04841        6.09349      -24.62908
440.50000       11.34140        6.42738      -24.97036
441.00000       11.63439        6.51085      -24.64251
441.50000       11.92738        6.34391      -24.64922
442.00000       11.76961        6.17696      -24.65594
442.50000       10.93489        6.01002      -24.32808
443.00000       10.10016        6.01002      -24.00023
443.50000        9.26544        6.01002      -23.67237
444.00000        8.70868        6.09349      -24.01366
444.50000        8.33806        6.26043      -24.02037
445.00000        9.11686        6.34391      -24.02709
445.50000       10.18364        6.34391      -24.36838
446.00000       10.01669        6.17696      -24.70966
446.50000       10.01669        6.17696      -24.71638
447.00000        9.59933        6.17696      -24.38852
447.50000        9.65192        6.26043      -24.39524
448.00000       10.01669        6.26043      -24.06872
448.50000       10.06344        6.17696      -24.07544
449.00000       10.08347        6.01002      -24.08216
449.50000       10.00000        5.75960      -24.08887
450.00000        9.86394        5.67613      -23.42003
450.50000        9.37896        5.50918      -23.42674
451.00000        9.11352        5.59265      -23.43346
451.50000        8.84808        5.59265      -23.77474
452.00000        9.38481        5.67613      -23.78146
452.50000        9.53088        5.84307      -23.78817
453.00000        9.41736        5.92654      -23.46032
453.50000        9.24875        6.01002      -23.80161
454.00000        8.84808        6.09349      -23.80832
454.50000        8.32304        6.42738      -24.14961
455.00000        8.20451        6.84474      -24.82546
455.50000        9.01502        7.26210      -25.16675
456.00000        9.71953        7.76294      -25.50803
456.50000       10.42320        8.18030      -26.18389
457.00000       11.12771        8.43072      -26.52517
457.50000       11.47746        8.43072      -26.19866
458.00000       11.68614        8.51419      -26.87451
458.50000       11.74541        8.34724      -27.21580
459.00000       11.59265        8.26377      -27.89165
459.50000       11.29799        8.01335      -27.56380
460.00000       11.00334        7.84641      -27.23594
460.50000       10.78213        7.67946      -27.24266
461.00000       10.85142        7.42905      -26.91481
461.50000       10.92070        7.26210      -26.25238
462.00000       10.98080        7.01168      -25.92453
462.50000       11.03756        7.01168      -25.93124
463.00000       11.09432        7.09516      -25.26882
463.50000       11.15108        7.09516      -24.94096
464.00000       11.20617        7.17863      -24.94768
464.50000       11.26878        7.26210      -25.28896
