~Version ---------------------------------------------------
VERS. 2.0 : CWLS LOG ASCII STANDARD - VERSION 2.0
WRAP. NO  : One line per depth step
DLM . SPACE : Column Data Section Delimiter
~Well ------------------------------------------------------
STRT.F          800 : START DEPTH
STOP.F       1756.5 : STOP DEPTH
STEP.F          0.5 : STEP
NULL.       -999.25 : NULL VALUE
COMP.                 WALSH & WATTS, INC. : COMPANY
WELL.                       SALMON D E 6D : WELL
FLD .                             REGULAR : FIELD
CNTY.                            MONTAGUE : COUNTY
STAT.                               TEXAS : STATE
CTRY.                                 USA : COUNTRY
SEC .                                     : SECTION
TWP .                                     : TOWNSHIP
RGE .                                     : RANGE
LOC .  460 FSL 755 FEL
F. ROBERTSON A-620 : LOCATION
EKB .F                      880 : ELEVATION KELLY BUSHING
EDF .F                      878 : ELEVATION DERRICK FLOOR
EGL .F                      874 : ELEVATION GROUND LEVEL
PDAT.                        GL : PERMANENT DATUM
EPD .                       874 : ELEVATION PERMANENT DATUM
APD .                           : ABOVE PERMANENT DATUM
LMF .                        KB : LOG MEASURED FROM
DMF .                        KB : DRILLING MEASURED FROM
API .            42337016430000 : API NUMBER
UWI .            42337016430000 : UWI NUMBER
DIGC.                     NthDS : DIGITIZING COMPANY
~Params ----------------------------------------------------
SRVC.              SCHLUMBERGER : LOGGING COMPANY
LOG .                   CNFD/ML : LOG
DATE.                2005-08-03 : RUN DATE
RUN .                         1 : RUN NUMBER
TDD .F                     1750 : TOTAL DEPTH DRILLER
TDL .F                     1750 : TOTAL DEPTH LOGGER
BOTL.F                     1750 : BOTTOM LOGGED INTERVAL
TOPL.F                      980 : TOP LOGGED INTERVAL
CSGS.IN                       7 : CASING SIZE
CSGD.F                      880 : CASING DRILLER
CSGL.F                      880 : CASING LOGGER
BS  .IN                     6.5 : BIT SIZE
MUD .                       FGM : MUD TYPE
MUDD.                       0.2 : MUD DENSITY
MUDV.                        80 : MUD VISCOSITY
PH  .                        11 : MUD PH
FL  .                         7 : FLUID LOSS
MUDS.                       PIT : SOURCE OF SAMPLE
RM  .OHMM                  1.70 : MUD RESISTIVITY
RMT .DEGF                    70 : RM TEMPERATURE
RMF .OHMM                  1.33 : MUD FILTRATE RESISTIVITY
RMFT.DEGF                    70 : RMF TEMPERATURE
RMC .OHMM                  2.67 : MUD CAKE RESISTIVITY
RMCT.DEGF                    70 : RMC TEMPERATURE
RMFS.                      MEAS : RMF SOURCE
RMCS.                       CAL : RMC SOURCE
RMBH.OHMM                  1.47 : MUD RESISTIVITY AT BHT
BHT .DEGF                    98 : BOTTOM HOLE TEMPERATURE
TIMC.                     2100  : TIME CIRCULATION STOPPED
TIML.                     0300  : TIME LOGGER ON BOTTOM
TMAX.DEGF                    98 : MAXIMUM RECORDED TEMPERATURE
UNIT.                       303 : EQUIPMENT NUMBER
BASE.                   WICHITA : BASE LOCATION
ENG .              DAVID PARKER : RECORDED BY
WIT .              MR. BURLESON : WITNESSED BY
~Curve Information -----------------------------------------
DEPT.F          :DEPTH
CALD.IN         :
DPHI.%          :
GRD.GAPI        :
MINV.OHMM       :
MNOR.OHMM       :
NPHI.%          :
~ASCII ------------------------------------------------------
# ...
1200.00000        5.88468       12.37151       82.37901        5.47163        4.62673       25.84747
1200.50000        5.88064       12.09487       81.89514        5.76730        4.80851       26.12468
1201.00000        5.87702       12.31329       82.25804        5.43262        4.65248       26.12506
1201.50000        5.87762       13.04805       83.77014        5.72517        5.15411       25.83793
1202.00000        5.88387       13.41531       83.25603        6.07780        5.09092       25.49313
1202.50000        5.89012       13.41569       85.22175        5.90772        4.65248       25.01901
1203.00000        5.89274       12.76022       86.42538        5.86170        4.93333       24.97976
1203.50000        5.88125       12.18931       84.57760        6.05673        5.34446       24.54512
1204.00000        5.86956       11.79384       83.90623        6.03411        4.90602       24.60956
1204.50000        5.85786       11.87339       85.00704        5.93971        4.96453       24.26904
1205.00000        5.84637       12.64576       86.49191        6.13475        5.15411       23.86247
1205.50000        5.83468       12.94295       88.77820        6.05673        5.04255       23.60895
1206.00000        5.87782       12.86416       89.95159        5.56056        5.53014       23.35504
1206.50000        5.89516       12.66661       90.12095        5.06361        5.71893       23.21858
1207.00000        5.89516       12.57278       87.70159        5.03787        5.00354       23.25851
1207.50000        5.89516       11.77164       88.18546        5.12992        4.33418       23.31940
1208.00000        5.89516       11.82862       90.01207        5.22120        4.30453       23.41232
1208.50000        5.89516       11.92163       89.46167        5.02694        4.27411       23.50485
1209.00000        5.89516       12.06689       88.91127        4.73049        4.36851       23.78483
1209.50000        5.89516       12.01581       89.66732        4.92553        4.54638       24.34521
1210.00000        5.89516       12.25378       89.81853        5.12056        4.51907       25.02463
1210.50000        5.89516       12.70931       91.89312        5.00042        4.18439       25.15678
1211.00000        5.89516       12.04981       94.05240        4.67042        4.66106       24.91552
1211.50000        5.89516       11.93816       95.56449        4.34042        5.08155       24.36658
1212.00000        5.89516       12.05057       94.69957        4.47070        5.27659       23.94103
1212.50000        5.89516       12.51291       94.65723        5.19858        5.05347       23.69937
1213.00000        5.89254       11.66221       94.50602        5.37411        4.78588       23.34224
1213.50000        5.88931       11.07554       95.41328        5.69553        4.87092       22.90759
1214.00000        5.88609       11.38983       94.20361        6.13475        5.06517       22.41758
1214.50000        5.88286       12.93007       91.69957        5.73297        4.73049       22.22022
1215.00000        5.87964       13.49138       87.49897        6.06297        4.99886       22.31551
1215.50000        5.87621       13.06946       84.37498        6.39297        5.26645       22.45826
1216.00000        5.87742       12.47606       84.52619        6.43666        5.53482       22.80152
1216.50000        5.88165       12.41033       84.67740        6.29077        5.44978       22.89405
1217.00000        5.88569       12.47682       81.65321        6.22056        5.27659       22.89443
1217.50000        5.88972       12.19456       81.65321        6.25957        5.25865       22.91458
1218.00000        5.89395       11.88380       80.20159        6.25177        5.24148       22.97428
1218.50000        5.89798       11.57304       77.78224        6.05673        5.22354       23.07353
1219.00000        5.90222       11.86477       77.90321        6.17375        5.20560       23.17278
1219.50000        5.90625       12.34848       80.55845        6.29077        5.30624       23.48962
1220.00000        5.91048       12.51868       83.77014        6.09574        5.48645       23.75379
1220.50000        5.91452       11.56902       85.36691        6.27985        5.66666       24.01756
1221.00000        5.91169       10.98710       86.96369        6.29077        5.61127       24.28172
1221.50000        5.90706       10.92652       88.55744        6.09574        5.32574       24.47984
1222.00000        5.90242       10.58845       90.38103        6.19326        4.88652       24.99434
1222.50000        5.89798       10.91738       92.54030        5.71893        4.73049       25.33365
1223.00000        5.89637       12.48138       94.38808        5.58865        4.57446       25.11375
1223.50000        5.89980       12.71254       95.66429        5.71893        4.87794       24.57865
1224.00000        5.90302       12.25025       94.65723        6.23850        5.16503       24.27490
1224.50000        5.90625       12.09466       92.01107        6.36879        5.38815       23.97116
1225.00000        5.90948       12.50000       89.61591        6.06531        4.65248       23.59267
1225.50000        5.91331       13.02528       87.21772        5.91163        4.77418       23.21299
1226.00000        5.91653       13.16262       85.28224        6.13475        4.68680       22.90569
1226.50000        5.91996       13.30036       84.01812        5.78368        4.61347       22.57545
1227.00000        5.92319       13.18911       83.19252        5.99588        4.60723       22.22978
1227.50000        5.92641       12.91240       83.31651        5.64950        4.68914       22.30926
1228.00000        5.92964       12.77819       83.16530        6.03723        4.77184       22.38873
1228.50000        5.93286       12.73898       83.06550        5.83829        4.85375       22.41885
1229.00000        5.93810       12.90166       84.61691        5.93191        4.71099       22.51810
1229.50000        5.95060       13.19893       87.65925        5.77042        4.90212       22.78543
1230.00000        5.96331       13.38932       90.57457        5.75482        4.86077       23.08242
1230.50000        5.97581       13.12725       91.33062        5.90070        4.73049       23.30031
1231.00000        5.98851       12.76463       91.63304        5.80319        5.00900       23.63408
1231.50000        5.99698       12.40202       92.04433        5.70567        5.08702       23.94689
1232.00000        5.99939       12.62922       90.80744        5.79460        5.03163       24.15173
1232.50000        6.00181       13.04809       89.89413        6.00680        4.97546       24.74137
1233.00000        6.00403       13.27094       90.27216        6.04113        4.92007       24.74571
1233.50000        6.00645       12.94474       90.12095        5.43262        4.99028       24.53411
1234.00000        6.00887       12.82399       88.10381        6.76900        5.60425       24.16749
1234.50000        6.01129       12.84654       86.96369        6.81737        5.74468       23.80047
1235.00000        6.01371       13.22060       89.31349        6.52482        5.22432       23.56079
1235.50000        6.01613       13.50323       89.51611        6.00446        5.20950       23.51173
1236.00000        6.01835       13.41889       88.30643        6.33758        5.23758       23.45287
1236.50000        6.02056       13.20433       88.96570        5.97872        4.91773       23.40381
1237.00000        6.02278       12.46961       90.06651        6.05673        4.81553       23.21120
1237.50000        6.02480       12.81715       89.51611        6.13475        4.95751       22.92248
1238.00000        6.02702       13.87841       87.70159        5.95453        4.98404       22.63377
1238.50000        6.02923       14.31423       87.70159        5.80475        4.88652       22.50245
1239.00000        6.03145       12.96871       87.70159        5.79148        4.78900       22.74012
1239.50000        6.03367       11.83814       87.70159        5.68929        4.72269       22.51626
