~Version ---------------------------------------------------
VERS. 2.0 : CWLS LOG ASCII STANDARD - VERSION 2.0
WRAP. NO  : One line per depth step
DLM . SPACE : Column Data Section Delimiter
~Well ------------------------------------------------------
STRT.F          100 : START DEPTH
STOP.F       1218.0 : STOP DEPTH
STEP.F          0.5 : STEP
NULL.       -999.25 : NULL VALUE
COMP.                       WALSH & WATTS : COMPANY
WELL.                          SALMON A 6 : WELL
FLD .                          OLD NOCONA : FIELD
CNTY.                            MONTAGUE : COUNTY
STAT.                               TEXAS : STATE
CTRY.                                 USA : COUNTRY
SEC .                                     : SECTION
TWP .                                     : TOWNSHIP
RGE .                                     : RANGE
LOC .                                     : LOCATION
EKB .F                          : ELEVATION KELLY BUSHING
EDF .F                      884 : ELEVATION DERRICK FLOOR
EGL .F                      878 : ELEVATION GROUND LEVEL
PDAT.                           : PERMANENT DATUM
EPD .                           : ELEVATION PERMANENT DATUM
APD .                       5.5 : ABOVE PERMANENT DATUM
LMF .                       KDB : LOG MEASURED FROM
DMF .                       KDB : DRILLING MEASURED FROM
API .            42337039770000 : API NUMBER
UWI .                           : UWI NUMBER
DIGC.                     NthDS : DIGITIZING COMPANY
~Params ----------------------------------------------------
SRVC.     THE ELGEN CORPORATION : LOGGING COMPANY
LOG .                        EL : LOG
DATE.                1954-12-19 : RUN DATE
RUN .                         1 : RUN NUMBER
TDD .F                     1217 : TOTAL DEPTH DRILLER
TDL .F                     1219 : TOTAL DEPTH LOGGER
BOTL.F                     1218 : BOTTOM LOGGED INTERVAL
TOPL.F                      100 : TOP LOGGED INTERVAL
CSGS.IN                         : CASING SIZE
CSGD.F                          : CASING DRILLER
CSGL.F                          : CASING LOGGER
BS  .IN                    8.75 : BIT SIZE
MUD .                       GEL : MUD TYPE
MUDD.                        10 : MUD DENSITY
MUDV.                        60 : MUD VISCOSITY
PH  .                           : MUD PH
FL  .                           : FLUID LOSS
MUDS.                           : SOURCE OF SAMPLE
RM  .OHMM                   2.4 : MUD RESISTIVITY
RMT .DEGF                    58 : RM TEMPERATURE
RMF .OHMM                       : MUD FILTRATE RESISTIVITY
RMFT.DEGF                       : RMF TEMPERATURE
RMC .OHMM                       : MUD CAKE RESISTIVITY
RMCT.DEGF                       : RMC TEMPERATURE
RMFS.                           : RMF SOURCE
RMCS.                           : RMC SOURCE
RMBH.OHMM                       : MUD RESISTIVITY AT BHT
BHT .DEGF                       : BOTTOM HOLE TEMPERATURE
TIMC.                           : TIME CIRCULATION STOPPED
TIML.                           : TIME LOGGER ON BOTTOM
TMAX.DEGF                       : MAXIMUM RECORDED TEMPERATURE
UNIT.                           : EQUIPMENT NUMBER
BASE.                           : BASE LOCATION
ENG .                 STONE-302 : RECORDED BY
WIT .                      TODD : WITNESSED BY
~Curve Information -----------------------------------------
DEPT.F          :DEPTH
LAT.OHMM        :
LN.OHMM         :
SN.OHMM         :
SP.MV           :
~ASCII ------------------------------------------------------
# ...
560.00000        5.02679        6.85117        9.30698      -74.77925
560.50000        4.73615        6.92892        9.14537      -75.85851
561.00000        4.55304        6.92496        8.93806      -75.87398
561.50000        4.36992        6.92100        8.68876      -75.88946
562.00000        4.18681        6.91704        8.48145      -75.55033
562.50000        4.00370        6.91308        8.27325      -74.85661
563.00000        4.02936        6.82662        8.31145      -74.16289
563.50000        4.22627        6.82266        8.41148      -72.40538
564.00000        4.38992        6.73619        8.51061      -72.06626
564.50000        4.55446        6.64973        8.60974      -71.72714
565.00000        4.71810        6.56327        8.72960      -70.32422
565.50000        5.18729        6.31179        8.82873      -68.92131
566.00000        5.65649        5.81281        8.92876      -67.87299
566.50000        6.12478        5.31382        9.07986      -65.76089
567.00000        6.80812        4.89734        9.43705      -63.64878
567.50000        7.81224        4.56336        9.79424      -62.24587
568.00000        8.81635        4.55940       10.15143      -61.19755
568.50000       10.07135        4.63794       10.50951      -60.85843
569.00000       12.32901        4.96400       10.86670      -60.51931
569.50000       14.58576        5.12505       11.22388      -59.82559
570.00000       16.84342        5.53361       10.92619      -58.77727
570.50000       19.10107        6.02468       10.67767      -57.37436
571.00000       19.81398        6.68075       10.77322      -55.97144
571.50000       17.48847        7.33683       10.79350      -54.57162
572.00000       14.69804        7.99290       10.51093      -54.23250
572.50000       11.46845        8.15395       10.22836      -54.95717
573.00000        8.07858        7.98498        9.88945      -54.61804
573.50000        7.27811        7.73351        9.60687      -54.27892
574.00000        6.72583        7.39874        9.32520      -53.93980
574.50000        6.54630        7.14727        9.04262      -54.30986
575.00000        6.36677        6.97830        8.76005      -54.67993
575.50000        6.15062        6.80933        8.62801      -54.34081
576.00000        5.97019        6.64036        8.49597      -53.29249
576.50000        5.79066        6.47139        8.33806      -52.24418
577.00000        5.78675        6.38493        8.20602      -51.19586
577.50000        5.78285        6.21596        8.07398      -50.85674
578.00000        5.77894        6.04699        7.94193      -51.22680
578.50000        5.66840        5.96053        7.80989      -52.30607
579.00000        5.55786        5.87406        7.67875      -53.38533
579.50000        5.42504        5.70509        7.54671      -54.46459
580.00000        5.31450        5.61863        7.42464      -56.61073
580.50000        5.20397        5.53216        7.35353      -55.91701
581.00000        5.09343        5.44570        7.28241      -55.93249
581.50000        4.98289        5.27673        7.21130      -55.94796
582.00000        4.87236        5.19027        7.14019      -55.96343
582.50000        4.90160        5.10380        7.06908      -54.91512
583.00000        4.97845        5.01654        6.99797      -54.22140
583.50000        5.04174        4.93008        6.91263      -54.23687
584.00000        5.10593        4.92612        6.97413      -54.96153
584.50000        5.17011        4.75715        7.06789      -56.74999
585.00000        5.23430        4.67069        7.16165      -58.53844
585.50000        5.45440        4.58422        7.25630      -59.26311
586.00000        5.91104        4.41525        7.35006      -60.69697
586.50000        6.36679        4.41129        7.44381      -61.06703
587.00000        6.82344        4.48984        7.58237      -62.14939
587.50000        7.37070        4.65089        7.78813      -63.58325
588.00000        7.82735        4.81193        8.03433      -65.72630
588.50000        8.28310        4.89048        8.23919      -68.22395
589.00000        8.57308        5.13403        8.44405      -70.72159
589.50000        8.19553        5.21258        8.64981      -74.63763
590.00000        7.81798        5.37363        8.51240      -78.55366
590.50000        7.06947        5.45217        8.14649      -81.76050
591.00000        6.05944        5.61322        7.78059      -84.26124
591.50000        5.21865        5.60926        7.34133      -85.69510
592.00000        4.37696        5.44029        6.97632      -86.06517
592.50000        3.81035        5.35383        6.91148      -85.37145
593.00000        3.65770        5.26736        7.04914      -83.96853
593.50000        3.50415        5.18090        7.18591      -83.27481
594.00000        3.72974        5.09443        7.32357      -82.22650
594.50000        3.91758        5.09047        7.46034      -80.46899
595.00000        4.10631        5.08651        7.59710      -79.42067
595.50000        4.29415        5.08176        7.76176      -77.66316
596.00000        4.54830        5.16030        7.89942      -76.26025
596.50000        4.80334        5.23885        8.03619      -74.50274
597.00000        5.05748        5.31739        8.17385      -72.74523
597.50000        5.31252        5.39594        8.31061      -70.63313
598.00000        5.56667        5.55699        8.30671      -68.52102
598.50000        5.74028        5.63553        8.30280      -67.82730
599.00000        5.86271        5.71408        8.29889      -67.13358
599.50000        5.98514        5.71012        8.29419      -67.50365
600.00000        6.58537        5.94032        8.76500      -68.08340
600.50000        6.70602        5.93636        8.76063      -68.09578
601.00000        6.82666        5.93240        8.75516      -68.10815
601.50000        6.94731        5.92844        8.74970      -68.12053
602.00000        7.06795        6.00698        8.72724      -68.48751
602.50000        7.18860        6.00302        8.63592      -68.49989
603.00000        7.30835        5.99906        8.54370      -68.51227
603.50000        7.42899        5.99510        8.45237      -67.81544
604.00000        7.54964        6.07365        8.36105      -65.70022
604.50000        7.67028        5.98718        8.26972      -63.23038
605.00000        7.79093        5.98322        8.34386      -61.82436
605.50000        7.89726        5.97926        8.41889      -62.54594
606.00000        7.99913        5.89201        8.49303      -62.91292
606.50000        8.10188        5.88805        8.56716      -61.86149
607.00000        8.20464        5.88409        8.64130      -61.51927
607.50000        8.30650        5.88013        8.65462      -60.82492
608.00000        8.40926        5.87617        8.57403      -60.48270
608.50000        8.48519        5.87221        8.47803      -60.49508
609.00000        8.56111        5.86825        8.39833      -60.15285
609.50000        8.46174        5.86429        8.23814      -59.81063
610.00000        8.31854        5.86033        8.07795      -59.11381
610.50000        8.12257        5.85637        7.91775      -58.77158
611.00000        7.71195        5.85241        7.75756      -57.72016
611.50000        7.30222        5.84845        7.59737      -56.66873
612.00000        6.89160        5.84449        7.55434      -55.26270
612.50000        6.48187        5.84053        7.54172      -53.85668
613.00000        6.48714        5.83657        7.52910      -53.86906
613.50000        6.49241        5.75010        7.51559      -54.23603
614.00000        6.49857        5.74535        7.50297      -54.60301
614.50000        6.50384        5.74139        7.49035      -55.67920
615.00000        6.50911        5.73743        7.47684      -57.10998
615.50000        6.51438        5.73347        7.46422      -57.47696
616.00000        6.51965        5.81201        7.45160      -56.78013
616.50000        6.52581        5.72555        7.43809      -55.72871
617.00000        6.52929        5.80409        7.42547      -53.96808
