~Version ---------------------------------------------------
VERS. 2.0 : CWLS LOG ASCII STANDARD - VERSION 2.0
WRAP. NO  : One line per depth step
DLM . SPACE : Column Data Section Delimiter
~Well ------------------------------------------------------
STRT.F          500 : START DEPTH
STOP.F        996.0 : STOP DEPTH
STEP.F          0.5 : STEP
NULL.       -999.25 : NULL VALUE
COMP.                       WALSH & WATTS : COMPANY
WELL.                           HYNDS B 6 : WELL
FLD .                           N. NOCONA : FIELD
CNTY.                            MONTAGUE : COUNTY
STAT.                               TEXAS : STATE
CTRY.                                 USA : COUNTRY
SEC .                                     : SECTION
TWP .                                     : TOWNSHIP
RGE .                                     : RANGE
LOC . 550' FR W/L OF LEASE, 150' FR S/L OF LEASE, 400' FR NO 4 WELL, 300' FR NO 3 WELL : LOCATION
EKB .F                          : ELEVATION KELLY BUSHING
EDF .F                          : ELEVATION DERRICK FLOOR
EGL .F                          : ELEVATION GROUND LEVEL
PDAT.                        GL : PERMANENT DATUM
EPD .                           : ELEVATION PERMANENT DATUM
APD .                         6 : ABOVE PERMANENT DATUM
LMF .                        KB : LOG MEASURED FROM
DMF .                        KB : DRILLING MEASURED FROM
API .            42337038650000 : API NUMBER
UWI .                           : UWI NUMBER
DIGC.                     NthDS : DIGITIZING COMPANY
~Params ----------------------------------------------------
SRVC.                LANE WELLS : LOGGING COMPANY
LOG .                       GRN : LOG
DATE.                1957-10-16 : RUN DATE
RUN .                         1 : RUN NUMBER
TDD .F                     1015 : TOTAL DEPTH DRILLER
TDL .F                      997 : TOTAL DEPTH LOGGER
BOTL.F                    996.5 : BOTTOM LOGGED INTERVAL
TOPL.F                      500 : TOP LOGGED INTERVAL
CSGS.IN                         : CASING SIZE
CSGD.F                          : CASING DRILLER
CSGL.F                          : CASING LOGGER
BS  .IN                     5.5 : BIT SIZE
MUD .                           : MUD TYPE
MUDD.                           : MUD DENSITY
MUDV.                           : MUD VISCOSITY
PH  .                           : MUD PH
FL  .                           : FLUID LOSS
MUDS.                           : SOURCE OF SAMPLE
RM  .OHMM                       : MUD RESISTIVITY
RMT .DEGF                       : RM TEMPERATURE
RMF .OHMM                       : MUD FILTRATE RESISTIVITY
RMFT.DEGF                       : RMF TEMPERATURE
RMC .OHMM                       : MUD CAKE RESISTIVITY
RMCT.DEGF                       : RMC TEMPERATURE
RMFS.                           : RMF SOURCE
RMCS.                           : RMC SOURCE
RMBH.OHMM                       : MUD RESISTIVITY AT BHT
BHT .DEGF                       : BOTTOM HOLE TEMPERATURE
TIMC.                           : TIME CIRCULATION STOPPED
TIML.                           : TIME LOGGER ON BOTTOM
TMAX.DEGF                       : MAXIMUM RECORDED TEMPERATURE
UNIT.                           : EQUIPMENT NUMBER
BASE.                           : BASE LOCATION
ENG .                     PRICE : RECORDED BY
WIT .                       NIX : WITNESSED BY
~Curve Information -----------------------------------------
DEPT.F          :DEPTH
GRN.GAPI        :
NEUT.API        :
~ASCII ------------------------------------------------------
# ...
600.00000       22.55790     2652.76704
600.50000       23.71568     2677.50942
601.00000       23.00182     2645.79716
601.50000       23.21486     2571.52458
602.00000       21.88603     2514.81686
602.50000       21.37715     2509.29970
603.00000       22.41907     2522.52913
603.50000       23.83533     2471.78380
604.00000       25.97618     2410.88223
604.50000       27.76409     2360.11900
605.00000       27.65896     2366.22221
605.50000       26.02441     2435.58399
606.00000       22.77668     2542.99400
606.50000       20.05106     2626.23220
607.00000       20.00565     2615.46885
607.50000       21.41566     2605.77981
608.00000       22.82389     2570.30749
608.50000       22.44158     2541.80023
609.00000       23.43983     2496.01460
609.50000       25.25091     2445.57365
610.00000       27.06199     2388.09602
610.50000       28.71176     2330.63629
611.00000       29.31251     2302.27227
611.50000       28.02556     2348.94834
612.00000       25.25555     2469.78309
612.50000       22.48553     2570.47871
613.00000       21.75117     2605.68170
613.50000       21.09078     2603.11887
614.00000       20.95178     2622.11373
614.50000       23.60243     2581.34151
615.00000       26.72100     2432.11431
615.50000       30.57129     2298.55810
616.00000       34.42248     2158.87836
616.50000       38.14176     2044.67751
617.00000       41.33430     1971.67620
617.50000       40.57587     1963.29016
618.00000       41.95647     1966.85086
618.50000       43.50018     1943.55397
619.00000       42.31127     1952.71896
619.50000       43.24624     1982.90447
620.00000       44.18121     1970.35062
620.50000       43.43793     1998.08314
621.00000       42.11177     2027.15854
621.50000       39.86493     2056.23394
622.00000       39.22236     2045.47060
622.50000       38.16090     2041.86928
623.00000       37.17075     2089.97775
623.50000       36.13602     2183.38601
624.00000       34.34105     2276.81218
624.50000       30.39457     2370.45321
625.00000       25.36682     2464.91787
625.50000       23.99342     2513.00844
626.00000       24.42928     2504.39371
626.50000       23.75998     2485.75214
627.00000       24.29388     2415.65144
627.50000       25.62992     2362.75750
628.00000       25.70304     2413.55173
628.50000       24.29131     2490.25458
629.00000       22.61934     2566.81419
629.50000       22.32882     2632.45171
630.00000       23.66486     2609.92474
630.50000       25.00090     2580.18204
631.00000       25.26743     2605.53319
631.50000       23.43324     2591.18883
632.00000       22.55627     2625.49251
632.50000       23.03670     2659.77828
633.00000       21.69895     2672.90028
633.50000       20.40576     2671.68033
634.00000       20.30687     2726.39577
634.50000       18.59924     2805.67694
635.00000       16.20267     2884.94021
635.50000       16.07971     2965.24198
636.00000       15.98973     2982.82233
636.50000       14.32488     2972.36337
637.00000       12.44062     3035.01075
637.50000       12.06543     3106.61066
638.00000       12.51021     3130.94122
638.50000       11.74286     3117.31307
639.00000       11.88461     3145.94084
639.50000       11.79463     3170.98761
640.00000       11.00411     3139.15001
640.50000       10.17795     3086.11283
641.00000       10.12094     3020.52015
641.50000       10.96679     2957.83214
642.00000       12.41424     2932.74475
642.50000       12.41338     2950.98760
643.00000       11.87777     2924.95124
643.50000       12.26728     2927.31230
644.00000       12.25039     2890.35386
644.50000       12.23171     2880.46786
645.00000       13.12211     2911.13681
645.50000       13.54461     2843.27424
646.00000       12.90383     2758.70626
646.50000       12.52507     2709.82306
647.00000       13.02956     2708.20513
647.50000       13.56347     2678.78472
648.00000       13.40664     2681.30692
648.50000       13.82914     2660.83904
649.00000       13.86393     2728.33869
649.50000       14.62956     2799.93859
650.00000       13.58960     2865.16606
650.50000       12.75089     2899.53126
651.00000       11.16487     2864.53343
651.50000       11.97670     2812.94371
652.00000       14.60036     2766.73515
652.50000       15.48387     2721.87187
653.00000       14.94623     2728.77527
653.50000       13.03494     2705.68772
654.00000       12.79570     2753.64930
654.50000       13.02867     2782.77686
655.00000       12.56631     2768.40677
655.50000       12.76613     2785.30117
656.00000       12.70609     2803.64849
656.50000       12.03405     2782.69546
657.00000       11.48387     2817.20417
657.50000       11.24014     2819.42596
658.00000       11.40054     2879.94357
658.50000       12.16846     2909.60924
659.00000       11.57079     2872.67419
659.50000       12.04928     2823.82886
660.00000       12.05197     2815.73678
660.50000       11.55914     2729.61801
661.00000       11.36201     2661.12741
661.50000       12.00179     2668.21018
662.00000       12.07885     2625.89398
662.50000       11.63082     2678.01699
663.00000       11.93817     2783.62864
663.50000       12.34767     2862.44623
664.00000       12.12365     2939.78890
664.50000       11.56362     2967.12274
665.00000       11.81003     2995.80187
665.50000       12.13889     3024.48099
666.00000       11.54122     2992.62216
666.50000       11.42204     2907.84461
667.00000       11.58602     2916.79285
667.50000       11.18279     2883.58873
668.00000       10.62276     2850.38461
668.50000       10.73477     2873.89783
669.00000       11.82258     2879.76088
669.50000       11.91756     2859.11278
670.00000       11.22760     2857.99826
670.50000       11.45161     2886.15721
671.00000       11.60842     2868.64812
671.50000       10.46595     2869.97306
672.00000       11.19803     2812.55376
672.50000       12.35484     2794.59624
673.00000       13.51254     2765.15893
673.50000       14.67025     2786.37619
674.00000       15.82706     2826.23017
674.50000       16.11111     2844.38018
675.00000       14.76702     2848.30601
675.50000       13.42294     2868.60847
676.00000       12.52688     2823.15327
676.50000       12.43727     2807.58139
677.00000       12.88530     2848.22461
677.50000       13.01075     2896.63463
678.00000       12.40770     2875.80716
678.50000       11.69086     2871.48189
679.00000       11.98925     2835.58720
679.50000       12.43727     2820.32025
680.00000       11.98925     2788.90578
680.50000       12.37365     2841.06466
681.00000       12.04301     2882.78818
681.50000       12.07885     2877.81310
682.00000       13.33333     2884.25014
682.50000       12.88530     2861.66483
683.00000       13.78136     2813.33967
683.50000       12.95699     2765.03246
684.00000       12.28763     2741.65791
684.50000       12.45251     2753.92453
685.00000       12.97491     2770.94449
685.50000       12.67652     2753.88383
686.00000       12.68817     2719.60348
686.50000       13.33333     2721.37685
687.00000       13.89337     2718.66592
687.50000       13.55735     2719.72181
688.00000       13.73656     2718.62523
688.50000       15.16129     2738.92769
689.00000       17.93907     2738.31542
689.50000       19.48656     2656.37600
690.00000       19.66577     2462.82744
690.50000       22.92114     2266.50269
691.00000       26.95340     2170.82340
691.50000       30.98566     2159.73582
692.00000       34.37096     2128.32542
692.50000       36.91756     2212.60978
693.00000       35.79838     2203.62084
693.50000       33.43100     2277.59132
694.00000       33.16218     2396.40474
694.50000       32.17293     2525.40646
695.00000       29.31630     2641.20643
695.50000       29.97042     2649.25781
696.00000       32.22759     2563.80271
696.50000       30.37096     2443.83650
697.00000       29.99999     2305.93311
697.50000       32.48655     2185.85927
698.00000       34.98834     2124.85254
698.50000       37.68010     2125.67524
699.00000       38.89695     2119.37281
699.50000       38.16666     2133.98919
