~Version ---------------------------------------------------
VERS. 2.0 : CWLS LOG ASCII STANDARD - VERSION 2.0
WRAP. NO  : One line per depth step
DLM . SPACE : Column Data Section Delimiter
~Well ------------------------------------------------------
STRT.F          227 : START DEPTH
STOP.F       2033.0 : STOP DEPTH
STEP.F          0.5 : STEP
NULL.       -999.25 : NULL VALUE
COMP.                  WALSH & WATTS, INC : COMPANY
WELL.                          HYNDS A 10 : WELL
FLD .                           N. NOCONA : FIELD
CNTY.                            MONTAGUE : COUNTY
STAT.                               TEXAS : STATE
CTRY.                                 USA : COUNTRY
SEC .                                     : SECTION
TWP .                                     : TOWNSHIP
RGE .                                     : RANGE
LOC .  244' SE OF NO. 5A J.J. WALL SURVEY : LOCATION
EKB .F                    903.5 : ELEVATION KELLY BUSHING
EDF .F                          : ELEVATION DERRICK FLOOR
EGL .F                      897 : ELEVATION GROUND LEVEL
PDAT.                        GL : PERMANENT DATUM
EPD .                           : ELEVATION PERMANENT DATUM
APD .                         6 : ABOVE PERMANENT DATUM
LMF .                           : LOG MEASURED FROM
DMF .                           : DRILLING MEASURED FROM
API .            42337037830000 : API NUMBER
UWI .            42337037830000 : UWI NUMBER
DIGC.                     NthDS : DIGITIZING COMPANY
~Params ----------------------------------------------------
SRVC.              SCHLUMBERGER : LOGGING COMPANY
LOG .                       IEL : LOG
DATE.                1957-10-20 : RUN DATE
RUN .                         1 : RUN NUMBER
TDD .F                          : TOTAL DEPTH DRILLER
TDL .F                          : TOTAL DEPTH LOGGER
BOTL.F                     2039 : BOTTOM LOGGED INTERVAL
TOPL.F                          : TOP LOGGED INTERVAL
CSGS.IN                         : CASING SIZE
CSGD.F                      227 : CASING DRILLER
CSGL.F                      227 : CASING LOGGER
BS  .IN                    8.75 : BIT SIZE
MUD .                       GEL : MUD TYPE
MUDD.                       9.9 : MUD DENSITY
MUDV.                        50 : MUD VISCOSITY
PH  .                           : MUD PH
FL  .                           : FLUID LOSS
MUDS.                           : SOURCE OF SAMPLE
RM  .OHMM                   2.3 : MUD RESISTIVITY
RMT .DEGF                    60 : RM TEMPERATURE
RMF .OHMM                   .76 : MUD FILTRATE RESISTIVITY
RMFT.DEGF                    96 : RMF TEMPERATURE
RMC .OHMM                   1.7 : MUD CAKE RESISTIVITY
RMCT.DEGF                    96 : RMC TEMPERATURE
RMFS.                           : RMF SOURCE
RMCS.                           : RMC SOURCE
RMBH.OHMM                   1.4 : MUD RESISTIVITY AT BHT
BHT .DEGF                    96 : BOTTOM HOLE TEMPERATURE
TIMC.                           : TIME CIRCULATION STOPPED
TIML.                           : TIME LOGGER ON BOTTOM
TMAX.DEGF                       : MAXIMUM RECORDED TEMPERATURE
UNIT.                       785 : EQUIPMENT NUMBER
BASE.                        WF : BASE LOCATION
ENG .                     JONES : RECORDED BY
WIT .               BALCH & NIX : WITNESSED BY
~Curve Information -----------------------------------------
DEPT.F          :DEPTH
CILD.MMHO       :
ILD.OHMM        :
ROP.FT/HR       :
SN.OHMM         :
SP.MV           :
~ASCII ------------------------------------------------------
# ...
1175.00000      345.47418        2.91468        4.96213        2.86855      -29.31909
1175.50000      343.70243        2.95405        4.96244        2.87045      -31.43123
1176.00000      342.82280        2.99342        4.96276        2.92135      -30.98785
1176.50000      345.52418        2.95135        4.96314        2.86379      -29.94303
1177.00000      347.33030        2.90892        4.96345        2.80622      -30.16632
1177.50000      348.24118        2.87550        4.96377        2.74865      -29.98200
1178.00000      350.04730        2.85060        4.96409        2.68448      -27.06155
1178.50000      354.54230        2.79808        4.96440        2.63880      -23.58015
1179.00000      361.71992        2.73727        4.96472        2.59313      -19.97013
1179.50000      376.95479        2.53845        4.96510        2.69556      -19.31842
1180.00000      404.72315        2.33962        5.56324        2.79764      -18.70294
1180.50000      434.95345        2.06043        5.56355        2.95160      -17.73358
1181.00000      491.67731        1.78161        5.56387        3.31133      -19.31555
1181.50000      555.98976        1.57905        5.56425        3.94493      -29.58587
1182.00000      630.84243        1.43248        5.99934        4.64700      -46.09710
1182.50000      691.28740        1.28627        5.99966        5.37934      -62.60652
1183.00000      751.44589        1.13969        5.99998        6.11961      -74.60147
1183.50000      822.26993        1.04969        6.00029        5.93867      -82.85188
1184.00000      881.73013        0.97411        5.33630        5.67390      -87.17477
1184.50000      949.38499        0.92231        5.00987        5.40877      -89.78754
1185.00000     1011.86483        0.90354        5.01562        5.14400      -91.25538
1185.50000     1027.79799        0.88814        5.02119        4.74698      -92.72504
1186.00000     1041.31711        0.87237        4.47966        4.34995      -93.53890
1186.50000     1043.24857        0.85661        4.47744        4.15316      -93.37088
1187.00000     1028.04495        0.88661        4.47522        4.07217      -92.82724
1187.50000      977.70908        0.92814        4.47234        3.95155      -91.80415
1188.00000      938.55754        0.96967        4.47012        3.62659      -87.97493
1188.50000      894.70593        1.01085        4.46790        3.26561      -78.18859
1189.00000      850.85433        1.06054        4.46568        2.90462      -63.14929
1189.50000      818.19334        1.10208        4.21980        2.57954      -43.72533
1190.00000      785.53236        1.12055        3.97556        2.77711      -37.41786
1190.50000      767.00736        1.13866        3.97594        2.97468      -46.87116
1191.00000      757.81087        1.15713        3.97625        3.38846      -64.44035
1191.50000      762.30274        1.17019        3.97657        3.80225      -73.68532
1192.00000      771.02915        1.16163        4.99137        3.87369      -74.54266
1192.50000      780.81194        1.15308        4.99175        3.74333      -69.75148
1193.00000      786.16638        1.14295        4.99207        3.50018      -61.38361
1193.50000      784.39151        1.13440        4.99238        3.43937      -58.53083
1194.00000      779.49221        1.14205        4.46825        3.53699      -63.35735
1194.50000      774.03786        1.15332        4.47110        3.61817      -71.15667
1195.00000      768.58351        1.16458        4.47377        3.58150      -77.55745
1195.50000      763.62155        1.17692        4.47723        3.49078      -80.13580
1196.00000      753.49400        1.18651        4.47990        3.05268      -78.13990
1196.50000      738.58581        1.21170        4.48275        2.52809      -69.44050
1197.00000      714.49237        1.27473        4.48542        2.08698      -54.58236
1197.50000      682.81928        1.32707        4.48773        2.00815      -36.10042
1198.00000      668.51091        1.37942        1.97031        2.07599      -26.37450
1198.50000      677.47903        1.31429        1.97171        2.30203      -32.57963
1199.00000      709.54459        1.24951        1.97312        2.59221      -48.10717
1199.50000      756.41758        1.17609        1.97495        2.88275      -64.00789
1200.00000      820.95008        1.20612        1.90730        3.20719      -79.52848
1200.50000      885.87130        1.07816        1.90870        2.75611      -85.58688
1201.00000     1024.54001        0.97158        1.91010        2.10671      -91.64527
1201.50000     1063.47214        0.95582        1.91151        1.83581      -95.56962
1202.00000     1102.39531        0.94042        1.91291        1.73212      -95.63892
1202.50000     1122.98689        0.92465        1.91431        1.74447      -93.55244
1203.00000     1111.10465        0.90889        1.91596        2.01411      -90.43154
1203.50000     1071.52339        0.91006        1.91736        2.37023      -86.60350
1204.00000     1031.94212        0.99219        1.91877        2.78401      -84.95361
1204.50000      975.07676        1.06039        1.92017        3.19780      -83.30372
1205.00000      910.92985        1.12859        1.92157        3.69434      -83.48171
1205.50000      843.13032        1.19679        1.92298        3.89190      -83.62348
1206.00000      796.52134        1.26499        2.95686        4.03542      -83.52068
1206.50000      749.91237        1.33355        2.95718        4.31587      -83.36353
1207.00000      719.11350        1.40895        2.95750        4.64569      -82.14779
1207.50000      689.04874        1.48940        2.95781        5.03533      -81.15550
1208.00000      654.14963        1.58595        4.93275        5.42497      -80.92589
1208.50000      621.22007        1.66640        4.93307        5.64668      -80.01694
1209.00000      591.24484        1.73424        4.93345        5.82623      -79.91052
1209.50000      562.52295        1.79919        4.93377        6.04854      -80.29504
1210.00000      548.43839        1.79100        5.42430        6.23926      -78.92051
1210.50000      552.70646        1.73415        5.42987        6.42998      -77.46808
1211.00000      573.53663        1.67731        5.43562        6.47223      -77.01139
1211.50000      608.02249        1.58394        5.44119        6.11124      -77.77815
1212.00000      643.66905        1.48601        3.94097        5.63026      -80.11555
1212.50000      689.66470        1.38773        3.94636        5.05293      -82.78085
1213.00000      744.86663        1.28944        3.95175        4.57158      -84.69797
1213.50000      790.86228        1.19116        3.95810        4.09060      -84.39227
1214.00000      833.03520        1.16242        2.92684        3.96997      -85.45613
1214.50000      859.90832        1.15098        2.93320        3.88826      -87.36600
1215.00000      884.86872        1.13725        2.93859        3.96259      -87.94617
1215.50000      898.14299        1.12581        2.94379        4.03691      -86.98468
1216.00000      905.61605        1.11437        3.97689        4.19147      -85.25807
1216.50000      902.82954        1.10293        3.97268        4.30291      -86.32918
1217.00000      901.17105        1.09149        3.96847        4.30228      -87.34413
1217.50000      902.61907        1.08005        3.96426        4.30165      -87.63987
1218.00000      907.64810        1.06861        3.95920        4.30103      -86.91208
1218.50000      916.26124        1.05813        3.95499        4.30869      -86.83645
1219.00000      921.82742        1.06363        3.95078        4.32211      -88.54162
1219.50000      925.92538        1.06912        3.94656        4.32856      -90.73772
1220.00000      929.41457        1.07426        3.94235        4.29514      -91.17477
1220.50000      929.21534        1.07976        3.93814        4.26172      -89.63113
1221.00000      918.48797        1.08525        3.93392        4.30253      -88.12435
1221.50000      895.27187        1.10517        3.92971        4.34370      -87.81322
