~Version ---------------------------------------------------
VERS. 2.0 : CWLS LOG ASCII STANDARD - VERSION 2.0
WRAP. NO  : One line per depth step
DLM . SPACE : Column Data Section Delimiter
~Well ------------------------------------------------------
STRT.F          230 : START DEPTH
STOP.F       1777.5 : STOP DEPTH
STEP.F          0.5 : STEP
NULL.       -999.25 : NULL VALUE
COMP.         WALSH & WATTS, INCORPORATED : COMPANY
WELL.                         SALMON E 44 : WELL
FLD .                             REGULAR : FIELD
CNTY.                            MONTAGUE : COUNTY
STAT.                               TEXAS : STATE
CTRY.                                 USA : COUNTRY
SEC .                                     : SECTION
TWP .                                     : TOWNSHIP
RGE .                                     : RANGE
LOC . 300' WEST OF NO 23, 300' SOUTH OF D-9, F.ROBERTSON SURV. : LOCATION
EKB .F                      862 : ELEVATION KELLY BUSHING
EDF .F                          : ELEVATION DERRICK FLOOR
EGL .F                      856 : ELEVATION GROUND LEVEL
PDAT.                        GL : PERMANENT DATUM
EPD .                       856 : ELEVATION PERMANENT DATUM
APD .                         6 : ABOVE PERMANENT DATUM
LMF .                        KB : LOG MEASURED FROM
DMF .                        KB : DRILLING MEASURED FROM
API .            42337038720000 : API NUMBER
UWI .                           : UWI NUMBER
DIGC.                     NthDS : DIGITIZING COMPANY
~Params ----------------------------------------------------
SRVC.              SCHLUMBERGER : LOGGING COMPANY
LOG .                       IEL : LOG
DATE.                1965-11-28 : RUN DATE
RUN .                         1 : RUN NUMBER
TDD .F                     1779 : TOTAL DEPTH DRILLER
TDL .F                     1779 : TOTAL DEPTH LOGGER
BOTL.F                     1778 : BOTTOM LOGGED INTERVAL
TOPL.F                          : TOP LOGGED INTERVAL
CSGS.IN                         : CASING SIZE
CSGD.F                          : CASING DRILLER
CSGL.F                          : CASING LOGGER
BS  .IN                   7.875 : BIT SIZE
MUD .                       GEL : MUD TYPE
MUDD.                        10 : MUD DENSITY
MUDV.                       9.8 : MUD VISCOSITY
PH  .                           : MUD PH
FL  .                           : FLUID LOSS
MUDS.                CIRCULATED : SOURCE OF SAMPLE
RM  .OHMM                   2.0 : MUD RESISTIVITY
RMT .DEGF                    81 : RM TEMPERATURE
RMF .OHMM                   1.5 : MUD FILTRATE RESISTIVITY
RMFT.DEGF                    81 : RMF TEMPERATURE
RMC .OHMM                       : MUD CAKE RESISTIVITY
RMCT.DEGF                       : RMC TEMPERATURE
RMFS.                         M : RMF SOURCE
RMCS.                           : RMC SOURCE
RMBH.OHMM                   1.6 : MUD RESISTIVITY AT BHT
BHT .DEGF                   100 : BOTTOM HOLE TEMPERATURE
TIMC.                           : TIME CIRCULATION STOPPED
TIML.                           : TIME LOGGER ON BOTTOM
TMAX.DEGF                   100 : MAXIMUM RECORDED TEMPERATURE
UNIT.                      4559 : EQUIPMENT NUMBER
BASE.                       WFS : BASE LOCATION
ENG .                      FINK : RECORDED BY
WIT .                       NIX : WITNESSED BY
~Curve Information -----------------------------------------
DEPT.F          :DEPTH
CILD.MMHO       :
ILD.OHMM        :
SN.OHMM         :
SP.MV           :
~ASCII ------------------------------------------------------
# ...
747.50000      361.83434        2.55640        3.31520      -55.74902
748.00000      369.85977        2.52000        3.29000      -55.50002
748.50000      380.49779        2.44600        3.26520      -53.85002
749.00000      392.87755        2.37200        3.24000      -52.20002
749.50000      405.26732        2.29760        3.19000      -50.40002
750.00000      414.81146        2.22360        3.10480      -48.30003
750.50000      423.24078        2.18892        3.00532      -45.99903
751.00000      426.89187        2.17866        2.86626      -45.00003
751.50000      425.47791        2.21786        2.84759      -46.50003
752.00000      418.48842        2.25040        2.86080      -48.16803
752.50000      407.58504        2.29574        2.87173      -50.49902
753.00000      396.68166        2.39187        2.98667      -52.32002
753.50000      382.88540        2.48761        3.17041      -53.37002
754.00000      368.36843        2.58335        3.35454      -55.11302
754.50000      353.84144        2.67948        3.43708      -57.90002
755.00000      339.32447        2.77522        3.52001      -59.61302
755.50000      328.27094        2.84336        3.55255      -61.32902
756.00000      326.53667        2.86989        3.55189      -62.72402
756.50000      326.55414        2.89683        3.55122      -62.85002
757.00000      324.89995        2.92337        3.55056      -62.97602
757.50000      320.35288        2.94990        3.54990      -61.26902
758.00000      314.21424        3.01604        3.55764      -59.53802
758.50000      308.06558        3.08177        3.59897      -59.02502
759.00000      304.94994        3.14791        3.64071      -60.33902
759.50000      303.85630        3.17872        3.69031      -61.65002
760.00000      302.76267        3.16365        3.70645      -62.79002
760.50000      301.66904        3.14859        3.70579      -63.24002
761.00000      295.61047        3.22513        3.70512      -63.84002
761.50000      289.55190        3.32446        3.84166      -65.04002
762.00000      283.87371        3.42380        4.01899      -65.79902
762.50000      279.71703        3.45473        3.99473      -63.60002
763.00000      278.87714        3.43967        3.97087      -60.60002
763.50000      282.75845        3.42461        3.94660      -60.30002
764.00000      288.89200        3.33395        4.07834      -62.42402
764.50000      299.43994        3.22408        4.32288      -67.96202
765.00000      309.99788        3.11422        4.67741      -72.57602
765.50000      320.54582        3.00476        5.13635      -77.55002
766.00000      329.93260        2.89489        5.66408      -82.20002
766.50000      337.55763        2.76330        6.19221      -85.20002
767.00000      345.18266        2.67904        6.61715      -86.19902
767.50000      352.80769        2.63277        6.50208      -86.92202
768.00000      360.43273        2.58651        6.38742      -86.52602
768.50000      368.02121        2.54065        6.36783      -86.13302
769.00000      365.10577        2.49439        6.54876      -85.73702
769.50000      360.44859        2.54652        6.64050      -85.12502
770.00000      355.79142        2.59826        6.37304      -84.18602
770.50000      351.90501        2.65039        5.84758      -81.24002
771.00000      351.09165        2.69373        5.20292      -77.79002
771.50000      350.27830        2.70267        4.37986      -70.88702
772.00000      349.45493        2.71120        3.82360      -65.47502
772.50000      348.64158        2.72014        3.44534      -60.60002
773.00000      347.35776        2.72908        3.36907      -61.53602
773.50000      345.37324        2.73988        3.36828      -62.37002
774.00000      343.38872        2.74842        3.36762      -63.04502
774.50000      340.45325        2.75736        3.41055      -63.72002
775.00000      336.09638        2.76629        3.48269      -64.39502
775.50000      331.72949        2.85043        3.49642      -64.80002
776.00000      326.32157        2.93416        3.42296      -64.80002
776.50000      316.70947        3.01830        3.38270      -63.77102
777.00000      307.10738        3.10204        3.47364      -62.05802
777.50000      301.26903        3.18617        3.56457      -60.34202
778.00000      297.95319        3.20231        3.65551      -57.99902
778.50000      297.87056        3.20165        3.74644      -56.77502
779.00000      298.75238        3.20098        3.78898      -58.50002
779.50000      300.05113        3.16232        3.75832      -60.30002
780.00000      303.60211        3.11406        3.72765      -62.10002
780.50000      307.14308        3.05606        3.69699      -64.10102
781.00000      310.69406        3.00780        3.69220      -66.09902
781.50000      310.42125        3.02794        3.71513      -68.18702
782.00000      308.83713        3.06527        3.73807      -70.32902
782.50000      305.85161        3.10301        3.76341      -72.47102
783.00000      303.46670        3.14035        3.79914      -73.50002
783.50000      303.48417        3.16888        3.83488      -73.62002
784.00000      303.50164        3.19102        3.87062      -73.32002
784.50000      301.87748        3.21356        3.90635      -72.66002
785.00000      299.17224        3.23609        3.90049      -70.05002
785.50000      297.54808        3.25823        3.88463      -66.30002
786.00000      297.56555        3.25037        3.85996      -59.82002
786.50000      300.25568        3.19730        3.80050      -55.02002
787.00000      308.28460        3.14384        3.74064      -52.62002
787.50000      310.77453        3.09078        3.68117      -50.40002
788.00000      309.65087        3.11958        3.69958      -50.96102
788.50000      304.66336        3.18252        3.72971      -52.35002
789.00000      299.67586        3.24545        3.82745      -54.97502
789.50000      294.68836        3.30879        4.02679      -59.46002
790.00000      289.70085        3.34613        4.22612      -64.41002
790.50000      288.96758        3.34546        4.42546      -67.92002
791.00000      288.23430        3.34480        4.01680      -71.07002
791.50000      287.50103        3.34414        3.45614      -73.80002
792.00000      286.76775        3.34347        3.86347      -73.20002
792.50000      291.28970        3.30721        4.49600      -70.20002
793.00000      295.81165        3.21775        4.48894      -66.25502
793.50000      311.67486        3.12829        4.28588      -61.52402
794.00000      320.47106        3.03842        4.05922      -56.79302
794.50000      327.49549        2.94896        3.83215      -54.06302
795.00000      335.92481        2.84456        3.60549      -52.67102
795.50000      342.94925        2.76990        3.37870      -51.27902
796.00000      349.64335        2.69524        3.37804      -50.79902
796.50000      356.32745        2.62018        3.37737      -51.30002
797.00000      363.02156        2.54551        3.37671      -52.29902
797.50000      366.22219        2.47085        3.29605      -52.95002
798.00000      369.42282        2.48739        3.19538      -53.83202
798.50000      367.40828        2.52672        3.09472      -56.00102
799.00000      364.09243        2.56606        3.08086      -57.53102
799.50000      359.16499        2.60540        3.12459      -58.10702
800.00000      350.05711        2.69198        3.19558      -58.68602
800.50000      342.70726        2.75612        3.23932      -60.48602
801.00000      335.36742        2.82026        3.50545      -61.86902
801.50000      328.79834        2.88439        3.77119      -62.85902
802.00000      322.22927        2.94853        3.81253      -63.26102
802.50000      315.66019        3.02573        3.70426      -63.66002
803.00000      308.41394        3.08987        3.61387      -64.05902
803.50000      303.42643        3.11041        3.70440      -64.46102
804.00000      303.94440        3.10174        3.79454      -64.86002
804.50000      305.83373        3.09308        3.71708      -64.75802
