~Version ---------------------------------------------------
VERS. 2.0 : CWLS LOG ASCII STANDARD - VERSION 2.0
WRAP. NO  : One line per depth step
DLM . SPACE : Column Data Section Delimiter
~Well ------------------------------------------------------
STRT.F          227 : START DEPTH
STOP.F       2033.0 : STOP DEPTH
STEP.F          0.5 : STEP
NULL.       -999.25 : NULL VALUE
COMP.                  WALSH & WATTS, INC : COMPANY
WELL.                          HYNDS A 10 : WELL
FLD .                           N. NOCONA : FIELD
CNTY.                            MONTAGUE : COUNTY
STAT.                               TEXAS : STATE
CTRY.                                 USA : COUNTRY
SEC .                                     : SECTION
TWP .                                     : TOWNSHIP
RGE .                                     : RANGE
LOC .  244' SE OF NO. 5A J.J. WALL SURVEY : LOCATION
EKB .F                    903.5 : ELEVATION KELLY BUSHING
EDF .F                          : ELEVATION DERRICK FLOOR
EGL .F                      897 : ELEVATION GROUND LEVEL
PDAT.                        GL : PERMANENT DATUM
EPD .                           : ELEVATION PERMANENT DATUM
APD .                         6 : ABOVE PERMANENT DATUM
LMF .                           : LOG MEASURED FROM
DMF .                           : DRILLING MEASURED FROM
API .            42337037830000 : API NUMBER
UWI .            42337037830000 : UWI NUMBER
DIGC.                     NthDS : DIGITIZING COMPANY
~Params ----------------------------------------------------
SRVC.              SCHLUMBERGER : LOGGING COMPANY
LOG .                       IEL : LOG
DATE.                1957-10-20 : RUN DATE
RUN .                         1 : RUN NUMBER
TDD .F                          : TOTAL DEPTH DRILLER
TDL .F                          : TOTAL DEPTH LOGGER
BOTL.F                     2039 : BOTTOM LOGGED INTERVAL
TOPL.F                          : TOP LOGGED INTERVAL
CSGS.IN                         : CASING SIZE
CSGD.F                      227 : CASING DRILLER
CSGL.F                      227 : CASING LOGGER
BS  .IN                    8.75 : BIT SIZE
MUD .                       GEL : MUD TYPE
MUDD.                       9.9 : MUD DENSITY
MUDV.                        50 : MUD VISCOSITY
PH  .                           : MUD PH
FL  .                           : FLUID LOSS
MUDS.                           : SOURCE OF SAMPLE
RM  .OHMM                   2.3 : MUD RESISTIVITY
RMT .DEGF                    60 : RM TEMPERATURE
RMF .OHMM                   .76 : MUD FILTRATE RESISTIVITY
RMFT.DEGF                    96 : RMF TEMPERATURE
RMC .OHMM                   1.7 : MUD CAKE RESISTIVITY
RMCT.DEGF                    96 : RMC TEMPERATURE
RMFS.                           : RMF SOURCE
RMCS.                           : RMC SOURCE
RMBH.OHMM                   1.4 : MUD RESISTIVITY AT BHT
BHT .DEGF                    96 : BOTTOM HOLE TEMPERATURE
TIMC.                           : TIME CIRCULATION STOPPED
TIML.                           : TIME LOGGER ON BOTTOM
TMAX.DEGF                       : MAXIMUM RECORDED TEMPERATURE
UNIT.                       785 : EQUIPMENT NUMBER
BASE.                        WF : BASE LOCATION
ENG .                     JONES : RECORDED BY
WIT .               BALCH & NIX : WITNESSED BY
~Curve Information -----------------------------------------
DEPT.F          :DEPTH
CILD.MMHO       :
ILD.OHMM        :
ROP.FT/HR       :
SN.OHMM         :
SP.MV           :
~ASCII ------------------------------------------------------
227.00000        -999.25        2.64443        -999.25        2.26317      -10.19748
227.50000        -999.25        2.24326        -999.25        4.32505      -25.69929
228.00000        -999.25        1.96534        -999.25        7.04026      -36.43842
228.50000        -999.25        1.83984        -999.25        9.58766      -45.10871
229.00000      240.82372        2.47866        -999.25       10.45315      -49.50545
229.50000      215.30895        3.44469        -999.25       10.68189      -52.96378
230.00000      194.62856        5.07787        -999.25       10.52648      -55.43479
230.50000      185.85506        5.54804        -999.25       10.16675      -57.06523
231.00000      192.47995        5.87912        -999.25        9.69892      -58.69566
231.50000      227.17108        5.06894        -999.25        9.26711      -60.86957
232.00000      254.25254        4.40291        -999.25        8.90739      -63.04349
232.50000      270.36713        3.95309        -999.25        8.61973      -65.57972
233.00000      281.11020        3.70507        -999.25        8.36811      -67.21015
233.50000      298.12004        3.50750        -999.25        8.11648      -67.21015
234.00000      308.86310        3.36759        -999.25        7.72072      -64.31160
234.50000      316.02514        3.24210        -999.25        7.25301      -63.94928
235.00000      320.50142        3.18651        -999.25        6.89328      -66.12320
235.50000      323.18718        3.14858        -999.25        6.67769      -65.76088
236.00000      323.18718        3.11065        -999.25        6.75039      -63.58696
236.50000      320.50142        3.17579        -999.25        7.00327      -62.86233
237.00000      312.44412        3.25366        -999.25        7.32823      -62.31885
237.50000      299.91055        3.35447        -999.25        7.72537      -62.13769
238.00000      288.27224        3.50969        -999.25        7.99615      -61.77537
238.50000      279.31969        3.66779        -999.25        8.44722      -60.68841
239.00000      266.78611        3.79923        -999.25        9.13253      -59.96378
239.50000      260.51933        3.87193        -999.25        9.70986      -60.86957
240.00000      259.62407        3.87256        -999.25        9.85463      -63.04349
240.50000      259.62407        3.87319        -999.25        9.85526      -64.49276
241.00000      262.30984        3.87382        -999.25        9.81985      -65.94204
241.50000      265.89086        3.80238        -999.25        9.82048      -67.21015
242.00000      272.15765        3.73093        -999.25        9.82111      -68.29711
242.50000      282.00545        3.58755        -999.25        9.71363      -69.20291
243.00000      289.16749        3.48007        -999.25        9.42598      -69.92754
243.50000      298.12004        3.37259        -999.25        9.06625      -71.01450
244.00000      304.38683        3.30115        -999.25        8.74255      -71.92030
244.50000      307.96785        3.26574        -999.25        8.52697      -72.46377
245.00000      310.65361        3.23033        -999.25        8.49156      -72.46377
245.50000      310.65361        3.23096        -999.25        8.63646      -72.28261
246.00000      307.07259        3.30366        -999.25        8.92537      -71.73914
246.50000      302.59632        3.37636        -999.25        9.21429      -71.37682
247.00000      296.32953        3.41303        -999.25        9.43113      -71.01450
247.50000      289.16749        3.52176        -999.25        9.61194      -71.01450
248.00000      287.37698        3.52239        -999.25        9.57653      -70.83334
248.50000      288.27224        3.48711        -999.25        9.50509      -70.65218
249.00000      290.95800        3.45170        -999.25        9.43365      -70.65218
249.50000      294.53902        3.41630        -999.25        9.36221      -71.01450
250.00000      296.32953        3.42353        -999.25        9.29736      -71.01450
250.50000      296.32953        3.38812        -999.25        9.33415      -71.55798
251.00000      296.32953        3.42479        -999.25        9.51496      -71.19566
251.50000      293.64377        3.49749        -999.25        9.62370      -71.01450
252.00000      288.27224        3.53415        -999.25        9.80451      -70.83334
252.50000      281.11020        3.67892        -999.25       10.04550      -70.65218
253.00000      273.94816        3.71559        -999.25       10.26810      -70.10870
253.50000      267.68137        3.86049        -999.25       10.41900      -69.74638
254.00000      261.41458        3.89715        -999.25       10.56990      -69.02175
254.50000      256.04305        4.04192        -999.25       10.61485      -68.29711
255.00000      251.56678        4.07859        -999.25       10.63723      -68.11595
255.50000      247.09050        4.18732        -999.25       10.71498      -67.75363
256.00000      243.50948        4.26002        -999.25       10.92677      -67.75363
256.50000      239.03321        4.36876        -999.25       11.14362      -67.75363
257.00000      234.55693        4.47750        -999.25       11.39650      -67.75363
257.50000      227.39489        4.65831        -999.25       11.50523      -67.21015
258.00000      219.33760        4.98338        -999.25       11.28965      -65.76088
258.50000      211.28030        5.22437        -999.25       10.80992      -63.04349
259.00000      200.53724        5.46500        -999.25        9.89452      -58.33334
259.50000      191.58469        5.66995        -999.25        9.05047      -54.16668
260.00000      186.21316        5.85076        -999.25        8.20678      -48.36958
260.50000      184.42265        5.77931        -999.25        7.58111      -42.02900
261.00000      186.21316        5.67184        -999.25        7.43759      -36.59422
261.50000      191.58469        5.38418        -999.25        7.61852      -34.42030
262.00000      198.74673        5.24066        -999.25        8.01555      -35.14494
262.50000      207.69928        4.91697        -999.25        8.44861      -38.40581
263.00000      216.65183        4.62944        -999.25        8.95374      -46.01450
263.50000      223.81387        4.52196        -999.25        9.31472      -52.17392
264.00000      230.08066        4.37845        -999.25        9.45950      -56.52175
264.50000      235.45219        4.34304        -999.25        9.56823      -60.50726
265.00000      239.03321        4.27160        -999.25        9.74904      -63.22465
265.50000      242.61423        4.23619        -999.25        9.92277      -65.21740
266.00000      242.61423        4.27285        -999.25        9.99547      -66.66667
266.50000      241.71897        4.30952        -999.25       10.08258      -67.75363
267.00000      239.03321        4.34618        -999.25       10.20357      -68.65943
267.50000      234.55693        4.45492        -999.25       10.34258      -69.02175
268.00000      229.18540        4.67189        -999.25       10.48194      -69.02175
268.50000      225.60438        4.67252        -999.25       10.57194      -69.20291
269.00000      222.91862        4.70918        -999.25       10.58698      -69.02175
269.50000      221.12811        4.70981        -999.25       10.50761      -68.65943
270.00000      221.12811        4.63837        -999.25       10.38765      -68.47827
270.50000      223.81387        4.60296        -999.25       10.27729      -67.93479
271.00000      227.39489        4.49548        -999.25       10.16404      -67.39131
271.50000      231.87117        4.42404        -999.25       10.03855      -67.21015
272.00000      235.45219        4.35260        -999.25        9.90224      -67.21015
272.50000      238.13795        4.31719        -999.25        9.93890      -67.21015
273.00000      238.13795        4.31795        -999.25       10.04764      -66.84783
273.50000      236.34744        4.42668        -999.25       10.15638      -66.66667
274.00000      231.87117        4.53542        -999.25       10.37322      -66.84783
