~Version ---------------------------------------------------
VERS. 2.0 : CWLS LOG ASCII STANDARD - VERSION 2.0
WRAP. NO  : One line per depth step
DLM . SPACE : Column Data Section Delimiter
~Well ------------------------------------------------------
STRT.F          100 : START DEPTH
STOP.F       2271.5 : STOP DEPTH
STEP.F          0.5 : STEP
NULL.       -999.25 : NULL VALUE
COMP.                       WALSH & WATTS : COMPANY
WELL.                        SALMON E 24  : WELL
FLD .                               NORTH : FIELD
CNTY.                            MONTAGUE : COUNTY
STAT.                               TEXAS : STATE
CTRY.                                 USA : COUNTRY
SEC .                                     : SECTION
TWP .                                     : TOWNSHIP
RGE .                                     : RANGE
LOC .                 SW CORNER OF LEAGUE : LOCATION
EKB .F                          : ELEVATION KELLY BUSHING
EDF .F                          : ELEVATION DERRICK FLOOR
EGL .F                      850 : ELEVATION GROUND LEVEL
PDAT.                        GL : PERMANENT DATUM
EPD .                       850 : ELEVATION PERMANENT DATUM
APD .                         5 : ABOVE PERMANENT DATUM
LMF .                        RT : LOG MEASURED FROM
DMF .                        RT : DRILLING MEASURED FROM
API .            42337038630000 : API NUMBER
UWI .                           : UWI NUMBER
DIGC.                     NthDS : DIGITIZING COMPANY
~Params ----------------------------------------------------
SRVC.               HALLIBURTON : LOGGING COMPANY
LOG .                        EL : LOG
DATE.                1950-09-25 : RUN DATE
RUN .                         1 : RUN NUMBER
TDD .F                     2272 : TOTAL DEPTH DRILLER
TDL .F                     2272 : TOTAL DEPTH LOGGER
BOTL.F                     2272 : BOTTOM LOGGED INTERVAL
TOPL.F                          : TOP LOGGED INTERVAL
CSGS.IN                         : CASING SIZE
CSGD.F                          : CASING DRILLER
CSGL.F                          : CASING LOGGER
BS  .IN                       9 : BIT SIZE
MUD .        WATER BASE AQUAGEL : MUD TYPE
MUDD.                       9.8 : MUD DENSITY
MUDV.                        39 : MUD VISCOSITY
PH  .                           : MUD PH
FL  .                           : FLUID LOSS
MUDS.                           : SOURCE OF SAMPLE
RM  .OHMM                   2.3 : MUD RESISTIVITY
RMT .DEGF                    70 : RM TEMPERATURE
RMF .OHMM                       : MUD FILTRATE RESISTIVITY
RMFT.DEGF                       : RMF TEMPERATURE
RMC .OHMM                       : MUD CAKE RESISTIVITY
RMCT.DEGF                       : RMC TEMPERATURE
RMFS.                           : RMF SOURCE
RMCS.                           : RMC SOURCE
RMBH.OHMM                       : MUD RESISTIVITY AT BHT
BHT .DEGF                       : BOTTOM HOLE TEMPERATURE
TIMC.                           : TIME CIRCULATION STOPPED
TIML.                           : TIME LOGGER ON BOTTOM
TMAX.DEGF                       : MAXIMUM RECORDED TEMPERATURE
UNIT.                           : EQUIPMENT NUMBER
BASE.                           : BASE LOCATION
ENG .                  HARRISON : RECORDED BY
WIT .                    DAWSON : WITNESSED BY
~Curve Information -----------------------------------------
DEPT.F          :DEPTH
ILD.OHMM        :
SN.OHMM         :
SP.MV           :
~ASCII ------------------------------------------------------
# ...
2192.00000        4.44046        4.89484      -28.77717
2192.50000        4.41520        4.84871      -29.77299
2193.00000        4.38912        4.80176      -30.09968
2193.50000        4.32630        4.74061      -31.09550
2194.00000        4.25430        4.67946      -31.75676
2194.50000        4.18230        4.61832      -32.08344
2195.00000        4.11030        4.55717      -33.07927
2195.50000        4.03747        4.55863      -34.40966
2196.00000        3.96547        4.56008      -36.07462
2196.50000        3.89347        4.56154      -37.07044
2197.00000        3.85987        4.56300      -37.73169
2197.50000        3.82711        4.56445      -38.05838
2198.00000        3.94709        4.73285      -38.38507
2198.50000        4.16975        4.94299      -37.70804
2199.00000        4.43610        5.25192      -37.03102
2199.50000        4.82070        5.51881      -38.02685
2200.00000        5.32269        5.72365      -40.47357
2200.50000        5.64009        5.96663      -41.12603
2201.00000        6.27118        5.88390      -40.77484
2201.50000        7.02850        5.66197      -39.08542
2202.00000        6.57620        5.41918      -36.72688
2202.50000        6.12474        5.14550      -35.03746
2203.00000        5.67244        4.87265      -32.67893
2203.50000        5.31094        4.79846      -30.98951
2204.00000        5.08734        4.72427      -30.30375
2204.50000        5.00248        4.64924      -29.61800
2205.00000        4.82479        4.57504      -30.27047
2205.50000        4.57448        4.54258      -30.25383
2206.00000        4.37491        4.51615      -29.23352
2206.50000        4.12460        4.49454      -29.21688
2207.00000        4.07980        4.47293      -28.86568
2207.50000        4.08490        4.45132      -28.84904
2208.00000        4.09000        4.42887      -28.83239
2208.50000        4.09510        4.48155      -28.81575
2209.00000        4.10020        4.55258      -28.46455
2209.50000        4.10530        4.62362      -27.77880
2210.00000        4.11540        4.69466      -27.09305
2210.50000        4.14304        4.73148      -26.74185
2211.00000        4.17151        4.76913      -26.05610
2211.50000        4.19998        4.69493      -26.37401
2212.00000        4.05233        4.45464      -29.03381
2212.50000        3.78700        4.21435      -32.02817
2213.00000        3.52250        3.97406      -35.35709
2213.50000        3.33563        3.97916      -36.34745
2214.00000        3.46176        3.98425      -36.99992
2214.50000        3.58788        3.98935      -35.97961
2215.00000        3.71484        4.13384      -35.62841
2215.50000        3.84097        4.27749      -34.94265
2216.00000        3.96709        4.42198      -34.59146
2216.50000        4.09322        4.49302      -33.56782
2217.00000        4.09414        4.56406      -33.55118
2217.50000        4.09340        4.63509      -32.53087
2218.00000        4.09182        4.75204      -32.17967
2218.50000        4.09108        4.69787      -31.15936
2219.00000        4.08950        4.64371      -31.47727
2219.50000        4.08875        4.61292      -32.13307
2220.00000        4.08717        4.59966      -31.10943
2220.50000        4.08560        4.58556      -30.08912
2221.00000        4.08485        4.57146      -30.07248
2221.50000        4.08327        4.55736      -30.05584
2222.00000        4.08253        4.54410      -29.70464
2222.50000        4.08095        4.53000      -29.35344
2223.00000        4.08021        4.51358      -29.67469
2223.50000        4.07028        4.49948      -29.65804
2224.00000        4.04385        4.55383      -29.64140
2224.50000        4.02224        4.60817      -28.95565
2225.00000        4.00063        4.66168      -28.26990
2225.50000        3.97902        4.71436      -27.91870
2226.00000        3.95657        4.76620      -29.90939
2226.50000        3.93747        4.77946      -31.56553
2227.00000        3.92087        4.69293      -32.55255
2227.50000        3.90426        4.87516      -32.53591
2228.00000        3.88850        5.21310      -32.51927
2228.50000        3.87189        5.80247      -32.50263
2229.00000        3.85613        6.39183      -32.82054
2229.50000        3.83952        6.48039      -32.13479
2230.00000        3.82292        6.40203      -32.11815
2230.50000        3.81967        6.40713      -32.43606
2231.00000        3.82477        6.49569      -32.41942
2231.50000        3.82987        6.50079      -31.39911
2232.00000        3.83497        6.58936      -29.24131
2232.50000        3.84007        6.67792      -29.02393
2233.00000        3.84517        6.76649      -30.68007
2233.50000        3.85027        6.85505      -30.99798
2234.00000        3.86538        7.02810      -30.31223
2234.50000        3.89469        7.36707      -30.29559
2235.00000        3.92483        7.70603      -30.94806
2235.50000        3.95413        7.79459      -31.60053
2236.00000        4.27223        7.96663      -32.25300
2236.50000        4.59032        8.05519      -31.56724
2237.00000        4.90842        8.14376      -31.21605
2237.50000        4.78832        7.98192      -30.53029
2238.00000        4.55888        7.90356      -30.17909
2238.50000        4.32944        7.82519      -30.49701
2239.00000        4.07830        7.66335      -30.48037
2239.50000        3.81296        7.58499      -31.13284
2240.00000        3.54847        7.59009      -31.11619
2240.50000        3.37244        7.59519      -30.43044
2241.00000        3.55366        7.68375      -29.41013
2241.50000        3.77011        7.77232      -28.05527
2242.00000        3.95132        7.77741      -26.36584
2242.50000        4.16926        7.86598      -25.01098
2243.00000        4.35965        7.87108      -23.99067
2243.50000        4.33471        7.87618      -24.64314
2244.00000        4.30976        7.96474      -25.63016
2244.50000        4.28564        7.96984      -26.28263
2245.00000        4.26069        7.97494      -26.93510
2245.50000        4.23574        7.98004      -27.58757
2246.00000        4.21163        7.90167      -27.57093
2246.50000        4.18668        7.90677      -27.55429
2247.00000        4.16173        7.91187      -27.53765
2247.50000        4.13678        7.83350      -26.51734
2248.00000        4.11267        7.83860      -25.83158
2248.50000        4.08772        7.84472      -25.14583
2249.00000        4.15542        7.84982      -25.46374
2249.50000        4.22312        7.85492      -26.45077
2250.00000        4.27866        7.84786      -27.75649
2250.50000        4.34636        7.93643      -28.40602
2251.00000        4.56013        7.94153      -29.39011
2251.50000        4.71815        7.86316      -30.70875
2252.00000        4.43696        7.78479      -31.69283
2252.50000        4.15661        7.62296      -33.34602
2253.00000        3.87625        7.62806      -34.66466
2253.50000        3.73445        7.63418      -34.64510
2254.00000        3.80131        7.63928      -33.28734
2254.50000        3.86734        7.72784      -31.26048
2255.00000        3.93421        7.64947      -32.57911
2255.50000        4.01378        7.65457      -33.25876
2256.00000        4.08064        7.74314      -31.81402
2256.50000        4.14667        7.91517      -31.65729
2257.00000        4.63587        8.08822      -31.49722
2257.50000        5.23024        8.26025      -31.87243
2258.00000        5.94332        8.34882      -32.24429
2258.50000        5.86412        8.27045      -32.61949
2259.00000        5.33587        7.94168      -33.05827
2259.50000        4.80762        7.69638      -33.54053
2260.00000        4.27937        7.61802      -33.21987
2260.50000        3.91972        7.53965      -32.36394
2261.00000        3.70530        7.54577      -32.99340
2261.50000        3.71040        7.46740      -34.05778
2262.00000        3.71550        7.30557      -35.11881
2262.50000        3.72060        7.39413      -35.63119
2263.00000        3.72672        7.48270      -33.93888
