~Version ---------------------------------------------------
VERS. 2.0 : CWLS LOG ASCII STANDARD - VERSION 2.0
WRAP. NO  : One line per depth step
DLM . SPACE : Column Data Section Delimiter
~Well ------------------------------------------------------
STRT.F          230 : START DEPTH
STOP.F       1777.5 : STOP DEPTH
STEP.F          0.5 : STEP
NULL.       -999.25 : NULL VALUE
COMP.         WALSH & WATTS, INCORPORATED : COMPANY
WELL.                         SALMON E 44 : WELL
FLD .                             REGULAR : FIELD
CNTY.                            MONTAGUE : COUNTY
STAT.                               TEXAS : STATE
CTRY.                                 USA : COUNTRY
SEC .                                     : SECTION
TWP .                                     : TOWNSHIP
RGE .                                     : RANGE
LOC . 300' WEST OF NO 23, 300' SOUTH OF D-9, F.ROBERTSON SURV. : LOCATION
EKB .F                      862 : ELEVATION KELLY BUSHING
EDF .F                          : ELEVATION DERRICK FLOOR
EGL .F                      856 : ELEVATION GROUND LEVEL
PDAT.                        GL : PERMANENT DATUM
EPD .                       856 : ELEVATION PERMANENT DATUM
APD .                         6 : ABOVE PERMANENT DATUM
LMF .                        KB : LOG MEASURED FROM
DMF .                        KB : DRILLING MEASURED FROM
API .            42337038720000 : API NUMBER
UWI .                           : UWI NUMBER
DIGC.                     NthDS : DIGITIZING COMPANY
~Params ----------------------------------------------------
SRVC.              SCHLUMBERGER : LOGGING COMPANY
LOG .                       IEL : LOG
DATE.                1965-11-28 : RUN DATE
RUN .                         1 : RUN NUMBER
TDD .F                     1779 : TOTAL DEPTH DRILLER
TDL .F                     1779 : TOTAL DEPTH LOGGER
BOTL.F                     1778 : BOTTOM LOGGED INTERVAL
TOPL.F                          : TOP LOGGED INTERVAL
CSGS.IN                         : CASING SIZE
CSGD.F                          : CASING DRILLER
CSGL.F                          : CASING LOGGER
BS  .IN                   7.875 : BIT SIZE
MUD .                       GEL : MUD TYPE
MUDD.                        10 : MUD DENSITY
MUDV.                       9.8 : MUD VISCOSITY
PH  .                           : MUD PH
FL  .                           : FLUID LOSS
MUDS.                CIRCULATED : SOURCE OF SAMPLE
RM  .OHMM                   2.0 : MUD RESISTIVITY
RMT .DEGF                    81 : RM TEMPERATURE
RMF .OHMM                   1.5 : MUD FILTRATE RESISTIVITY
RMFT.DEGF                    81 : RMF TEMPERATURE
RMC .OHMM                       : MUD CAKE RESISTIVITY
RMCT.DEGF                       : RMC TEMPERATURE
RMFS.                         M : RMF SOURCE
RMCS.                           : RMC SOURCE
RMBH.OHMM                   1.6 : MUD RESISTIVITY AT BHT
BHT .DEGF                   100 : BOTTOM HOLE TEMPERATURE
TIMC.                           : TIME CIRCULATION STOPPED
TIML.                           : TIME LOGGER ON BOTTOM
TMAX.DEGF                   100 : MAXIMUM RECORDED TEMPERATURE
UNIT.                      4559 : EQUIPMENT NUMBER
BASE.                       WFS : BASE LOCATION
ENG .                      FINK : RECORDED BY
WIT .                       NIX : WITNESSED BY
~Curve Information -----------------------------------------
DEPT.F          :DEPTH
CILD.MMHO       :
ILD.OHMM        :
SN.OHMM         :
SP.MV           :
~ASCII ------------------------------------------------------
# ...
517.50000      220.72643        4.34446        8.49725      -75.06002
518.00000      220.18335        4.45404        8.45404      -75.36002
518.50000      221.16177        4.38523        7.57442      -75.58802
519.00000      224.42247        4.31641        6.64161      -75.52802
519.50000      227.67315        4.24760        6.19519      -75.46802
520.00000      230.93384        4.17878        5.93238      -75.40802
520.50000      230.71108        4.10996        5.91596      -75.34802
521.00000      230.47830        4.11635        5.89954      -75.25502
521.50000      230.25553        4.14193        5.93673      -74.97602
522.00000      230.02275        4.16712        5.98711      -74.74502
522.50000      229.79998        4.19270        6.03750      -74.51402
523.00000      229.57722        4.21788        6.18116      -74.28602
523.50000      229.34444        4.24835        6.33514      -74.30402
524.00000      229.12167        4.21873        6.43872      -75.33302
524.50000      231.66165        4.15231        6.33911      -76.35902
525.00000      234.90232        4.08470        6.28189      -77.38502
525.50000      238.13299        4.01188        6.39308      -77.76002
526.00000      243.94622        3.93907        6.35346      -77.16002
526.50000      250.92409        3.86585        6.08745      -76.56002
527.00000      256.73732        3.79303        5.82103      -75.96002
527.50000      260.66869        3.72022        5.83941      -75.57602
528.00000      261.80727        3.66180        5.85820      -75.51902
528.50000      262.93584        3.66219        5.72498      -75.46202
529.00000      264.06442        3.66257        5.55417      -75.39302
529.50000      263.50131        3.66295        5.38295      -75.33602
530.00000      262.51779        3.66334        5.45013      -75.03302
530.50000      256.50927        3.77692        5.53892      -74.36702
531.00000      249.24951        3.91891        5.71650      -74.37602
531.50000      240.55833        4.06129        5.92936      -74.83802
532.00000      230.92621        4.23175        6.10655      -75.30002
532.50000      221.29409        4.37213        6.28373      -74.68202
533.00000      216.26655        4.50572        6.41811      -74.06402
533.50000      212.39015        4.63930        6.38090      -73.44602
534.00000      212.40762        4.61728        6.34408      -73.46702
534.50000      212.42509        4.55607        6.30686      -73.91102
535.00000      216.29639        4.48805        6.34725      -74.35502
535.50000      221.11863        4.39324        6.38763      -74.79902
536.00000      225.95089        4.29842        6.26482      -75.33302
536.50000      230.78315        4.20361        6.14240      -75.68102
537.00000      236.57985        4.10879        6.06879      -75.87902
537.50000      237.55828        4.10917        6.06917      -76.08002
538.00000      237.57575        4.10956        6.12555      -76.28102
538.50000      234.59023        4.12314        6.26594      -76.47902
539.00000      231.60472        4.19033        6.43032      -76.68002
539.50000      220.25089        4.42871        6.63078      -76.46702
540.00000      208.88705        4.71517        6.63116      -75.63302
540.50000      198.89457        4.95355        6.71155      -74.32502
541.00000      189.23242        5.19194        6.91193      -72.69902
541.50000      179.57028        5.40912        7.11232      -70.71902
542.00000      175.98416        5.62590        7.18470      -67.30802
542.50000      173.91957        5.70309        7.22508      -63.90002
543.00000      173.54665        5.68667        7.02987      -62.10002
543.50000      175.70625        5.65385        6.77585      -60.95402
544.00000      178.22621        5.55424        6.55424      -60.33602
544.50000      180.74616        5.45462        6.35462      -59.71802
545.00000      181.43430        5.35501        6.15501      -59.10002
545.50000      180.89121        5.46979        6.11539      -58.69202
546.00000      172.15999        5.79097        6.28577      -58.28102
546.50000      161.37673        6.25016        6.61096      -58.64102
547.00000      150.59347        6.70934        7.21654      -59.19602
547.50000      139.81020        7.30820        8.17980      -59.74802
548.00000      126.69462        7.88618        9.23738      -60.30002
548.50000      117.93337        8.34057        9.99776      -59.68502
549.00000      115.72863        8.63815       10.24815      -59.07302
549.50000      115.85621        8.63853       10.27853      -58.45802
550.00000      115.78080        8.40000        9.92000      -57.84602
550.50000      120.21615        8.00000        9.32000      -57.90002
551.00000      127.93127        7.59320        8.72000      -57.90002
551.50000      135.64639        7.17680        8.32000      -58.20002
552.00000      142.21037        6.76000        7.97000      -58.95002
552.50000      148.48406        6.58680        7.74080      -58.86002
553.00000      152.89589        6.41320        7.69200      -58.56002
553.50000      154.51496        6.24000        7.64360      -58.26002
554.00000      156.13402        6.18280        7.59520      -57.96002
554.50000      157.75308        6.12560        7.54680      -57.66002
555.00000      159.37214        6.08320        7.49800      -57.36002
555.50000      160.46068        6.09880        7.44960      -58.89902
556.00000      160.79195        6.11480        7.42120      -60.90002
556.50000      161.06968        6.13040        7.39760      -62.83202
557.00000      161.35742        6.14640        7.37400      -64.66802
557.50000      160.80432        6.16520        7.39000      -65.91302
558.00000      160.06104        6.18120        7.44000      -66.77102
558.50000      158.71716        6.19680        7.49000      -67.62902
559.00000      155.02094        6.29160        7.54000      -67.89902
559.50000      151.32472        6.40560        7.61680      -68.02502
560.00000      147.62850        6.52000        7.71160      -68.62502
560.50000      143.93228        6.74320        7.80640      -70.20002
561.00000      140.23606        6.96600        7.90120      -71.51102
561.50000      136.53984        7.18920        8.12560      -72.25502
562.00000      133.05383        7.41240        8.43480      -72.13802
562.50000      129.56782        7.63520        8.82120      -72.02402
563.00000      125.38460        7.81880        9.20800      -71.90702
563.50000      122.37907        7.99200        9.48360      -71.79302
564.00000      121.28544        8.16520        9.59280      -71.67602
564.50000      120.93254        8.16360        9.68000      -71.56202
565.00000      121.69075        8.12720        9.68000      -71.44502
565.50000      122.44895        8.07000        9.68000      -71.52902
566.00000      123.20716        8.00760        9.68000      -71.74202
566.50000      123.96537        7.94480        9.71000      -71.95802
567.00000      124.72357        7.97160        9.86000      -72.17102
567.50000      120.36670        8.10400       10.10280      -72.38702
568.00000      115.86968        8.42400       10.40760      -72.60002
568.50000      111.17247        8.75200       10.71240      -71.93402
569.00000      106.48526        9.11200       11.01720      -71.11202
569.50000      101.78805        9.42000       11.33320      -69.66902
570.00000      105.14232        9.37720       11.66680      -68.22602
570.50000      108.16278        9.12000       12.00000      -66.49502
571.00000      111.52357        8.86280       11.56000      -65.05502
571.50000      114.87436        8.62480       10.54480      -63.52502
572.00000      117.00393        8.45520       10.26760      -61.65002
572.50000      119.12349        8.28600        9.99080      -59.77502
573.00000      121.25305        8.11680        9.76000      -57.90002
573.50000      123.54278        7.94760        9.56000      -56.70002
574.00000      126.50318        7.78200        9.72000      -58.70102
574.50000      129.46357        7.61800       10.22000      -61.77602
