~Version ---------------------------------------------------
VERS. 2.0 : CWLS LOG ASCII STANDARD - VERSION 2.0
WRAP. NO  : One line per depth step
DLM . SPACE : Column Data Section Delimiter
~Well ------------------------------------------------------
STRT.F          194 : START DEPTH
STOP.F       1764.0 : STOP DEPTH
STEP.F          0.5 : STEP
NULL.       -999.25 : NULL VALUE
COMP.                 WALSH & WATTS, INC. : COMPANY
WELL.                         SALMON E 42 : WELL
FLD .                        NORTH NOCONA : FIELD
CNTY.                            MONTAGUE : COUNTY
STAT.                               TEXAS : STATE
CTRY.                                 USA : COUNTRY
SEC .                                     : SECTION
TWP .                                     : TOWNSHIP
RGE .                                     : RANGE
LOC . 150' FSL & 300' W OF WELL NO. 1, 407' E OF WELL NO. 5, F. ROBERTSON SURVEY : LOCATION
EKB .F                      880 : ELEVATION KELLY BUSHING
EDF .F                          : ELEVATION DERRICK FLOOR
EGL .F                      874 : ELEVATION GROUND LEVEL
PDAT.              GROUND LEVEL : PERMANENT DATUM
EPD .                       874 : ELEVATION PERMANENT DATUM
APD .                         6 : ABOVE PERMANENT DATUM
LMF .                        KB : LOG MEASURED FROM
DMF .                        KB : DRILLING MEASURED FROM
API .            42337037780000 : API NUMBER
UWI .            42337037780000 : UWI NUMBER
DIGC.                     NthDS : DIGITIZING COMPANY
~Params ----------------------------------------------------
SRVC.                LANE WELLS : LOGGING COMPANY
LOG .                       IEL : LOG
DATE.                1965-11-21 : RUN DATE
RUN .                         1 : RUN NUMBER
TDD .F                     1766 : TOTAL DEPTH DRILLER
TDL .F                     1768 : TOTAL DEPTH LOGGER
BOTL.F                     1764 : BOTTOM LOGGED INTERVAL
TOPL.F                      200 : TOP LOGGED INTERVAL
CSGS.IN                         : CASING SIZE
CSGD.F                          : CASING DRILLER
CSGL.F                          : CASING LOGGER
BS  .IN                   7.875 : BIT SIZE
MUD .              CHEMICAL GEL : MUD TYPE
MUDD.                       9.8 : MUD DENSITY
MUDV.                       123 : MUD VISCOSITY
PH  .                           : MUD PH
FL  .                           : FLUID LOSS
MUDS.                CIRCULATED : SOURCE OF SAMPLE
RM  .OHMM                   2.1 : MUD RESISTIVITY
RMT .DEGF                    70 : RM TEMPERATURE
RMF .OHMM                  1.81 : MUD FILTRATE RESISTIVITY
RMFT.DEGF                    70 : RMF TEMPERATURE
RMC .OHMM                  2.34 : MUD CAKE RESISTIVITY
RMCT.DEGF                    70 : RMC TEMPERATURE
RMFS.                  MEASURED : RMF SOURCE
RMCS.                           : RMC SOURCE
RMBH.OHMM                   1.5 : MUD RESISTIVITY AT BHT
BHT .DEGF                    98 : BOTTOM HOLE TEMPERATURE
TIMC.                           : TIME CIRCULATION STOPPED
TIML.                           : TIME LOGGER ON BOTTOM
TMAX.DEGF                    98 : MAXIMUM RECORDED TEMPERATURE
UNIT.                    L-4553 : EQUIPMENT NUMBER
BASE.                      W.F. : BASE LOCATION
ENG .                     ADAMS : RECORDED BY
WIT .   MR. HARRELSON & MR. NIX : WITNESSED BY
~Curve Information -----------------------------------------
DEPT.F          :DEPTH
CILD.MMHO       :
ILD.OHMM        :
ROP.MIN/FT      :
SN.OHMM         :
SP.MV           :
~ASCII ------------------------------------------------------
# ...
1095.50000     1502.97921        0.67061        0.83229        2.24852     -117.39131
1096.00000     1388.83821        0.67061        0.83238        2.40631     -117.39131
1096.50000     1269.11628        0.78895        0.83248        2.68245     -117.68775
1097.00000     1210.52641        0.78895        0.83257        2.95858     -117.68775
1097.50000     1151.93655        0.86785        0.83267        3.15582     -117.68775
1098.00000     1134.55820        0.78895        0.83276        3.35306     -117.09487
1098.50000     1133.81341        0.86785        0.83286        3.43195     -116.79843
1099.00000     1158.02394        0.86785        0.83295        3.47140     -116.50198
1099.50000     1196.16693        0.86785        0.83307        3.58974     -117.09487
1100.00000     1237.79553        0.78895        0.84814        3.70809     -117.68775
1100.50000     1275.79374        0.82840        0.84824        3.86588     -117.98420
1101.00000     1281.45842        0.78895        0.84833        3.74753     -117.68775
1101.50000     1260.20842        0.86785        0.84843        3.51085     -116.79843
1102.00000     1215.60525        0.74951        0.84852        3.19527     -115.31621
1102.50000     1165.17867        0.90730        0.84862        2.91913     -112.94467
1103.00000     1118.05566        0.90730        0.84871        2.64300     -109.68380
1103.50000     1067.46043        0.98619        0.84883        2.44576     -106.42294
1104.00000     1052.57948        1.02564        0.84892        2.36686     -102.56918
1104.50000     1064.98027        0.98619        0.84901        2.20907      -99.90120
1105.00000     1077.38106        0.94675        0.84911        2.09073      -99.60476
1105.50000     1111.60725        0.94675        0.84920        1.97239     -100.49408
1106.00000     1145.83344        0.86785        0.84930        1.81460     -104.34784
1106.50000     1187.10327        0.86785        0.84939        1.73570     -107.90515
1107.00000     1221.49811        0.82840        0.84949        1.73570     -109.09092
1107.50000     1258.18461        0.82840        0.84958        1.73570     -109.38736
1108.00000     1304.06755        0.78895        0.84970        1.73570     -109.09092
1108.50000     1331.34929        0.78895        0.84979        1.73570     -110.27669
1109.00000     1346.23024        0.74951        0.84989        1.61736     -111.16602
1109.50000     1340.27786        0.74951        0.84998        1.53846     -110.86957
1110.00000     1310.84334        0.74951        0.94209        1.45957     -110.86957
1110.50000     1277.77787        0.82840        0.99060        1.45957     -110.57313
1111.00000     1226.19057        0.82840        0.99356        1.45957     -109.98025
1111.50000     1174.60328        0.94675        0.99651        1.53846     -109.68380
1112.00000     1094.62313        0.86785        1.21724        1.61736     -109.38736
1112.50000     1016.20052        0.98619        1.22207        1.77515     -109.38736
1113.00000      956.59723        1.10454        1.22679        1.90493     -107.90515
1113.50000      917.33136        1.14398        1.23162        2.01183     -106.12649
1114.00000      880.95240        1.14398        1.51150        2.01183     -104.94072
1114.50000      860.40676        1.18343        1.51130        2.05128     -104.94072
1115.00000      860.29764        1.18343        1.51100        2.09073     -105.83005
1115.50000      873.82938        1.14398        1.51072        2.09073     -106.12649
1116.00000      891.86509        1.10454        1.51052        2.05128     -106.12649
1116.50000      903.76985        1.10454        1.51022        1.97239     -106.71938
1117.00000      910.71430        1.14398        1.51002        1.97239     -110.27669
1117.50000      915.67461        1.10454        1.50972        1.97239     -113.53756
1118.00000      920.63493        1.10454        1.50952        1.93294     -114.72333
1118.50000      921.62699        1.10454        1.50922        1.97239     -115.31621
1119.00000      910.71430        1.10454        1.50901        2.05128     -116.50198
1119.50000      889.88097        1.14398        1.50871        2.09073     -117.68775
1120.00000      866.07144        1.18343        1.50843        2.24852     -117.98420
1120.50000      832.34129        1.26233        1.50813        2.36686     -117.68775
1121.00000      802.57939        1.26233        1.50793        2.56410     -117.09487
1121.50000      785.89288        1.26233        1.50763        2.72189     -115.90910
1122.00000      771.27979        1.22288        1.50743        2.99803     -115.01977
1122.50000      775.08931        1.30177        1.50713        3.19527     -114.42689
1123.00000      787.69844        1.26233        1.50693        3.31361     -113.24112
1123.50000      807.53971        1.26233        1.50663        3.27416     -112.05535
1124.00000      827.38097        1.22288        1.50635        3.15582     -111.46246
1124.50000      842.26192        1.22288        1.50615        2.95858     -111.46246
1125.00000      847.22224        1.22288        1.50585        2.64300     -111.16602
1125.50000      835.31748        1.26233        1.50565        2.48521     -111.16602
1126.00000      814.48415        1.22288        1.50535        2.44576     -111.75890
1126.50000      791.66669        1.34122        1.50515        2.48521     -112.35179
1127.00000      765.87304        1.34122        1.50485        2.56410     -112.35179
1127.50000      748.01590        1.38067        1.50465        2.64300     -111.46246
1128.00000      734.62305        1.38067        1.66886        2.72189     -110.27669
1128.50000      721.55757        1.42012        1.75111        2.72189     -109.38736
1129.00000      723.21432        1.38067        1.75120        2.76134     -108.79448
1129.50000      733.13495        1.38067        1.75130        2.80079     -108.49803
1130.00000      744.75202        1.38067        1.75139        2.87968     -108.79448
1130.50000      758.92860        1.30177        3.97783        3.03747     -109.68380
1131.00000      804.56352        1.22288        3.97487        3.15582     -109.98025
1131.50000      867.06351        1.14398        3.97191        3.23471     -110.86957
1132.00000     1041.66678        1.10454        3.47762        3.21381     -111.75890
1132.50000     1102.84733        0.94675        3.47772        2.91282     -112.94467
1133.00000     1172.47034        0.86785        3.47781        2.61183     -114.13044
1133.50000      943.45239        0.82840        3.47791        2.31085     -115.31621
1134.00000      948.41270        0.74951        2.48086        2.08205     -117.39131
1134.50000     1384.92071        0.74951        2.47839        1.93728     -118.87353
1135.00000     1401.28976        0.71006        2.47592        1.81696     -119.76285
1135.50000     1417.65880        0.71006        2.47288        1.69625     -119.76285
1136.00000      957.34128        0.74951        3.47998        1.72899     -119.46641
1136.50000     1344.79175        0.78895        3.48264        1.76213     -118.87353
1137.00000      956.34921        0.86785        3.48529        1.80473     -117.98420
1137.50000      955.35715        0.90730        3.48805        1.85404     -117.39131
1138.00000      952.38096        0.98619        2.99505        1.95463     -116.50198
1138.50000     1002.97631        1.06509        2.99248        2.10690     -114.72333
1139.00000      938.49207        1.18343        2.99001        2.25917     -112.94467
1139.50000      869.04764        1.30966        2.98707        2.41183     -110.27669
1140.00000      768.84923        1.41499        1.99957        2.56410     -107.90515
1140.50000      682.53972        1.51992        1.99821        2.60355     -106.12649
1141.00000      623.01592        1.64615        1.99702        2.68245     -104.05139
1141.50000      591.26989        1.75148        1.99583        2.72189     -100.49408
1142.00000      560.51593        1.85680        1.99465        2.68245      -92.49013
