~Version ---------------------------------------------------
VERS. 2.0 : CWLS LOG ASCII STANDARD - VERSION 2.0
WRAP. NO  : One line per depth step
DLM . SPACE : Column Data Section Delimiter
~Well ------------------------------------------------------
STRT.F          230 : START DEPTH
STOP.F       1777.5 : STOP DEPTH
STEP.F          0.5 : STEP
NULL.       -999.25 : NULL VALUE
COMP.         WALSH & WATTS, INCORPORATED : COMPANY
WELL.                         SALMON E 44 : WELL
FLD .                             REGULAR : FIELD
CNTY.                            MONTAGUE : COUNTY
STAT.                               TEXAS : STATE
CTRY.                                 USA : COUNTRY
SEC .                                     : SECTION
TWP .                                     : TOWNSHIP
RGE .                                     : RANGE
LOC . 300' WEST OF NO 23, 300' SOUTH OF D-9, F.ROBERTSON SURV. : LOCATION
EKB .F                      862 : ELEVATION KELLY BUSHING
EDF .F                          : ELEVATION DERRICK FLOOR
EGL .F                      856 : ELEVATION GROUND LEVEL
PDAT.                        GL : PERMANENT DATUM
EPD .                       856 : ELEVATION PERMANENT DATUM
APD .                         6 : ABOVE PERMANENT DATUM
LMF .                        KB : LOG MEASURED FROM
DMF .                        KB : DRILLING MEASURED FROM
API .            42337038720000 : API NUMBER
UWI .                           : UWI NUMBER
DIGC.                     NthDS : DIGITIZING COMPANY
~Params ----------------------------------------------------
SRVC.              SCHLUMBERGER : LOGGING COMPANY
LOG .                       IEL : LOG
DATE.                1965-11-28 : RUN DATE
RUN .                         1 : RUN NUMBER
TDD .F                     1779 : TOTAL DEPTH DRILLER
TDL .F                     1779 : TOTAL DEPTH LOGGER
BOTL.F                     1778 : BOTTOM LOGGED INTERVAL
TOPL.F                          : TOP LOGGED INTERVAL
CSGS.IN                         : CASING SIZE
CSGD.F                          : CASING DRILLER
CSGL.F                          : CASING LOGGER
BS  .IN                   7.875 : BIT SIZE
MUD .                       GEL : MUD TYPE
MUDD.                        10 : MUD DENSITY
MUDV.                       9.8 : MUD VISCOSITY
PH  .                           : MUD PH
FL  .                           : FLUID LOSS
MUDS.                CIRCULATED : SOURCE OF SAMPLE
RM  .OHMM                   2.0 : MUD RESISTIVITY
RMT .DEGF                    81 : RM TEMPERATURE
RMF .OHMM                   1.5 : MUD FILTRATE RESISTIVITY
RMFT.DEGF                    81 : RMF TEMPERATURE
RMC .OHMM                       : MUD CAKE RESISTIVITY
RMCT.DEGF                       : RMC TEMPERATURE
RMFS.                         M : RMF SOURCE
RMCS.                           : RMC SOURCE
RMBH.OHMM                   1.6 : MUD RESISTIVITY AT BHT
BHT .DEGF                   100 : BOTTOM HOLE TEMPERATURE
TIMC.                           : TIME CIRCULATION STOPPED
TIML.                           : TIME LOGGER ON BOTTOM
TMAX.DEGF                   100 : MAXIMUM RECORDED TEMPERATURE
UNIT.                      4559 : EQUIPMENT NUMBER
BASE.                       WFS : BASE LOCATION
ENG .                      FINK : RECORDED BY
WIT .                       NIX : WITNESSED BY
~Curve Information -----------------------------------------
DEPT.F          :DEPTH
CILD.MMHO       :
ILD.OHMM        :
SN.OHMM         :
SP.MV           :
~ASCII ------------------------------------------------------
230.00000       72.07219       14.09181        -999.25      -61.90478
230.50000       73.57369       13.81956        3.51297      -62.67859
231.00000       74.57469       13.63832        3.57285      -63.19347
231.50000       75.57569       13.45668        3.63273      -63.71133
232.00000       76.57669       13.27545        3.87225      -64.22621
232.50000       79.51963       13.09381        4.11178      -64.74109
233.00000       84.41453       12.41517        6.05469      -65.25895
233.50000       89.30942       11.61676        8.46307      -65.77383
234.00000       94.20432       11.00798       11.69660      -64.58335
234.50000       99.09921       10.58882       11.44111      -63.39288
235.00000      101.90201       10.16966       11.18563      -62.20240
235.50000      104.70481        9.75050       10.89261      -63.09526
236.00000      108.53865        9.38124       10.56167      -63.98812
236.50000      113.40351        9.07066       10.23114      -64.88097
237.00000      118.25837        8.76926        9.90020      -65.77383
237.50000      123.12323        8.46746        9.67465      -65.65478
238.00000      125.12523        8.16607        9.44950      -65.53573
238.50000      127.12723        7.86427        9.22395      -65.41669
239.00000      129.12924        7.76447        8.99840      -65.29764
239.50000      131.13124        7.66467        8.77285      -65.17859
240.00000      135.70581        7.47944        8.54770      -64.73216
240.50000      140.28039        7.29461        8.32215      -64.28574
241.00000      144.85496        7.10938        8.09660      -63.83931
241.50000      149.43954        6.92415        7.90219      -63.39288
242.00000      154.01412        6.73932        7.73852      -63.39288
242.50000      158.58869        6.55409        7.57485      -63.39288
243.00000      163.16327        6.36926        7.41118      -63.39288
243.50000      167.73784        6.18403        7.24750      -63.39288
244.00000      172.31241        5.99880        7.08383      -63.39288
244.50000      176.88699        5.81397        6.92016      -63.39288
245.00000      178.37848        5.62874        6.75649      -63.66371
245.50000      176.77688        5.58882        6.59281      -63.93454
246.00000      175.17528        5.54890        6.42914      -64.20538
246.50000      168.91902        5.77844        6.49700      -64.47621
247.00000      162.66277        6.00798        6.79641      -64.74704
247.50000      156.40651        6.23752        7.06587      -64.78276
248.00000      150.15025        6.62674        7.42515      -64.48514
248.50000      142.39250        6.94611        7.66467      -64.28574
249.00000      134.63474        7.27425        7.90419      -64.08633
249.50000      126.87698        7.61157        8.14371      -63.88990
250.00000      119.11923        7.94850        8.38323      -63.69050
250.50000      115.78589        8.28583        8.62275      -63.49109
251.00000      112.44255        8.62275        8.86227      -63.29466
251.50000      109.10922        8.77525        9.10179      -63.09526
252.00000      108.10822        8.92774        9.34132      -62.89585
252.50000      107.10722        9.07984        9.50778      -62.69943
253.00000      106.10622        9.23233        9.60080      -62.50002
253.50000      105.10522        9.38483        9.69381      -62.30062
254.00000      104.10421        9.47625        9.84431      -62.20240
254.50000      104.10421        9.50619       10.05189      -62.20240
255.00000      104.10421        9.53613       10.25948      -62.20240
255.50000      103.10321        9.56607       10.13972      -62.20240
256.00000      101.10121        9.74052       10.01996      -62.20240
256.50000       98.54866       10.05988        9.90020      -62.20240
257.00000       95.45557       10.37924       10.57884      -62.20240
257.50000       92.36247       10.69860       11.25748      -62.20240
258.00000       89.26938       11.01796       11.50419      -62.20240
258.50000       86.17629       11.33732       11.75090      -62.20240
259.00000       83.08320       11.65668       11.99800      -62.20240
259.50000       84.58470       11.59680       12.24471      -62.15478
260.00000       86.08620       11.53692       12.49141      -62.10716
260.50000       90.89100       11.10579       12.43513      -62.05955
261.00000       95.69581       10.67465       12.07585      -62.01193
261.50000      100.50061       10.13173       11.49700      -61.96431
262.00000      105.30542        9.47704       10.69860      -61.91669
262.50000      110.11022        8.82235       10.32615      -61.86907
263.00000      119.44956        8.55609        9.95329      -61.82145
263.50000      123.34345        8.29022        9.58084      -61.77383
264.00000      121.79190        8.02395        9.20838      -61.72621
264.50000      120.23034        8.23353        9.13373      -61.67859
265.00000      118.67879        8.44311        9.35728      -61.63097
265.50000      115.03514        8.67432        9.74052      -61.85121
266.00000      110.86097        8.92326       10.05988      -62.09824
266.50000      106.68680        9.31137       10.07984      -62.34228
267.00000      102.52263        9.65549       10.09980      -62.58633
267.50000       98.34846       10.04471       10.49900      -62.83335
268.00000       94.17429       10.43393       10.89820      -63.07740
268.50000       93.59371       10.82315       11.03792      -63.32145
269.00000       96.59671       10.75169       11.17764      -63.56847
269.50000       99.59971       10.21956       11.31736      -63.59228
270.00000      102.60271        9.80439       11.45708      -63.39288
270.50000      105.60572        9.38922       10.97804      -63.81847
271.00000      109.24936        9.06187       10.49900      -64.24407
271.50000      113.54365        8.82235        9.88024      -64.66966
272.00000      117.82794        8.58283        9.40519      -64.45538
272.50000      122.12223        8.34331        9.21357      -63.60419
273.00000      119.67979        8.26347        9.02195      -62.75597
273.50000      117.22734        8.47106        9.22714      -61.90478
274.00000      114.78489        8.67864        9.43273      -61.97919
274.50000      112.33244        8.83233        9.63792      -62.05359
275.00000      111.44155        8.93213        9.82714      -62.12800
275.50000      112.11222        8.93692       10.00000      -62.20240
276.00000      112.78289        8.84710       10.17285      -63.02085
276.50000      113.44355        8.75728       10.14970      -63.83931
277.00000      114.11422        8.66746        9.93014      -64.65776
277.50000      116.11622        8.57764        9.50100      -65.47621
278.00000      118.11823        8.48782        8.86227      -64.28574
278.50000      120.12023        8.39800        8.68543      -64.18752
279.00000      122.12223        8.30818        8.97046      -65.17859
279.50000      119.86998        8.33772        9.25589      -66.16966
280.00000      117.61773        8.48583        9.54092      -67.16371
280.50000      115.36547        8.63433        9.38124      -68.15478
281.00000      113.11322        8.78243        9.22155      -67.95538
281.50000      114.31442        8.70259        9.24830      -67.75895
282.00000      115.51562        8.62275        9.46108      -67.55954
282.50000      115.28539        8.54291        9.30139      -66.89883
283.00000      113.61372        8.66267        9.06187      -65.90478
283.50000      111.94205        8.82235        8.90219      -65.24407
284.00000      112.55266        8.98203        9.42116      -64.58335
284.50000      115.44555        8.75130        9.28423      -64.65776
285.00000      118.33845        8.52056        9.14730      -64.73216
285.50000      121.23134        8.29022        9.01038      -64.80657
286.00000      124.12423        8.05948        9.01197      -64.88097
286.50000      127.97809        7.82435        9.15169      -64.45538
287.00000      131.82193        7.58483        9.06866      -64.02978
