~Version ---------------------------------------------------
VERS. 2.0 : CWLS LOG ASCII STANDARD - VERSION 2.0
WRAP. NO  : One line per depth step
DLM . SPACE : Column Data Section Delimiter
~Well ------------------------------------------------------
STRT.F          227 : START DEPTH
STOP.F       2033.0 : STOP DEPTH
STEP.F          0.5 : STEP
NULL.       -999.25 : NULL VALUE
COMP.                  WALSH & WATTS, INC : COMPANY
WELL.                          HYNDS A 10 : WELL
FLD .                           N. NOCONA : FIELD
CNTY.                            MONTAGUE : COUNTY
STAT.                               TEXAS : STATE
CTRY.                                 USA : COUNTRY
SEC .                                     : SECTION
TWP .                                     : TOWNSHIP
RGE .                                     : RANGE
LOC .  244' SE OF NO. 5A J.J. WALL SURVEY : LOCATION
EKB .F                    903.5 : ELEVATION KELLY BUSHING
EDF .F                          : ELEVATION DERRICK FLOOR
EGL .F                      897 : ELEVATION GROUND LEVEL
PDAT.                        GL : PERMANENT DATUM
EPD .                           : ELEVATION PERMANENT DATUM
APD .                         6 : ABOVE PERMANENT DATUM
LMF .                           : LOG MEASURED FROM
DMF .                           : DRILLING MEASURED FROM
API .            42337037830000 : API NUMBER
UWI .            42337037830000 : UWI NUMBER
DIGC.                     NthDS : DIGITIZING COMPANY
~Params ----------------------------------------------------
SRVC.              SCHLUMBERGER : LOGGING COMPANY
LOG .                       IEL : LOG
DATE.                1957-10-20 : RUN DATE
RUN .                         1 : RUN NUMBER
TDD .F                          : TOTAL DEPTH DRILLER
TDL .F                          : TOTAL DEPTH LOGGER
BOTL.F                     2039 : BOTTOM LOGGED INTERVAL
TOPL.F                          : TOP LOGGED INTERVAL
CSGS.IN                         : CASING SIZE
CSGD.F                      227 : CASING DRILLER
CSGL.F                      227 : CASING LOGGER
BS  .IN                    8.75 : BIT SIZE
MUD .                       GEL : MUD TYPE
MUDD.                       9.9 : MUD DENSITY
MUDV.                        50 : MUD VISCOSITY
PH  .                           : MUD PH
FL  .                           : FLUID LOSS
MUDS.                           : SOURCE OF SAMPLE
RM  .OHMM                   2.3 : MUD RESISTIVITY
RMT .DEGF                    60 : RM TEMPERATURE
RMF .OHMM                   .76 : MUD FILTRATE RESISTIVITY
RMFT.DEGF                    96 : RMF TEMPERATURE
RMC .OHMM                   1.7 : MUD CAKE RESISTIVITY
RMCT.DEGF                    96 : RMC TEMPERATURE
RMFS.                           : RMF SOURCE
RMCS.                           : RMC SOURCE
RMBH.OHMM                   1.4 : MUD RESISTIVITY AT BHT
BHT .DEGF                    96 : BOTTOM HOLE TEMPERATURE
TIMC.                           : TIME CIRCULATION STOPPED
TIML.                           : TIME LOGGER ON BOTTOM
TMAX.DEGF                       : MAXIMUM RECORDED TEMPERATURE
UNIT.                       785 : EQUIPMENT NUMBER
BASE.                        WF : BASE LOCATION
ENG .                     JONES : RECORDED BY
WIT .               BALCH & NIX : WITNESSED BY
~Curve Information -----------------------------------------
DEPT.F          :DEPTH
CILD.MMHO       :
ILD.OHMM        :
ROP.FT/HR       :
SN.OHMM         :
SP.MV           :
~ASCII ------------------------------------------------------
# ...
1504.00000      364.37113        2.69465        3.99164        2.98077      -22.47155
1504.50000      380.71103        2.54074        3.99235        2.94771      -24.60678
1505.00000      397.49072        2.35849        3.99324        2.90840      -26.96977
1505.50000      422.47064        2.15498        3.99395        2.87569      -29.25802
1506.00000      470.92211        1.95183        3.99466        2.80768      -32.91816
1506.50000      514.37939        1.74832        3.99537        2.76633      -34.51959
1507.00000      586.93916        1.54517        3.99608        2.76570      -37.90037
1507.50000      659.49894        1.34166        3.99680        2.76507      -44.89147
1508.00000      739.66809        1.14667        3.99751        2.76444      -56.49467
1508.50000      819.83724        1.06604        3.99822        2.70207      -71.17438
1509.00000      891.14370        1.00235        3.99893        2.57387      -78.54627
1509.50000      950.56277        0.95019        3.99982        2.37072      -82.56228
1510.00000     1016.88654        0.89839        4.00053        2.30054      -79.98221
1510.50000     1076.23399        0.88731        4.00124        2.43685      -77.09075
1511.00000     1088.58234        0.88668        4.00196        2.61640      -77.40214
1511.50000     1064.74586        0.91836        4.00267        2.80244      -78.58897
1512.00000     1040.91833        0.97178        4.00338        3.05609      -80.38257
1512.50000     1017.08185        1.02521        4.47011        3.26736      -82.38435
1513.00000      936.58315        1.07863        4.48007        3.47862      -84.16370
1513.50000      875.74719        1.15044        4.48986        3.29781      -84.34164
1514.00000      822.06518        1.23449        4.50178        3.03304      -78.82563
1514.50000      761.48883        1.31891        4.03915        2.74701      -67.81495
1515.00000      714.42137        1.37545        4.03915        2.52944      -53.02492
1515.50000      704.01320        1.34923        4.03915        2.39103      -38.79005
1516.00000      721.83135        1.25852        4.03915        2.29743      -34.60856
1516.50000      755.11892        1.16780        3.71779        2.25788      -33.98578
1517.00000      839.20914        1.04717        3.71228        2.30230      -40.27226
1517.50000      923.29936        0.84209        3.70658        2.43860      -51.24556
1518.00000     1000.55009        0.81456        3.70107        2.63617      -67.85232
1518.50000     1150.06674        0.77345        2.06406        2.69933      -84.47509
1519.00000     1221.62386        0.73894        2.06406        2.63227      -88.93239
1519.50000     1243.47946        0.76462        2.06406        2.51704      -90.48043
1520.00000     1238.81861        0.80579        2.06406        2.44038      -89.32385
1520.50000     1190.77536        0.85237        3.04270        2.52011      -84.95552
1521.00000     1124.90825        0.92165        3.04270        2.50507      -80.58897
1521.50000     1070.02665        0.99129        3.04270        2.34804      -75.53381
1522.00000      962.97570        1.07450        1.08541        2.19138      -69.26869
1522.50000      908.52266        1.08793        1.08683        2.19783      -58.84520
1523.00000      878.74305        1.08730        1.08861        2.36549      -55.87190
1523.50000      876.54406        1.06505        1.09021        2.53279      -62.67794
1524.00000      900.76190        1.02838        1.09164        2.70765      -70.90748
1524.50000      941.08591        0.99172        1.09306        2.88720      -75.66727
1525.00000     1016.29140        0.95505        1.09466        2.97486      -76.96976
1525.50000     1053.16767        0.91718        1.09609        3.03982      -78.29182
1526.00000     1083.90386        0.88808        1.09751        3.09793      -81.99289
1526.50000     1111.02221        0.85899        1.09911        3.16204      -85.49822
1527.00000     1125.48329        0.82989        1.10053        3.18663      -85.94306
1527.50000     1127.68878        0.84944        1.10231        3.20402      -85.94306
1528.00000     1114.02201        0.86863        3.46975        3.17600      -88.25623
1528.50000     1097.15035        0.88818        3.46975        3.13682      -89.14591
1529.00000     1078.83738        0.91121        3.46975        3.09763      -88.66726
1529.50000     1060.52442        0.93076        3.46975        3.24439      -87.57118
1530.00000      993.84793        0.98707        3.46975        3.42057      -86.47687
1530.50000      955.59839        1.05311        3.46975        3.65165      -86.62456
1531.00000      913.35617        1.11878        3.46975        3.97534      -86.77402
1531.50000      874.79444        1.18446        3.46975        4.30156      -86.08541
1532.00000      825.68587        1.24401        3.46975        4.39102      -83.73666
1532.50000      775.20762        1.30320        3.46975        4.38318      -81.42349
1533.00000      727.97120        1.37452        3.46975        4.11048      -78.82563
1533.50000      683.24922        1.43407        3.46975        3.61784      -77.40214
1534.00000      661.32851        1.43344        3.46975        3.18478      -75.26691
1534.50000      656.11262        1.43281        3.46975        2.79316      -68.41638
1535.00000      658.83735        1.43218        3.46975        2.64299      -60.99645
1535.50000      659.21659        1.43156        3.46975        2.70470      -55.97866
1536.00000      657.80426        1.43093        4.19039        2.95272      -54.44841
1536.50000      657.73589        1.43017        4.43060        3.35389      -63.18862
1537.00000      656.79021        1.45261        4.43060        3.75542      -73.30961
1537.50000      649.37209        1.49053        4.43060        3.95142      -76.77936
1538.00000      632.40195        1.52882        5.01601        3.37422      -74.67438
1538.50000      615.43181        1.64675        5.01156        3.17539      -67.64591
1539.00000      585.41831        1.78450        5.00712        2.97657      -56.22777
1539.50000      557.50971        1.91072        5.00267        2.88224      -53.09610
1540.00000      517.76516        2.00618        4.33576        2.91765      -51.86834
1540.50000      494.27781        2.00807        4.00480        2.92518      -46.26336
1541.00000      486.70750        1.95844        4.00676        2.90185      -37.18863
1541.50000      498.67985        1.85619        4.00818        2.87888      -33.62991
1542.00000      528.23321        1.67538        4.00979        2.88870      -34.87546
1542.50000      570.58937        1.49457        4.01139        2.98393      -38.43418
1543.00000      644.63521        1.31376        4.01299        3.22366      -52.66905
1543.50000      721.08024        1.11986        4.01441        3.46339      -65.56940
1544.00000      798.00869        1.05364        4.01601        3.72690      -76.46798
1544.50000      873.75545        0.98743        4.01761        4.05047      -82.56228
1545.00000      943.62956        0.98680        4.01922        3.82065      -84.96442
1545.50000      967.32931        0.98617        4.02100        3.59048      -85.34164
1546.00000      985.78307        0.98554        5.00000        3.41183      -85.23132
1546.50000      980.84470        0.98491        5.00000        3.24616      -85.23132
1547.00000      975.47663        0.98416        5.00000        3.07436      -84.34164
1547.50000      966.92938        0.98353        5.00000        2.85739      -81.82029
1548.00000      961.17637        0.98290        5.00000        2.67658      -76.33452
1548.50000      958.95052        0.95993        5.00000        2.63992      -71.84164
1549.00000      964.00282        0.93660        5.00000        2.74451      -70.10677
1549.50000      978.54446        0.91362        5.00000        2.84875      -74.71353
1550.00000     1002.20955        0.88288        5.46263        2.88286      -80.24911
1550.50000     1039.27917        0.85510        5.49590        2.88224      -87.83862
