~Version ---------------------------------------------------
VERS. 2.0 : CWLS LOG ASCII STANDARD - VERSION 2.0
WRAP. NO  : One line per depth step
DLM . SPACE : Column Data Section Delimiter
~Well ------------------------------------------------------
STRT.F          100 : START DEPTH
STOP.F       1218.0 : STOP DEPTH
STEP.F          0.5 : STEP
NULL.       -999.25 : NULL VALUE
COMP.                       WALSH & WATTS : COMPANY
WELL.                          SALMON A 6 : WELL
FLD .                          OLD NOCONA : FIELD
CNTY.                            MONTAGUE : COUNTY
STAT.                               TEXAS : STATE
CTRY.                                 USA : COUNTRY
SEC .                                     : SECTION
TWP .                                     : TOWNSHIP
RGE .                                     : RANGE
LOC .                                     : LOCATION
EKB .F                          : ELEVATION KELLY BUSHING
EDF .F                      884 : ELEVATION DERRICK FLOOR
EGL .F                      878 : ELEVATION GROUND LEVEL
PDAT.                           : PERMANENT DATUM
EPD .                           : ELEVATION PERMANENT DATUM
APD .                       5.5 : ABOVE PERMANENT DATUM
LMF .                       KDB : LOG MEASURED FROM
DMF .                       KDB : DRILLING MEASURED FROM
API .            42337039770000 : API NUMBER
UWI .                           : UWI NUMBER
DIGC.                     NthDS : DIGITIZING COMPANY
~Params ----------------------------------------------------
SRVC.     THE ELGEN CORPORATION : LOGGING COMPANY
LOG .                        EL : LOG
DATE.                1954-12-19 : RUN DATE
RUN .                         1 : RUN NUMBER
TDD .F                     1217 : TOTAL DEPTH DRILLER
TDL .F                     1219 : TOTAL DEPTH LOGGER
BOTL.F                     1218 : BOTTOM LOGGED INTERVAL
TOPL.F                      100 : TOP LOGGED INTERVAL
CSGS.IN                         : CASING SIZE
CSGD.F                          : CASING DRILLER
CSGL.F                          : CASING LOGGER
BS  .IN                    8.75 : BIT SIZE
MUD .                       GEL : MUD TYPE
MUDD.                        10 : MUD DENSITY
MUDV.                        60 : MUD VISCOSITY
PH  .                           : MUD PH
FL  .                           : FLUID LOSS
MUDS.                           : SOURCE OF SAMPLE
RM  .OHMM                   2.4 : MUD RESISTIVITY
RMT .DEGF                    58 : RM TEMPERATURE
RMF .OHMM                       : MUD FILTRATE RESISTIVITY
RMFT.DEGF                       : RMF TEMPERATURE
RMC .OHMM                       : MUD CAKE RESISTIVITY
RMCT.DEGF                       : RMC TEMPERATURE
RMFS.                           : RMF SOURCE
RMCS.                           : RMC SOURCE
RMBH.OHMM                       : MUD RESISTIVITY AT BHT
BHT .DEGF                       : BOTTOM HOLE TEMPERATURE
TIMC.                           : TIME CIRCULATION STOPPED
TIML.                           : TIME LOGGER ON BOTTOM
TMAX.DEGF                       : MAXIMUM RECORDED TEMPERATURE
UNIT.                           : EQUIPMENT NUMBER
BASE.                           : BASE LOCATION
ENG .                 STONE-302 : RECORDED BY
WIT .                      TODD : WITNESSED BY
~Curve Information -----------------------------------------
DEPT.F          :DEPTH
LAT.OHMM        :
LN.OHMM         :
SN.OHMM         :
SP.MV           :
~ASCII ------------------------------------------------------
# ...
1189.00000        3.60753        2.63701        3.88172      -56.28322
1189.50000        3.58423        2.47070        3.85753      -56.63720
1190.00000        3.58423        2.38711        3.94713      -56.63720
1190.50000        3.58423        2.30352        4.08781      -57.34516
1191.00000        3.58423        2.30244        4.20520      -58.05313
1191.50000        3.65323        2.30136        4.32258      -58.40711
1192.00000        3.82527        2.30028        4.43996      -58.76109
1192.50000        3.99821        2.38171        4.55735      -59.11507
1193.00000        4.17025        2.38063        4.67473      -59.82304
1193.50000        4.34229        2.37955        4.79211      -60.88499
1194.00000        4.40233        2.46098        4.84588      -60.88499
1194.50000        4.01434        2.37739        4.85753      -60.17702
1195.00000        3.62634        2.37609        4.86828      -60.17702
1195.50000        3.35394        2.29250        4.87993      -59.82304
1196.00000        3.54570        2.20892        4.89158      -60.88499
1196.50000        3.73745        2.12533        4.90322      -62.30091
1197.00000        4.19176        2.12425        4.91487      -64.42481
1197.50000        5.03763        2.20568        4.92563      -66.90268
1198.00000        5.88441        2.28710        4.76254      -68.67259
1198.50000        6.73029        2.36853        4.55645      -69.38056
1199.00000        6.54122        2.53247        4.34946      -68.31861
1199.50000        6.09319        2.69640        4.14247      -65.84074
1200.00000        5.54839        2.80527        3.93548      -63.00888
1200.50000        4.86649        2.80419        3.80376      -60.96260
1201.00000        4.29749        2.72039        3.74193      -60.96260
1201.50000        3.72939        2.63680        3.68011      -60.60609
1202.00000        3.16039        2.55321        3.61828      -60.60609
1202.50000        3.03584        2.55213        3.55645      -60.24959
1203.00000        3.02330        2.46854        3.49462      -60.24959
1203.50000        3.00986        2.46746        3.31810      -59.53657
1204.00000        2.99642        2.46638        3.32527      -58.82356
1204.50000        2.98297        2.38279        3.33154      -58.11055
1205.00000        2.97043        2.46422        3.33871      -59.18007
1205.50000        2.95699        2.38063        3.34498      -60.96260
1206.00000        2.94355        2.37955        3.35215      -63.10163
1206.50000        2.92831        2.37826        3.36021      -63.10163
1207.00000        2.91487        2.37718        3.36738      -61.31910
1207.50000        2.90143        2.37610        3.37366      -59.18007
1208.00000        2.88889        2.29251        3.38082      -58.46705
1208.50000        2.87545        2.29143        3.38710      -57.75404
1209.00000        2.90233        2.29035        3.39426      -56.68452
1209.50000        2.99104        2.28927        3.40054      -55.25850
1210.00000        3.07975        2.28819        3.40950      -54.90199
1210.50000        3.16756        2.28711        3.41935      -54.54549
1211.00000        3.25627        2.28603        3.43011      -54.54549
1211.50000        3.34409        2.28495        3.44086      -54.18898
1212.00000        3.43279        2.36638        3.45072      -54.54549
1212.50000        3.53853        2.36508        3.46326      -54.54549
1213.00000        3.62724        2.36400        3.47401      -54.54549
1213.50000        3.71505        2.36292        3.48387      -54.18898
1214.00000        3.80376        2.36184        3.49462      -54.54549
1214.50000        3.89247        2.36141        3.37007      -54.54549
1215.00000        3.98029        2.32255        3.38351      -54.54549
1215.50000        4.06900        2.39573        3.39695      -54.54549
1216.00000        4.14606        2.44003        3.40771      -54.18898
1216.50000        4.20699        2.43895        3.41577      -53.83247
1217.00000        4.26882        2.43787        3.42383      -53.83247
1217.50000        4.32975        2.43679        3.43100      -53.47597
1218.00000        4.39068        -999.25        3.43907        -999.25
