~Version ---------------------------------------------------
VERS. 2.0 : CWLS LOG ASCII STANDARD - VERSION 2.0
WRAP. NO  : One line per depth step
DLM . SPACE : Column Data Section Delimiter
~Well ------------------------------------------------------
STRT.F          500 : START DEPTH
STOP.F       2022.5 : STOP DEPTH
STEP.F          0.5 : STEP
NULL.       -999.25 : NULL VALUE
COMP.                 WALSH & WATTS, INC. : COMPANY
WELL.                          HYNDS A 10 : WELL
FLD .                           N. NOCONA : FIELD
CNTY.                            MONTAGUE : COUNTY
STAT.                               TEXAS : STATE
CTRY.                                 USA : COUNTRY
SEC .                                     : SECTION
TWP .                                     : TOWNSHIP
RGE .                                     : RANGE
LOC .  244' SE OF NO. 5A J.J. WALL SURVEY : LOCATION
EKB .F                    903.5 : ELEVATION KELLY BUSHING
EDF .F                          : ELEVATION DERRICK FLOOR
EGL .F                      897 : ELEVATION GROUND LEVEL
PDAT.                        GL : PERMANENT DATUM
EPD .                           : ELEVATION PERMANENT DATUM
APD .                         6 : ABOVE PERMANENT DATUM
LMF .                           : LOG MEASURED FROM
DMF .                           : DRILLING MEASURED FROM
API .            42337037830000 : API NUMBER
UWI .            42337037830000 : UWI NUMBER
DIGC.                     NthDS : DIGITIZING COMPANY
~Params ----------------------------------------------------
SRVC.                LANE WELLS : LOGGING COMPANY
LOG .                       GRN : LOG
DATE.                1957-11-30 : RUN DATE
RUN .                         1 : RUN NUMBER
TDD .F                     2039 : TOTAL DEPTH DRILLER
TDL .F                     2015 : TOTAL DEPTH LOGGER
BOTL.F                     2023 : BOTTOM LOGGED INTERVAL
TOPL.F                      500 : TOP LOGGED INTERVAL
CSGS.IN                     5.5 : CASING SIZE
CSGD.F                     2038 : CASING DRILLER
CSGL.F                          : CASING LOGGER
BS  .IN                    8.75 : BIT SIZE
MUD .                     WATER : MUD TYPE
MUDD.                           : MUD DENSITY
MUDV.                           : MUD VISCOSITY
PH  .                           : MUD PH
FL  .                           : FLUID LOSS
MUDS.                           : SOURCE OF SAMPLE
RM  .OHMM                       : MUD RESISTIVITY
RMT .DEGF                       : RM TEMPERATURE
RMF .OHMM                       : MUD FILTRATE RESISTIVITY
RMFT.DEGF                       : RMF TEMPERATURE
RMC .OHMM                       : MUD CAKE RESISTIVITY
RMCT.DEGF                       : RMC TEMPERATURE
RMFS.                           : RMF SOURCE
RMCS.                           : RMC SOURCE
RMBH.OHMM                       : MUD RESISTIVITY AT BHT
BHT .DEGF                       : BOTTOM HOLE TEMPERATURE
TIMC.                           : TIME CIRCULATION STOPPED
TIML.                           : TIME LOGGER ON BOTTOM
TMAX.DEGF                       : MAXIMUM RECORDED TEMPERATURE
UNIT.                           : EQUIPMENT NUMBER
BASE.                           : BASE LOCATION
ENG .                   ROBERTS : RECORDED BY
WIT .                       NIX : WITNESSED BY
~Curve Information -----------------------------------------
DEPT.F          :DEPTH
GRN.GAPI        :
NEUT.API        :
~ASCII ------------------------------------------------------
# ...
800.00000       12.66923     2947.15431
800.50000       16.34368     2860.50802
801.00000       18.98921     2759.85467
801.50000       20.94939     2743.19405
802.00000       20.25677     2813.37553
802.50000       15.93757     3144.28294
803.00000       11.55599     3413.48436
803.50000        8.59574     3474.59143
804.00000        8.50620     3464.06512
804.50000        9.20434     3429.67311
805.00000       10.43306     3388.07601
805.50000       10.31729     3369.72756
806.00000       10.28199     3459.27383
806.50000       10.87056     3494.55513
807.00000       11.08842     3481.85096
807.50000       10.68242     3356.62411
808.00000       10.23121     3198.72939
808.50000       10.60911     3035.39003
809.00000       11.87309     2848.45720
809.50000       13.56925     2677.85831
810.00000       15.98168     2438.29391
810.50000       16.52866     2315.24492
811.00000       17.50602     2322.14147
811.50000       17.56113     2417.04164
812.00000       14.57828     2519.96359
812.50000       15.12165     2595.78935
813.00000       13.91094     2663.33925
813.50000       11.92266     2597.54979
814.00000       10.26440     2580.25396
814.50000       10.24267     2635.71675
815.00000       10.69561     2699.89097
815.50000       10.33499     2732.30476
816.00000        9.39102     2694.19224
816.50000       10.08989     2637.20495
817.00000       10.78968     2627.04162
817.50000        9.88639     2596.18863
818.00000       10.17026     2614.33744
818.50000       10.48487     2588.92910
819.00000       10.65752     2607.07792
819.50000       10.23344     2625.22673
820.00000       10.36089     2574.41004
820.50000       10.99467     2624.31929
821.00000       10.76696     2659.70949
821.50000        9.78048     2549.00170
822.00000        9.89437     2445.55343
822.50000        9.44316     2423.77485
823.00000        9.17278     2424.30117
823.50000        9.98739     2461.88737
824.00000       10.80200     2478.22131
824.50000       10.47737     2620.81657
825.00000       10.96196     2692.01439
825.50000       13.73679     2701.45177
826.00000       18.99731     2532.14145
826.50000       23.33813     2293.10336
827.00000       27.74858     2094.06527
827.50000       32.44021     2011.07072
828.00000       33.12372     2039.38288
828.50000       32.91663     2078.40284
829.00000       33.38495     2101.52443
829.50000       33.32541     2120.68959
830.00000       33.77836     2089.83659
830.50000       33.63456     2071.68778
831.00000       32.87594     2082.57707
831.50000       35.04678     2037.20502
832.00000       35.75832     1982.75857
832.50000       35.30711     1919.23770
833.00000       34.64251     1914.70050
833.50000       35.14067     1922.14151
834.00000       35.53665     1884.75495
834.50000       36.95072     1913.99269
835.00000       36.68051     1936.47908
835.50000       36.35860     1950.09069
836.00000       34.87393     1968.23951
836.50000       36.62706     1859.80032
837.00000       37.36210     1867.33208
837.50000       36.57183     1851.48816
838.00000       37.40905     1849.60069
838.50000       38.65313     1828.03989
839.00000       39.89721     1842.23227
839.50000       39.67204     1853.90196
840.00000       39.59442     1856.62428
840.50000       40.66853     1888.38471
841.00000       40.12690     1924.68235
841.50000       42.38816     1909.56438
842.00000       44.37817     1942.83117
842.50000       45.41882     1922.41375
843.00000       43.74700     1907.05985
843.50000       40.28947     1899.27400
844.00000       36.33465     1955.53534
844.50000       33.21617     2046.27943
845.00000       33.44308     2133.39376
845.50000       30.48464     2176.35201
846.00000       27.52711     2147.91281
846.50000       27.29741     2123.86563
847.00000       28.39339     2118.87470
847.50000       29.39697     2089.83659
848.00000       28.83726     2071.68778
848.50000       29.48369     2115.24494
849.00000       29.36341     2097.09612
849.50000       28.35162     2116.06164
850.00000       27.08873     2135.04530
850.50000       27.43046     2136.76944
851.00000       28.84453     2122.50447
851.50000       29.59132     2124.91826
852.00000       31.78477     2134.30120
852.50000       30.83628     2140.65329
853.00000       28.68977     2135.93459
853.50000       27.00439     2141.10701
854.00000       27.76492     2080.59885
854.50000       27.23866     2005.53533
855.00000       28.58040     1983.66601
855.50000       30.10296     2034.10157
856.00000       31.19695     2054.44640
856.50000       32.29004     2007.44096
857.00000       31.95909     1954.80939
857.50000       33.46718     1902.59524
858.00000       35.43459     1916.64242
858.50000       37.18682     1921.05258
859.00000       36.95984     1918.56620
859.50000       35.88204     1887.93099
860.00000       34.82776     1877.85840
860.50000       36.45629     1894.55531
861.00000       36.41827     1906.53353
861.50000       37.58189     1901.08888
862.00000       37.09180     1886.56983
862.50000       35.89918     1931.94188
863.00000       35.94073     1946.46093
863.50000       35.66583     1954.17418
864.00000       35.82945     1982.54078
864.50000       36.17932     1970.78035
865.00000       37.05180     1949.31029
865.50000       36.19372     1972.64968
866.00000       35.01918     1973.08525
866.50000       35.92421     2042.64967
867.00000       34.02634     2120.68959
867.50000       30.82830     2198.47542
868.00000       27.62936     2253.17596
868.50000       24.26405     2262.25037
869.00000       27.73688     2252.57705
869.50000       27.96017     2231.39738
870.00000       29.02269     2251.36108
870.50000       29.43224     2227.31389
871.00000       28.24685     2223.53894
871.50000       30.38153     2151.54258
872.00000       33.05871     2069.87289
872.50000       37.56228     1956.75131
873.00000       36.47816     1917.78580
873.50000       36.38861     1926.49723
874.00000       35.69237     1928.67509
874.50000       33.94912     1933.03080
875.00000       35.36228     1964.01084
875.50000       36.12083     1956.44278
876.00000       36.88391     1935.97091
876.50000       38.29255     1910.76220
877.00000       37.77370     1905.80758
877.50000       38.15250     1919.23770
878.00000       37.57200     1894.60976
878.50000       38.92910     1893.82936
879.00000       37.96523     1997.27762
879.50000       35.55562     2091.65148
880.00000       33.30333     2200.54439
880.50000       31.15682     2307.62241
881.00000       29.01032     2409.25580
881.50000       26.86381     2485.48083
882.00000       24.55908     2457.65870
882.50000       22.52559     2408.34836
883.00000       23.87637     2356.17050
883.50000       24.92334     2455.84381
884.00000       24.32747     2486.38827
884.50000       21.26324     2512.70406
885.00000       20.85724     2594.37374
885.50000       18.30838     2675.44451
886.00000       17.15193     2655.17228
886.50000       15.49548     2572.59516
887.00000       15.71696     2577.78572
887.50000       14.41223     2545.62602
888.00000       13.53877     2501.57884
888.50000       14.53421     2480.03619
889.00000       16.70523     2455.22675
889.50000       19.11749     2411.07068
890.00000       21.67983     2276.76942
890.50000       23.68974     2124.68233
891.00000       25.36601     2092.55892
891.50000       25.50974     2123.95637
892.00000       23.37137     2124.31935
892.50000       22.72396     2174.22860
893.00000       22.89028     2323.95635
893.50000       20.29984     2485.48083
894.00000       17.21120     2645.19043
894.50000       13.79164     2803.08515
895.00000       10.63519     2921.05247
895.50000       11.29157     2892.01436
896.00000       13.10076     2884.75484
896.50000       12.66763     2905.93451
897.00000       11.42980     2894.28297
897.50000       12.35020     2803.08515
898.00000       14.17673     2719.60059
898.50000       16.17940     2656.07973
899.00000       16.39094     2694.19224
899.50000       16.06089     2771.92363
