~Version ---------------------------------------------------
VERS. 2.0 : CWLS LOG ASCII STANDARD - VERSION 2.0
WRAP. NO  : One line per depth step
DLM . SPACE : Column Data Section Delimiter
~Well ------------------------------------------------------
STRT.F          227 : START DEPTH
STOP.F       2033.0 : STOP DEPTH
STEP.F          0.5 : STEP
NULL.       -999.25 : NULL VALUE
COMP.                  WALSH & WATTS, INC : COMPANY
WELL.                          HYNDS A 10 : WELL
FLD .                           N. NOCONA : FIELD
CNTY.                            MONTAGUE : COUNTY
STAT.                               TEXAS : STATE
CTRY.                                 USA : COUNTRY
SEC .                                     : SECTION
TWP .                                     : TOWNSHIP
RGE .                                     : RANGE
LOC .  244' SE OF NO. 5A J.J. WALL SURVEY : LOCATION
EKB .F                    903.5 : ELEVATION KELLY BUSHING
EDF .F                          : ELEVATION DERRICK FLOOR
EGL .F                      897 : ELEVATION GROUND LEVEL
PDAT.                        GL : PERMANENT DATUM
EPD .                           : ELEVATION PERMANENT DATUM
APD .                         6 : ABOVE PERMANENT DATUM
LMF .                           : LOG MEASURED FROM
DMF .                           : DRILLING MEASURED FROM
API .            42337037830000 : API NUMBER
UWI .            42337037830000 : UWI NUMBER
DIGC.                     NthDS : DIGITIZING COMPANY
~Params ----------------------------------------------------
SRVC.              SCHLUMBERGER : LOGGING COMPANY
LOG .                       IEL : LOG
DATE.                1957-10-20 : RUN DATE
RUN .                         1 : RUN NUMBER
TDD .F                          : TOTAL DEPTH DRILLER
TDL .F                          : TOTAL DEPTH LOGGER
BOTL.F                     2039 : BOTTOM LOGGED INTERVAL
TOPL.F                          : TOP LOGGED INTERVAL
CSGS.IN                         : CASING SIZE
CSGD.F                      227 : CASING DRILLER
CSGL.F                      227 : CASING LOGGER
BS  .IN                    8.75 : BIT SIZE
MUD .                       GEL : MUD TYPE
MUDD.                       9.9 : MUD DENSITY
MUDV.                        50 : MUD VISCOSITY
PH  .                           : MUD PH
FL  .                           : FLUID LOSS
MUDS.                           : SOURCE OF SAMPLE
RM  .OHMM                   2.3 : MUD RESISTIVITY
RMT .DEGF                    60 : RM TEMPERATURE
RMF .OHMM                   .76 : MUD FILTRATE RESISTIVITY
RMFT.DEGF                    96 : RMF TEMPERATURE
RMC .OHMM                   1.7 : MUD CAKE RESISTIVITY
RMCT.DEGF                    96 : RMC TEMPERATURE
RMFS.                           : RMF SOURCE
RMCS.                           : RMC SOURCE
RMBH.OHMM                   1.4 : MUD RESISTIVITY AT BHT
BHT .DEGF                    96 : BOTTOM HOLE TEMPERATURE
TIMC.                           : TIME CIRCULATION STOPPED
TIML.                           : TIME LOGGER ON BOTTOM
TMAX.DEGF                       : MAXIMUM RECORDED TEMPERATURE
UNIT.                       785 : EQUIPMENT NUMBER
BASE.                        WF : BASE LOCATION
ENG .                     JONES : RECORDED BY
WIT .               BALCH & NIX : WITNESSED BY
~Curve Information -----------------------------------------
DEPT.F          :DEPTH
CILD.MMHO       :
ILD.OHMM        :
ROP.FT/HR       :
SN.OHMM         :
SP.MV           :
~ASCII ------------------------------------------------------
# ...
1739.00000      340.05438        2.89766        5.45233        3.18558      -23.47672
1739.50000      341.96763        2.87784        5.44982        3.13153      -23.34231
1740.00000      343.55605        2.85838        5.29265        3.11279      -23.00719
1740.50000      344.17039        2.84937        4.98118        3.14703      -22.86740
1741.00000      344.77580        2.85766        4.97975        3.18847      -22.77779
1741.50000      345.39014        2.86414        4.97831        3.22270      -23.02869
1742.00000      344.41379        2.87099        4.97670        3.24973      -23.35665
1742.50000      342.68095        2.87748        4.97527        3.26631      -23.65593
1743.00000      340.31944        2.88504        4.97348        3.27027      -23.89428
1743.50000      337.94900        2.89477        4.97204        3.22522      -23.99464
1744.00000      336.79391        2.90703        4.97061        3.17117      -24.21865
1744.50000      337.44400        2.91676        4.96917        3.13946      -24.05916
1745.00000      339.13966        2.91099        4.96774        3.16072      -23.27600
1745.50000      340.82638        2.90090        4.96613        3.18162      -23.40503
1746.00000      342.85581        2.89081        4.96469        3.20288      -24.11471
1746.50000      341.87945        2.88288        5.46451        3.20216      -24.95163
1747.00000      340.90310        2.88288        5.46201        3.19495      -25.15772
1747.50000      339.92675        2.88288        5.45968        3.18847      -25.36561
1748.00000      339.50446        2.88288        5.45717        3.18234      -25.58245
1748.50000      339.93113        2.88288        5.45484        3.17622      -25.80647
1749.00000      339.31536        2.90270        5.45233        3.18018      -25.39966
1749.50000      336.95385        2.93513        5.45000        3.22522      -24.99106
1750.00000      330.59560        2.96937        5.96774        3.27027      -25.02152
1750.50000      327.84580        3.04938        6.01802        3.35425      -24.60182
1751.00000      324.51617        3.08605        6.01802        3.36569      -24.76398
1751.50000      321.18653        3.10109        6.01802        3.37749      -24.96578
1752.00000      318.28508        3.10172        6.01802        3.38893      -24.65227
1752.50000      317.07853        3.10235        5.02685        3.40037      -23.99641
1753.00000      315.99999        3.10298        5.02649        3.41217      -23.45948
1753.50000      316.61323        3.09388        5.02613        3.42361      -23.09912
1754.00000      317.22648        3.08022        5.02558        3.41751      -22.76218
1754.50000      318.08950        3.06896        5.02522        3.40445      -22.40182
1755.00000      319.98731        3.04400        5.02468        3.38129      -22.46308
1755.50000      321.87619        3.01868        5.02432        3.31886      -22.79281
1756.00000      323.77400        2.99373        5.02396        3.25643      -23.24326
1756.50000      325.86806        2.96841        5.02360        3.19399      -23.24326
1757.00000      328.74131        2.94886        5.02306        3.15138      -22.08470
1757.50000      331.12975        2.93039        5.02270        3.18804      -21.35137
1758.00000      332.32283        2.91228        5.02234        3.22471      -21.74236
1758.50000      332.71307        2.89381        5.02180        3.26137      -21.98200
1759.00000      332.80000        2.92903        5.02144        3.29804      -22.09011
1759.50000      331.70050        2.96425        5.02108        3.34204      -22.67749
1760.00000      330.60100        3.00681        5.02072        3.37510      -23.44867
1760.50000      327.06619        3.04203        5.02018        3.40275      -24.22164
1761.00000      322.91586        3.07726        5.01982        3.43041      -24.68470
1761.50000      317.93904        3.09086        5.01946        3.45806      -24.68470
1762.00000      315.40333        3.10410        5.01910        3.49149      -25.04506
1762.50000      312.87654        3.12455        5.01856        3.53392      -25.97659
1763.00000      310.34083        3.17239        5.01820        3.57599      -27.37479
1763.50000      307.80512        3.21986        5.01766        3.58490      -29.11173
1764.00000      304.10082        3.26734        5.01730        3.58553      -30.84866
1764.50000      300.10214        3.31517        5.01694        3.61247      -32.41263
1765.00000      297.33450        3.33467        5.01658        3.69178      -33.71353
1765.50000      294.87016        3.33529        5.01603        3.73169      -34.59461
1766.00000      295.42407        3.33592        5.01567        3.73232      -33.45407
1766.50000      295.70726        3.33655        5.01531        3.68502      -30.88290
1767.00000      295.27680        3.33718        5.01477        3.56529      -26.48650
1767.50000      294.93555        3.33781        5.01441        3.57709      -26.63425
1768.00000      294.95112        3.30961        5.01405        3.67573      -27.04326
1768.50000      298.17809        3.27420        5.01369        3.71384      -27.02704
1769.00000      302.20790        3.22727        5.01315        3.66042      -26.72614
1769.50000      308.37865        3.17744        5.01279        3.57636      -26.35497
1770.00000      314.28490        3.12762        5.01243        3.44582      -25.70092
1770.50000      318.31472        3.07780        5.01207        3.35540      -25.04506
1771.00000      319.84678        3.01802        5.01153        3.39027      -23.96398
1771.50000      320.75441        3.07018        5.01117        3.42549      -23.18380
1772.00000      319.76195        3.12234        5.01063        3.46035      -23.24326
1772.50000      318.28779        3.17450        5.01027        3.50422      -24.65948
1773.00000      312.35335        3.22630        5.00991        3.58341      -26.35137
1773.50000      306.32971        3.28062        5.00955        3.66296      -28.22884
1774.00000      298.61427        3.33530        5.44144        3.74251      -30.13515
1774.50000      293.91087        3.36908        5.44288        3.83323      -31.29191
1775.00000      290.35822        3.39710        5.44450        3.82304      -31.30632
1775.50000      288.94650        3.41611        5.44631        3.78764      -32.13155
1776.00000      288.96207        3.39272        5.44793        3.76929      -32.83245
1776.50000      289.51287        3.37353        5.44937        3.75767      -32.88290
1777.00000      290.86653        3.35398        5.45099        3.74641      -32.82344
1777.50000      293.11223        3.33262        5.45243        3.73406      -32.97299
1778.00000      296.69602        3.31091        5.45387        3.72208      -33.53695
1778.50000      299.52468        3.28884        5.45549        3.71514      -34.09911
1779.00000      300.65532        3.28658        5.45694        3.72946      -34.66308
1779.50000      300.22486        3.29694        5.45892        3.74415      -34.88650
1780.00000      299.79440        3.30766        4.98973        3.75847      -34.80001
1780.50000      297.82961        3.31838        4.98757        3.77315      -34.41443
1781.00000      295.32958        3.38207        4.98540        3.78747      -33.13875
1781.50000      290.68862        3.45850        4.98324        3.86534      -31.86128
1782.00000      286.04766        3.52219        4.98108        3.93048      -30.40542
1782.50000      281.40671        3.58985        4.97892        4.01291      -28.82884
1783.00000      275.84112        3.67372        4.97676        4.12164      -29.72975
1783.50000      270.02265        3.75759        4.97423        4.19615      -28.82884
1784.00000      263.90088        3.84543        4.97207        4.21948      -30.47569
1784.50000      257.78803        3.93615        4.96991        4.38299      -35.10992
1785.00000      254.01237        3.94182        4.96775        4.58182      -37.47749
1785.50000      254.73266        3.88335        4.96576        4.53560      -39.27929
