~Version ---------------------------------------------------
VERS. 2.0 : CWLS LOG ASCII STANDARD - VERSION 2.0
WRAP. NO  : One line per depth step
DLM . SPACE : Column Data Section Delimiter
~Well ------------------------------------------------------
STRT.F         98.5 : START DEPTH
STOP.F       1003.5 : STOP DEPTH
STEP.F          0.5 : STEP
NULL.       -999.25 : NULL VALUE
COMP.                       WALSH & WATTS : COMPANY
WELL.                          SALMON D 8 : WELL
FLD .                          OLD NOCOMA : FIELD
CNTY.                            MONTAGUE : COUNTY
STAT.                               TEXAS : STATE
CTRY.                                 USA : COUNTRY
SEC .                                     : SECTION
TWP .                                     : TOWNSHIP
RGE .                                     : RANGE
LOC .                          OLD NOCOMA : LOCATION
EKB .F                          : ELEVATION KELLY BUSHING
EDF .F                      855 : ELEVATION DERRICK FLOOR
EGL .F                          : ELEVATION GROUND LEVEL
PDAT.                        RT : PERMANENT DATUM
EPD .                           : ELEVATION PERMANENT DATUM
APD .                         4 : ABOVE PERMANENT DATUM
LMF .                           : LOG MEASURED FROM
DMF .                           : DRILLING MEASURED FROM
API .            42337016420000 : API NUMBER
UWI .            42337016420000 : UWI NUMBER
DIGC.                     NthDS : DIGITIZING COMPANY
~Params ----------------------------------------------------
SRVC.              SCHLUMBERGER : LOGGING COMPANY
LOG .                        EL : LOG
DATE.                1948-12-15 : RUN DATE
RUN .                         1 : RUN NUMBER
TDD .F                          : TOTAL DEPTH DRILLER
TDL .F                          : TOTAL DEPTH LOGGER
BOTL.F                     1005 : BOTTOM LOGGED INTERVAL
TOPL.F                     1004 : TOP LOGGED INTERVAL
CSGS.IN                         : CASING SIZE
CSGD.F                          : CASING DRILLER
CSGL.F                          : CASING LOGGER
BS  .IN                       9 : BIT SIZE
MUD .                   AQUAGEL : MUD TYPE
MUDD.                      10.2 : MUD DENSITY
MUDV.                        40 : MUD VISCOSITY
PH  .                           : MUD PH
FL  .                           : FLUID LOSS
MUDS.                           : SOURCE OF SAMPLE
RM  .OHMM                    .8 : MUD RESISTIVITY
RMT .DEGF                    65 : RM TEMPERATURE
RMF .OHMM                       : MUD FILTRATE RESISTIVITY
RMFT.DEGF                       : RMF TEMPERATURE
RMC .OHMM                       : MUD CAKE RESISTIVITY
RMCT.DEGF                       : RMC TEMPERATURE
RMFS.                           : RMF SOURCE
RMCS.                           : RMC SOURCE
RMBH.OHMM                       : MUD RESISTIVITY AT BHT
BHT .DEGF                       : BOTTOM HOLE TEMPERATURE
TIMC.                           : TIME CIRCULATION STOPPED
TIML.                           : TIME LOGGER ON BOTTOM
TMAX.DEGF                       : MAXIMUM RECORDED TEMPERATURE
UNIT.                       201 : EQUIPMENT NUMBER
BASE.                           : BASE LOCATION
ENG .                    LITTLE : RECORDED BY
WIT .                 MR. WATTS : WITNESSED BY
~Curve Information -----------------------------------------
DEPT.F          :DEPTH
ILD.OHMM        :
LAT.OHMM        :
SN.OHMM         :
SP.MV           :
~ASCII ------------------------------------------------------
# ...
788.50000        3.59839        3.41250        3.24839      -62.07321
789.00000        3.58376        3.45625        3.22127      -62.41398
789.50000        3.56824        3.42678        3.19146      -60.55246
790.00000        3.55362        3.29018        3.16255      -58.13769
790.50000        3.53810        3.15268        3.13275      -55.72291
791.00000        3.52258        3.01518        3.10294      -55.94512
791.50000        3.50795        2.87768        3.07314      -55.56736
792.00000        3.67368        2.78393        3.04422      -52.44483
792.50000        4.01755        2.86518        3.01442      -49.32590
793.00000        4.06632        2.94643        2.97883      -47.14094
793.50000        3.95705        2.88304        3.01242      -47.71164
794.00000        3.86564        2.81875        3.06208      -49.70141
794.50000        3.84387        2.75536        3.11084      -51.50078
795.00000        3.82299        2.69107        3.16050      -53.27860
795.50000        3.80212        2.72768        3.07402      -50.66622
796.00000        3.87142        2.78839        2.98661      -47.79159
796.50000        4.07643        2.84911        2.92645      -43.88228
797.00000        4.21180        2.90982        3.06271      -41.70821
797.50000        4.06503        2.92857        3.19897      -42.27890
798.00000        3.91827        2.88393        3.33524      -43.72979
798.50000        3.89114        2.83929        3.43132      -45.27408
799.00000        3.81537        2.79464        3.35377      -47.20278
799.50000        3.73914        2.81696        3.28915      -49.13149
800.00000        3.51381        2.93839        3.07632      -51.72975
800.50000        3.50186        3.05198        3.03848      -51.43255
801.00000        3.53277        3.10812        3.04081      -49.80359
801.50000        3.56368        3.16337        3.04315      -49.00096
802.00000        3.59459        3.21950        3.04549      -50.18152
802.50000        3.62550        3.27475        3.04783      -51.86147
803.00000        3.65641        3.29703        3.11356      -53.54142
803.50000        3.68731        3.29703        3.22214      -55.38304
804.00000        3.71822        3.29703        3.33162      -57.88572
804.50000        3.74824        3.24267        3.44021      -60.20877
805.00000        3.76040        3.10812        3.44612      -61.81327
805.50000        3.69399        2.97267        3.30024      -62.16750
806.00000        3.62757        2.83812        3.15347      -57.51347
806.50000        3.80312        2.70267        3.00671      -51.93006
807.00000        4.14028        2.56812        2.86083      -47.92631
807.50000        4.21136        2.40594        2.71406      -44.06627
808.00000        4.28245        2.47277        2.68337      -40.78825
808.50000        4.17943        2.53960        2.82677      -37.51023
809.00000        3.81660        2.60644        2.97018      -40.49075
809.50000        3.49751        2.67327        3.11359      -43.47486
810.00000        3.35074        2.63584        3.41949      -46.45537
810.50000        3.20397        2.59931        3.83343      -50.03587
811.00000        3.26613        2.63762        4.24826      -54.33492
811.50000        3.61579        2.72673        4.92023      -61.01954
812.00000        3.96544        2.73564        5.72660      -67.70057
812.50000        4.38431        2.69109        6.39857      -71.42479
813.00000        4.52593        2.64653        6.33394      -72.60894
813.50000        4.51041        2.60198        5.77825      -71.60871
814.00000        4.35740        2.69643        5.20024      -69.12468
814.50000        3.94188        2.92010        4.62223      -64.12934
815.00000        3.52548        3.10723        4.04422      -58.23222
815.50000        3.10907        3.29436        3.46621      -51.26087
816.00000        2.98016        3.48059        3.39444      -46.54691
816.50000        2.85125        3.66772        3.45838      -44.49760
817.00000        2.72234        3.73099        3.55625      -44.74046
817.50000        2.67200        3.71139        3.65413      -45.73060
818.00000        2.67433        3.69178        3.65646      -47.06565
818.50000        2.67667        3.67307        3.65880      -48.40069
819.00000        2.67901        3.65346        3.66114      -49.17887
819.50000        2.69920        3.49396        3.66348      -47.72955
820.00000        2.79083        3.33535        3.60867      -46.83710
820.50000        2.85120        3.17584        3.46905      -48.17215
821.00000        2.78657        3.01723        3.32942      -48.69883
821.50000        2.72195        2.82564        3.18980      -48.68660
822.00000        2.65732        2.81049        3.05017      -49.50429
822.50000        2.62037        2.88980        3.05251      -51.56507
823.00000        2.69235        2.96911        3.05485      -53.62585
823.50000        2.76433        3.04842        3.12058      -52.94897
824.00000        2.83631        3.12861        3.22916      -52.14634
824.50000        2.90829        3.20792        3.33864      -53.57120
825.00000        2.98027        3.32822        3.44723      -54.99607
825.50000        3.05225        3.44762        3.49689      -55.77424
826.00000        2.93494        3.56792        3.45815      -53.96565
826.50000        2.82121        3.68733        3.42031      -52.87316
827.00000        2.91283        3.80762        3.38158      -54.18665
827.50000        2.95714        3.91366        3.34374      -57.49051
828.00000        2.81037        4.01703        3.54429      -60.79437
828.50000        2.93145        4.08832        3.82698      -64.20961
829.00000        3.05343        4.02594        4.43466      -67.65359
829.50000        3.17452        3.97337        5.16514      -71.12271
830.00000        3.61839        3.92079        6.15317      -74.70322
830.50000        3.98858        3.72030        7.39567      -79.22746
831.00000        4.35877        3.51980        8.87031      -84.87738
831.50000        4.76735        3.31931       10.40388      -90.00994
832.00000        5.18665        3.11881       11.93655      -93.05153
832.50000        5.60594        3.22129       13.22816      -95.75181
833.00000        5.98327        3.32465       14.40548      -97.08686
833.50000        6.35078        3.42713       15.12209      -98.42191
834.00000        6.66651        3.53049       15.83870      -99.75695
834.50000        6.94831        3.63297       16.69864     -101.09200
835.00000        7.22921        3.51980       17.27240     -102.24252
835.50000        7.54851        3.31129       17.25956     -102.41237
836.00000        7.80352        2.86129       16.68780     -102.50074
836.50000        7.58265        2.48525       15.42497     -102.08972
837.00000        7.45731        2.11010       13.80144     -102.07749
837.50000        7.24269        1.91049       12.42922     -102.66166
838.00000        6.41646        1.82673       10.71462     -103.24942
838.50000        5.60988        1.74297        8.76877     -103.83717
839.00000        4.59438        1.68950        6.82292     -104.08722
839.50000        3.52530        1.68059        5.85563     -104.25463
840.00000        2.86694        1.67168        5.20619     -106.07469
840.50000        2.31124        1.66188        4.85139     -107.96302
841.00000        1.75555        1.65297        4.47248     -108.46096
841.50000        1.46772        1.64406        3.99893     -107.24516
842.00000        1.31649        1.63515        3.52538     -105.60184
842.50000        1.15365        1.62535        3.07951     -105.03274
843.00000        0.99170        1.61465        2.74703     -105.18577
843.50000        0.82975        1.60574        2.41455     -105.54719
844.00000        0.87495        1.52911        2.08207     -106.22477
844.50000        0.92104        1.43554        2.08441     -106.90594
845.00000        0.96623        1.34109        2.18318     -107.33921
845.50000        1.01232        1.24752        2.34623     -107.71140
