~Version ---------------------------------------------------
VERS. 2.0 : CWLS LOG ASCII STANDARD - VERSION 2.0
WRAP. NO  : One line per depth step
DLM . SPACE : Column Data Section Delimiter
~Well ------------------------------------------------------
STRT.F          100 : START DEPTH
STOP.F       1786.5 : STOP DEPTH
STEP.F          0.5 : STEP
NULL.       -999.25 : NULL VALUE
COMP.                 WALSH & WATTS, INC. : COMPANY
WELL.                         SALMON E 41 : WELL
FLD .                        NORTH NOCONA : FIELD
CNTY.                            MONTAGUE : COUNTY
STAT.                               TEXAS : STATE
CTRY.                                 USA : COUNTRY
SEC .                                     : SECTION
TWP .                                     : TOWNSHIP
RGE .                                     : RANGE
LOC . 300' N OF NO. 40
150' W OF EL & 385' E OF NO. 87
F. ROBERTSON SURVEY : LOCATION
EKB .F                          : ELEVATION KELLY BUSHING
EDF .F                          : ELEVATION DERRICK FLOOR
EGL .F                      878 : ELEVATION GROUND LEVEL
PDAT.              GROUND LEVEL : PERMANENT DATUM
EPD .                       878 : ELEVATION PERMANENT DATUM
APD .                           : ABOVE PERMANENT DATUM
LMF .                        KB : LOG MEASURED FROM
DMF .                        KB : DRILLING MEASURED FROM
API .            42337037790000 : API NUMBER
UWI .            42337037790000 : UWI NUMBER
DIGC.                     NthDS : DIGITIZING COMPANY
~Params ----------------------------------------------------
SRVC.                LANE WELLS : LOGGING COMPANY
LOG .                       IEL : LOG
DATE.                1965-12-01 : RUN DATE
RUN .                         1 : RUN NUMBER
TDD .F                     1790 : TOTAL DEPTH DRILLER
TDL .F                     1791 : TOTAL DEPTH LOGGER
BOTL.F                     1787 : BOTTOM LOGGED INTERVAL
TOPL.F                      100 : TOP LOGGED INTERVAL
CSGS.IN                         : CASING SIZE
CSGD.F                          : CASING DRILLER
CSGL.F                          : CASING LOGGER
BS  .IN                       9 : BIT SIZE
MUD .                       GEL : MUD TYPE
MUDD.                        10 : MUD DENSITY
MUDV.                        80 : MUD VISCOSITY
PH  .                       9.0 : MUD PH
FL  .                       6.8 : FLUID LOSS
MUDS.                       PIT : SOURCE OF SAMPLE
RM  .OHMM                  1.95 : MUD RESISTIVITY
RMT .DEGF                    74 : RM TEMPERATURE
RMF .OHMM                   1.5 : MUD FILTRATE RESISTIVITY
RMFT.DEGF                    74 : RMF TEMPERATURE
RMC .OHMM                   2.3 : MUD CAKE RESISTIVITY
RMCT.DEGF                    74 : RMC TEMPERATURE
RMFS.                  MEASURED : RMF SOURCE
RMCS.                           : RMC SOURCE
RMBH.OHMM                   1.5 : MUD RESISTIVITY AT BHT
BHT .DEGF                    97 : BOTTOM HOLE TEMPERATURE
TIMC.                           : TIME CIRCULATION STOPPED
TIML.                           : TIME LOGGER ON BOTTOM
TMAX.DEGF                    97 : MAXIMUM RECORDED TEMPERATURE
UNIT.                    L-5172 : EQUIPMENT NUMBER
BASE.                      W.F. : BASE LOCATION
ENG .             ADAMS & BAKER : RECORDED BY
WIT .                   MR. NIX : WITNESSED BY
~Curve Information -----------------------------------------
DEPT.F          :DEPTH
CILD.MMHO       :
ILD.OHMM        :
ROP.FT/HR       :
SN.OHMM         :
SP.MV           :
~ASCII ------------------------------------------------------
# ...
337.50000      113.92184        9.57415        -999.25       11.68397      -38.20388
338.00000      115.87843        9.37691        -999.25       11.60547      -39.09266
338.50000      117.83503        9.25905        -999.25       11.52697      -39.68205
339.00000      121.77769        8.98245        -999.25       11.32895      -39.67264
339.50000      126.71338        8.70586        -999.25       10.93174      -40.26203
340.00000      132.64210        8.27053        -999.25       10.61420      -41.15081
340.50000      137.57780        7.99394        -999.25       10.25706      -42.03959
341.00000      141.52046        7.63798        -999.25        9.93952      -43.22776
341.50000      145.46312        7.40106        -999.25        9.58214      -44.71345
342.00000      147.41971        7.20383        -999.25        9.34429      -45.30283
342.50000      149.37631        7.16533        -999.25        9.14627      -45.29343
343.00000      149.34685        7.08714        -999.25        8.98809      -45.88281
343.50000      149.31149        7.08856        -999.25        8.94943      -45.87341
344.00000      150.27506        7.08973        -999.25        8.91078      -45.86400
344.50000      151.23862        7.05146        -999.25        8.83228      -45.85460
345.00000      152.20219        7.01272        -999.25        8.71394      -45.84519
345.50000      152.17273        6.97422        -999.25        8.67528      -45.83578
346.00000      151.15023        7.01508        -999.25        8.67646      -45.52698
346.50000      151.12077        7.01626        -999.25        8.71749      -45.51758
347.00000      151.09130        7.01767        -999.25        8.71867      -46.10696
347.50000      152.05487        6.93925        -999.25        8.71985      -46.39695
348.00000      154.01147        6.90074        -999.25        8.72103      -46.08815
348.50000      155.96807        6.86224        -999.25        8.60293      -45.77935
349.00000      156.93163        6.74437        -999.25        8.52443      -45.76806
349.50000      156.90217        6.74555        -999.25        8.44594      -45.75866
350.00000      151.67611        6.77326        -999.25        8.52622      -45.82980
350.50000      149.65053        6.93380        -999.25        8.52740      -45.52284
351.00000      146.62696        7.01466        -999.25        8.60826      -45.21588
351.50000      141.60742        7.29473        -999.25        8.72896      -44.61130
352.00000      137.58586        7.49511        -999.25        8.96918      -44.30434
352.50000      133.56430        7.73533        -999.25        9.24925      -43.69976
353.00000      129.54275        8.01539        -999.25        9.48947      -43.39280
353.50000      126.51918        8.17593        -999.25        9.68985      -43.38345
354.00000      126.48957        8.25679        -999.25        9.69103      -43.37410
354.50000      130.45190        8.05878        -999.25        9.49301      -43.06714
355.00000      135.41222        7.82092        -999.25        9.05596      -42.46256
355.50000      142.36851        7.50338        -999.25        8.57906      -42.15560
356.00000      147.32883        7.17270        -999.25        8.26152      -42.14625
356.50000      153.28714        6.86831        -999.25        8.06351      -42.43264
357.00000      157.24947        6.67029        -999.25        7.86572      -43.31613
357.50000      162.20387        6.51211        -999.25        7.82707      -44.49723
358.00000      163.17225        6.31409        -999.25        7.70873      -45.38072
358.50000      165.13861        6.27544        -999.25        7.63023      -45.96660
359.00000      165.10900        6.27709        -999.25        7.55173      -46.55248
359.50000      163.08341        6.23820        -999.25        7.51308      -46.84074
360.00000      162.05582        6.31906        -999.25        7.51426      -46.83139
360.50000      162.02621        6.32024        -999.25        7.51544      -46.82204
361.00000      161.99659        6.32142        -999.25        7.55646      -46.81269
361.50000      160.96900        6.36245        -999.25        7.51780      -46.20811
362.00000      159.94140        6.40347        -999.25        7.51899      -45.60354
362.50000      160.90977        6.40465        -999.25        7.52017      -45.59419
363.00000      160.88016        6.40583        -999.25        7.52135      -45.28722
363.50000      160.85055        6.40701        -999.25        7.56237      -45.27787
364.00000      159.82295        6.40820        -999.25        7.60339      -45.26852
364.50000      160.78541        6.40938        -999.25        7.72410      -45.25917
365.00000      159.75781        6.45040        -999.25        7.80496      -45.54557
365.50000      158.73021        6.45158        -999.25        7.84622      -45.53622
366.00000      158.70060        6.49260        -999.25        7.88724      -45.52687
366.50000      159.66898        6.49379        -999.25        7.92826      -45.81513
367.00000      159.63936        6.45536        -999.25        7.92944      -45.80578
367.50000      160.60774        6.45655        -999.25        7.93062      -45.79643
368.00000      159.58014        6.45797        -999.25        8.01149      -46.08469
368.50000      158.55255        6.45891        -999.25        8.09235      -46.07534
369.00000      154.53099        6.60113        -999.25        8.17321      -46.06599
369.50000      150.50943        6.74334        -999.25        8.25407      -45.46142
370.00000      147.48586        6.88556        -999.25        8.37477      -45.15446
370.50000      145.46028        7.02817        -999.25        8.49548      -45.14511
371.00000      144.42676        7.18194        -999.25        8.57634      -44.24292
371.50000      144.39715        7.18312        -999.25        8.57752      -43.34073
372.00000      145.36552        7.10462        -999.25        8.49902      -42.43854
372.50000      147.33188        7.06597        -999.25        8.42052      -41.83396
373.00000      149.29825        6.94763        -999.25        8.18267      -40.63229
373.50000      150.26662        6.90897        -999.25        7.82529      -39.13487
374.00000      151.23500        6.83047        -999.25        7.62751      -36.74462
374.50000      150.20740        6.83166        -999.25        7.66853      -35.54482
375.00000      147.18383        6.99243        -999.25        7.82907      -34.34501
375.50000      143.16227        7.15298        -999.25        8.10913      -33.44283
376.00000      137.14474        7.59240        -999.25        8.46888      -32.54064
376.50000      132.12520        7.83262        -999.25        8.86846      -32.53129
377.00000      126.10767        8.23220        -999.25        9.26804      -33.11716
377.50000      119.08623        8.59194        -999.25        9.78714      -32.81020
378.00000      114.06669        8.99152        -999.25       10.30624      -32.80085
378.50000      111.04312        9.31142        -999.25       10.90526      -33.08911
379.00000      109.01754        9.59149        -999.25       11.34468      -33.97260
379.50000      106.99195        9.71219        -999.25       11.58490      -34.55848
380.00000      105.96436        9.79329        -999.25       11.74544      -35.44010
380.50000      105.93474        9.83431        -999.25       11.78646      -36.02597
381.00000      108.89909        9.71597        -999.25       11.78765      -36.61185
381.50000      110.86545        9.59763        -999.25       11.70915      -36.90011
382.00000      114.82779        9.16058        -999.25       11.51113      -37.48599
382.50000      117.79214        9.04224        -999.25       11.27327      -38.07187
383.00000      121.75447        8.72470        -999.25       10.99558      -39.25297
383.50000      125.71680        8.44700        -999.25       10.55852      -40.43407
384.00000      131.67511        8.04979        -999.25       10.08162      -41.31756
384.50000      135.63744        7.77209        -999.25        9.64456      -41.90344
