~Version ---------------------------------------------------
VERS. 2.0 : CWLS LOG ASCII STANDARD - VERSION 2.0
WRAP. NO  : One line per depth step
DLM . SPACE : Column Data Section Delimiter
~Well ------------------------------------------------------
STRT.F          100 : START DEPTH
STOP.F       2271.5 : STOP DEPTH
STEP.F          0.5 : STEP
NULL.       -999.25 : NULL VALUE
COMP.                       WALSH & WATTS : COMPANY
WELL.                        SALMON E 24  : WELL
FLD .                               NORTH : FIELD
CNTY.                            MONTAGUE : COUNTY
STAT.                               TEXAS : STATE
CTRY.                                 USA : COUNTRY
SEC .                                     : SECTION
TWP .                                     : TOWNSHIP
RGE .                                     : RANGE
LOC .                 SW CORNER OF LEAGUE : LOCATION
EKB .F                          : ELEVATION KELLY BUSHING
EDF .F                          : ELEVATION DERRICK FLOOR
EGL .F                      850 : ELEVATION GROUND LEVEL
PDAT.                        GL : PERMANENT DATUM
EPD .                       850 : ELEVATION PERMANENT DATUM
APD .                         5 : ABOVE PERMANENT DATUM
LMF .                        RT : LOG MEASURED FROM
DMF .                        RT : DRILLING MEASURED FROM
API .            42337038630000 : API NUMBER
UWI .                           : UWI NUMBER
DIGC.                     NthDS : DIGITIZING COMPANY
~Params ----------------------------------------------------
SRVC.               HALLIBURTON : LOGGING COMPANY
LOG .                        EL : LOG
DATE.                1950-09-25 : RUN DATE
RUN .                         1 : RUN NUMBER
TDD .F                     2272 : TOTAL DEPTH DRILLER
TDL .F                     2272 : TOTAL DEPTH LOGGER
BOTL.F                     2272 : BOTTOM LOGGED INTERVAL
TOPL.F                          : TOP LOGGED INTERVAL
CSGS.IN                         : CASING SIZE
CSGD.F                          : CASING DRILLER
CSGL.F                          : CASING LOGGER
BS  .IN                       9 : BIT SIZE
MUD .        WATER BASE AQUAGEL : MUD TYPE
MUDD.                       9.8 : MUD DENSITY
MUDV.                        39 : MUD VISCOSITY
PH  .                           : MUD PH
FL  .                           : FLUID LOSS
MUDS.                           : SOURCE OF SAMPLE
RM  .OHMM                   2.3 : MUD RESISTIVITY
RMT .DEGF                    70 : RM TEMPERATURE
RMF .OHMM                       : MUD FILTRATE RESISTIVITY
RMFT.DEGF                       : RMF TEMPERATURE
RMC .OHMM                       : MUD CAKE RESISTIVITY
RMCT.DEGF                       : RMC TEMPERATURE
RMFS.                           : RMF SOURCE
RMCS.                           : RMC SOURCE
RMBH.OHMM                       : MUD RESISTIVITY AT BHT
BHT .DEGF                       : BOTTOM HOLE TEMPERATURE
TIMC.                           : TIME CIRCULATION STOPPED
TIML.                           : TIME LOGGER ON BOTTOM
TMAX.DEGF                       : MAXIMUM RECORDED TEMPERATURE
UNIT.                           : EQUIPMENT NUMBER
BASE.                           : BASE LOCATION
ENG .                  HARRISON : RECORDED BY
WIT .                    DAWSON : WITNESSED BY
~Curve Information -----------------------------------------
DEPT.F          :DEPTH
ILD.OHMM        :
SN.OHMM         :
SP.MV           :
~ASCII ------------------------------------------------------
100.00000        -999.25        -999.25      -29.25253
100.50000       24.76633        -999.25      -28.17785
101.00000       23.66582       25.27014      -27.46251
101.50000       22.86432       24.95575      -26.74384
102.00000       23.92881       24.64137      -26.02850
102.50000       24.99413       24.32698      -25.31316
103.00000       26.05862       24.27011      -24.40484
103.50000       27.12395       24.21408      -23.31020
104.00000       28.18844       24.15722      -22.21224
104.50000       29.25376       24.22828      -21.11760
105.00000       30.31825       24.29850      -20.02296
105.50000       31.03601       24.36956      -18.92499
106.00000       31.75376       24.44062      -17.83035
106.50000       32.47152       24.51168      -16.73238
107.00000       33.87771       24.58190      -15.63775
107.50000       35.97152       24.65296      -15.28174
108.00000       38.06532       24.72402      -14.92906
108.50000       41.28977       24.79424      -14.57305
109.00000       45.64488       24.86530      -14.21704
109.50000       49.99999       24.93636      -13.86436
110.00000       51.84254       25.00742      -13.50836
110.50000       54.38022       25.07764      -13.15235
111.00000       57.61305       25.14870      -12.40041
111.50000       60.83751       25.16625      -11.24588
112.00000       64.07034       25.18380      -10.09135
112.50000       67.30317       25.20218       -8.94015
113.00000       70.52762       25.21973       -7.78562
113.50000       73.76045       25.15952       -6.63109
114.00000       80.04186       25.02238       -5.47989
114.50000       89.37184       24.88442       -4.32536
115.00000       98.71020       24.74645       -4.55827
115.50000      108.04018       24.60932       -4.79117
116.00000      104.78222       24.47135       -5.02407
116.50000      101.51589       24.16030       -5.25697
117.00000       98.25794       23.84843       -5.48987
117.50000       94.99161       23.53738       -5.72278
118.00000       91.73365       23.22550       -5.95568
118.50000       88.46732       22.91446       -6.18858
119.00000       85.20936       22.60258       -6.42148
119.50000       81.94303       22.29154       -6.65438
120.00000       78.68508       22.26979       -6.29505
120.50000       76.95978       22.24804       -5.93904
121.00000       76.77553       22.22629       -5.57971
121.50000       76.58290       22.20454       -5.22037
122.00000       76.39864       21.86925       -4.86437
122.50000       76.21439       21.53396       -4.50503
123.00000       77.32829       21.19867       -4.61483
123.50000       78.45057       21.13679       -5.19043
124.00000       79.56447       21.07574       -5.76603
124.50000       80.67838       21.01386       -6.34496
125.00000       81.80065       20.95198       -6.92056
125.50000       82.91456       20.89010       -7.49616
126.00000       87.52092       20.60789       -8.07509
126.50000       92.12728       19.52679       -8.65069
127.00000       87.30316       18.44486       -9.34606
127.50000       82.47067       17.36376      -10.03812
128.00000       77.64655       16.28266      -10.73350
128.50000       72.81406       15.20072      -11.42887
129.00000       67.98994       14.11962      -12.12093
129.50000       63.15744       13.41143      -12.81630
130.00000       58.33332       13.07614      -13.51168
130.50000       53.50083       12.74085      -14.20706
131.00000       51.08877       12.55438      -14.89911
131.50000       50.27218       12.51591      -15.59449
132.00000       47.19430       12.47828      -16.28987
132.50000       41.58291       12.43981      -16.83220
133.00000       35.97152       12.40217      -17.22481
133.50000       32.51842       12.25500      -17.81704
134.00000       31.22445       12.10784      -18.20965
134.50000       29.92964       11.96067      -18.60225
135.00000       28.63567       11.81351      -18.99486
135.50000       27.34087       11.72905      -19.38747
136.00000       26.04690       11.64459      -19.78007
136.50000       25.54438       11.56014      -20.17601
137.00000       25.04187       11.47568      -20.56861
137.50000       25.54438       11.39122      -20.96122
138.00000       26.04690       11.74572      -20.29578
138.50000       26.54941       12.10022      -19.63035
139.00000       27.05192       12.45472      -18.96492
139.50000       27.01842       12.80922      -18.29948
140.00000       26.44891       12.69717      -17.63405
140.50000       25.87939       12.58429      -17.41113
141.00000       24.62311       12.47224      -17.63405
141.50000       23.36683       12.13695      -17.85697
142.00000       22.11055       11.80166      -18.07656
142.50000       20.85427       11.46637      -18.29948
143.00000       19.59799       11.13108      -18.52240
143.50000       18.34170       10.79579      -18.74200
144.00000       18.78810       10.90614      -18.96492
144.50000       18.55108       11.01734      -19.18784
145.00000       17.62981       11.12769      -19.40743
145.50000       16.70854       10.89274      -19.63035
146.00000       15.78727       10.65778      -19.63035
146.50000       14.86599       10.42282      -19.63035
147.00000       13.94472       10.18786      -19.63035
147.50000       13.67923        9.95291      -19.63035
148.00000       14.07035       10.27145      -19.63035
148.50000       14.46147       10.59000      -19.63035
149.00000       14.85176       10.90771      -19.63035
149.50000       15.24288       11.22626      -19.26436
150.00000       15.75963       11.54481      -18.89837
150.50000       16.27554       11.89596      -18.53238
151.00000       16.79229       12.27973      -18.16640
151.50000       17.30904       12.66349      -17.80041
152.00000       17.82495       13.04726      -17.43442
152.50000       18.34170       13.43102      -17.06843
153.00000       17.89531       13.74204      -16.70244
153.50000       17.44807       13.98032      -16.33645
154.00000       17.00167       14.21777      -15.97046
154.50000       16.94556       14.45605      -15.82739
155.00000       16.89028       15.16590      -15.68100
155.50000       16.83417       15.87574      -15.53793
156.00000       17.44304       16.58559      -15.39153
156.50000       18.05276       17.29544      -15.24847
157.00000       18.66164       18.00528      -15.10207
157.50000       19.27052       18.71513      -14.95900
158.00000       19.87939       18.85391      -14.81261
158.50000       20.40787       18.99186      -14.66954
159.00000       20.85427       19.13064      -14.52314
159.50000       21.30067       18.80372      -14.38007
160.00000       21.36934       18.47595      -14.35346
160.50000       21.06030       18.14902      -14.44995
161.00000       20.75125       17.82126      -14.54311
161.50000       20.44221       17.49433      -14.63959
162.00000       20.13232       17.16656      -14.73608
162.50000       19.82328       16.83963      -14.82924
163.00000       19.51423       16.51187      -14.92573
163.50000       21.15242       16.06287      -15.20521
164.00000       22.78978       15.79446      -15.67434
164.50000       24.42797       15.52606      -16.14348
165.00000       26.06532       15.73424      -16.61261
165.50000       25.14656       15.94243      -17.07841
166.00000       21.67085       14.85464      -17.54754
166.50000       18.19514       12.70248      -18.01667
167.00000       14.71943       11.62222      -18.71871
167.50000       12.84757       10.00224      -19.18784
168.00000       12.57956        9.70875      -19.65364
168.50000       12.31156        9.41527      -20.12277
169.00000       13.48408        9.68198      -20.59190
169.50000       14.65661        9.94869      -21.06103
170.00000       15.82914        9.98714      -21.29394
170.50000       15.74539        9.79817      -21.29394
171.00000       14.40536        9.60920      -21.29394
171.50000       13.06532        9.42022      -21.29394
172.00000       13.66331        9.57657      -21.10096
172.50000       14.26214       10.07739      -20.71168
