~Version ---------------------------------------------------
VERS. 2.0 : CWLS LOG ASCII STANDARD - VERSION 2.0
WRAP. NO  : One line per depth step
DLM . SPACE : Column Data Section Delimiter
~Well ------------------------------------------------------
STRT.F          866 : START DEPTH
STOP.F       1785.0 : STOP DEPTH
STEP.F          0.5 : STEP
NULL.       -999.25 : NULL VALUE
COMP.                 WALSH & WATTS, INC, : COMPANY
WELL.                         SALMON E 41 : WELL
FLD .                        NORTH NOCONA : FIELD
CNTY.                            MONTAGUE : COUNTY
STAT.                               TEXAS : STATE
CTRY.                                 USA : COUNTRY
SEC .                                     : SECTION
TWP .                                     : TOWNSHIP
RGE .                                     : RANGE
LOC . 300' N OF NO. 40
150' W OF EL & 385' E OF NO. 87
F. ROBERTSON SURVEY : LOCATION
EKB .F                          : ELEVATION KELLY BUSHING
EDF .F                          : ELEVATION DERRICK FLOOR
EGL .F                      878 : ELEVATION GROUND LEVEL
PDAT.              GROUND LEVEL : PERMANENT DATUM
EPD .                       878 : ELEVATION PERMANENT DATUM
APD .                           : ABOVE PERMANENT DATUM
LMF .                        KB : LOG MEASURED FROM
DMF .                        KB : DRILLING MEASURED FROM
API .            42337037790000 : API NUMBER
UWI .            42337037790000 : UWI NUMBER
DIGC.                     NthDS : DIGITIZING COMPANY
~Params ----------------------------------------------------
SRVC.                LANE WELLS : LOGGING COMPANY
LOG .                        AC : LOG
DATE.                1965-12-01 : RUN DATE
RUN .                         1 : RUN NUMBER
TDD .F                     1790 : TOTAL DEPTH DRILLER
TDL .F                     1791 : TOTAL DEPTH LOGGER
BOTL.F                     1784 : BOTTOM LOGGED INTERVAL
TOPL.F                      880 : TOP LOGGED INTERVAL
CSGS.IN                         : CASING SIZE
CSGD.F                          : CASING DRILLER
CSGL.F                          : CASING LOGGER
BS  .IN                       9 : BIT SIZE
MUD .                       GEL : MUD TYPE
MUDD.                        10 : MUD DENSITY
MUDV.                        80 : MUD VISCOSITY
PH  .                       9.0 : MUD PH
FL  .                       6.8 : FLUID LOSS
MUDS.                       PIT : SOURCE OF SAMPLE
RM  .OHMM                  1.95 : MUD RESISTIVITY
RMT .DEGF                    74 : RM TEMPERATURE
RMF .OHMM                   1.5 : MUD FILTRATE RESISTIVITY
RMFT.DEGF                    74 : RMF TEMPERATURE
RMC .OHMM                   2.3 : MUD CAKE RESISTIVITY
RMCT.DEGF                    74 : RMC TEMPERATURE
RMFS.                  MEASURED : RMF SOURCE
RMCS.                           : RMC SOURCE
RMBH.OHMM                   1.5 : MUD RESISTIVITY AT BHT
BHT .DEGF                    97 : BOTTOM HOLE TEMPERATURE
TIMC.                           : TIME CIRCULATION STOPPED
TIML.                           : TIME LOGGER ON BOTTOM
TMAX.DEGF                    97 : MAXIMUM RECORDED TEMPERATURE
UNIT.                    L-5172 : EQUIPMENT NUMBER
BASE.                      W.F. : BASE LOCATION
ENG .             ADAMS & BAKER : RECORDED BY
WIT .                   MR. NIX : WITNESSED BY
~Curve Information -----------------------------------------
DEPT.F          :DEPTH
CALS.IN         :
DT.US/F         :
SP.MV           :
~ASCII ------------------------------------------------------
# ...
1083.50000        8.57440       95.47325      -80.70002
1084.00000        8.57060       98.24890      -80.40002
1084.50000        8.58400      100.59052      -79.80002
1085.00000        8.59740      102.97301      -78.00002
1085.50000        8.66860      102.78125      -76.80002
1086.00000        8.75420      101.75599      -78.00002
1086.50000        8.84000      102.64298      -79.80002
1087.00000        8.84000      104.40833      -83.10002
1087.50000        8.80000      106.17368      -84.00002
1088.00000        8.76000      108.27336      -84.90002
1088.50000        8.72000      110.01977      -85.50002
1089.00000        8.72400      106.28266      -85.20002
1089.50000        8.72720       98.90616      -84.60002
1090.00000        8.73060       92.63168      -84.60002
1090.50000        8.73380       90.77491      -84.00002
1091.00000        8.73720       89.84836      -84.60002
1091.50000        8.74040       88.91283      -85.80002
1092.00000        8.74380       78.63637      -88.80002
1092.50000        8.74700       93.06200      -89.40001
1093.00000        8.75040       99.26701      -88.80002
1093.50000        8.75360      101.06327      -88.80002
1094.00000        8.75700      102.82663      -87.00002
1094.50000        8.76080      104.53116      -86.10002
1095.00000        8.76420      105.10642      -85.80002
1095.50000        8.76740      106.45403      -85.50002
1096.00000        8.77080      108.82357      -85.50002
1096.50000        8.77400      110.81125      -85.80002
1097.00000        8.77740      111.86774      -85.80002
1097.50000        8.77900      111.07577      -85.50002
1098.00000        8.77460      109.65271      -86.10002
1098.50000        8.77000      109.92056      -86.40002
1099.00000        8.76560      111.74972      -86.40002
1099.50000        8.76100      110.00662      -86.40002
1100.00000        8.75660      104.50883      -86.40002
1100.50000        8.79443       98.49259      -84.69186
1101.00000        8.78986       95.16259      -84.39365
1101.50000        8.78549       99.51680      -83.20081
1102.00000        8.78091      102.85542      -82.00797
1102.50000        8.77634      100.49155      -81.41155
1103.00000        8.77197       99.73822      -81.11334
1103.50000        8.76739      102.70699      -79.92049
1104.00000        8.76302      106.00344      -78.13123
1104.50000        8.75845      108.96822      -78.42944
1105.00000        8.75407      110.60533      -79.62228
1105.50000        8.74950      110.26634      -80.21870
1106.00000        8.74513      108.41741      -80.51692
1106.50000        8.73956      105.84039      -80.51692
1107.00000        8.73519      103.08010      -79.92049
1107.50000        8.73062      102.88753      -79.62228
1108.00000        8.72624      104.83439      -78.72765
1108.50000        8.72167      107.04054      -78.13123
1109.00000        8.71730      105.36890      -78.13123
1109.50000        8.71272      100.41540      -78.72765
1110.00000        8.70835      100.52462      -81.14912
1110.50000        8.70378      102.11192      -83.57357
1111.00000        8.76342      104.70718      -85.99505
1111.50000        8.82306      108.76359      -88.41950
1112.00000        8.88270      108.36684      -90.16701
1112.50000        8.94235      104.88245      -89.21870
1113.00000        8.84811      105.72374      -87.71572
1113.50000        8.76978      106.55905      -84.94833
1114.00000        8.69125      104.75494      -81.70976
1114.50000        8.65905      104.09225      -78.35489
1115.00000        8.69642      101.65368      -74.55270
1115.50000        8.70497       99.74598      -74.45429
1116.00000        8.70656      103.40033      -77.26940
1116.50000        8.70815      102.46573      -78.72765
1117.00000        8.70974       99.28015      -79.84594
1117.50000        8.71133       96.53281      -80.60340
1118.00000        8.71272       95.53845      -80.81513
1118.50000        8.71431       95.10186      -80.81513
1119.00000        8.71630       95.84056      -81.11334
1119.50000        8.71769       98.76849      -81.11334
1120.00000        8.71928      100.72431      -80.51692
1120.50000        8.72087      101.22397      -81.11334
1121.00000        8.72246      102.81924      -81.11334
1121.50000        8.72107      108.38161      -80.81513
1122.00000        8.70775      107.17245      -80.81513
1122.50000        8.69443      112.78462      -80.81513
1123.00000        8.68290      105.24946      -80.51692
1123.50000        8.67813       83.60449      -79.92049
1124.00000        8.67356       93.87800      -79.62228
1124.50000        8.66879      104.08610      -79.02586
1125.00000        8.66402      105.34272      -77.53481
1125.50000        8.66402      104.44797      -72.16702
1126.00000        8.66402      103.28428      -70.37775
1126.50000        8.66402      101.04491      -67.09744
1127.00000        8.66402       95.19500      -66.79923
1127.50000        8.66402       87.07120      -67.69386
1128.00000        8.66441       86.17644      -69.78133
1128.50000        8.66580       88.30259      -72.76344
1129.00000        8.66739       88.30424      -75.74554
1129.50000        8.66879       86.21427      -80.21870
1130.00000        8.67038       85.05357      -83.66900
1130.50000        8.67177       83.76041      -86.48113
1131.00000        8.67336       82.43438      -87.97218
1131.50000        8.67515       85.17506      -88.86681
1132.00000        8.67674       86.28926      -88.56860
1132.50000        8.67813       86.62258      -88.27039
1133.00000        8.67972       89.01466      -88.56860
1133.50000        8.68111      100.22175      -89.16502
1134.00000        8.68270      116.26913      -89.16502
1134.50000        8.67316      121.98821      -89.16502
1135.00000        8.61968      101.27252      -89.16502
1135.50000        8.56620       83.06411      -89.16502
1136.00000        8.55905       86.63447      -88.56860
1136.50000        8.58290       84.89310      -87.97218
1137.00000        8.60676       81.23940      -87.67397
1137.50000        8.63062       80.36456      -86.77934
1138.00000        8.65924       81.69389      -86.18292
1138.50000        8.67097       83.05709      -86.18292
1139.00000        8.67972       83.35755      -86.77934
1139.50000        8.68847       83.45880      -86.77934
1140.00000        8.69722       83.95845      -86.77934
1140.50000        8.70596       84.45811      -87.07755
1141.00000        8.71451       84.49263      -87.07755
1141.50000        8.72326       81.27418      -87.67397
1142.00000        8.73201       82.47104      -87.97218
1142.50000        8.74075       86.95507      -87.97218
1143.00000        8.74950       86.55832      -87.67397
1143.50000        8.75825       85.76316      -87.37576
1144.00000        8.75089       88.20106      -87.37576
1144.50000        8.73022       93.41284      -85.88471
1145.00000        8.70954       98.62462      -85.58650
1145.50000        8.68887      101.50706      -85.58650
1146.00000        8.66819      102.18600      -85.58650
1146.50000        8.66342      100.64682      -85.58650
1147.00000        8.66262       91.45198      -86.48113
1147.50000        8.66183       81.69273      -86.18292
1148.00000        8.66103       84.93142      -85.88471
1148.50000        8.66024       88.07083      -85.58650
1149.00000        8.65944       83.88924      -85.88471
1149.50000        8.65865       81.45034      -85.79226
1150.00000        8.65785       80.45139      -85.67894
1150.50000        8.67300       80.32903      -85.29002
1151.00000        8.67220       78.69378      -85.51502
1151.50000        8.67140       75.79366      -85.74002
1152.00000        8.67060       77.97585      -85.96502
1152.50000        8.66980       80.63819      -86.10002
1153.00000        8.66900       83.31343      -86.10002
1153.50000        8.66820       86.04323      -85.80002
1154.00000        8.66740       85.42484      -85.80002
1154.50000        8.66660       85.30248      -85.80002
