~Version ---------------------------------------------------
VERS. 2.0 : CWLS LOG ASCII STANDARD - VERSION 2.0
WRAP. NO  : One line per depth step
DLM . SPACE : Column Data Section Delimiter
~Well ------------------------------------------------------
STRT.F          866 : START DEPTH
STOP.F       1785.0 : STOP DEPTH
STEP.F          0.5 : STEP
NULL.       -999.25 : NULL VALUE
COMP.                 WALSH & WATTS, INC, : COMPANY
WELL.                         SALMON E 41 : WELL
FLD .                        NORTH NOCONA : FIELD
CNTY.                            MONTAGUE : COUNTY
STAT.                               TEXAS : STATE
CTRY.                                 USA : COUNTRY
SEC .                                     : SECTION
TWP .                                     : TOWNSHIP
RGE .                                     : RANGE
LOC . 300' N OF NO. 40
150' W OF EL & 385' E OF NO. 87
F. ROBERTSON SURVEY : LOCATION
EKB .F                          : ELEVATION KELLY BUSHING
EDF .F                          : ELEVATION DERRICK FLOOR
EGL .F                      878 : ELEVATION GROUND LEVEL
PDAT.              GROUND LEVEL : PERMANENT DATUM
EPD .                       878 : ELEVATION PERMANENT DATUM
APD .                           : ABOVE PERMANENT DATUM
LMF .                        KB : LOG MEASURED FROM
DMF .                        KB : DRILLING MEASURED FROM
API .            42337037790000 : API NUMBER
UWI .            42337037790000 : UWI NUMBER
DIGC.                     NthDS : DIGITIZING COMPANY
~Params ----------------------------------------------------
SRVC.                LANE WELLS : LOGGING COMPANY
LOG .                        AC : LOG
DATE.                1965-12-01 : RUN DATE
RUN .                         1 : RUN NUMBER
TDD .F                     1790 : TOTAL DEPTH DRILLER
TDL .F                     1791 : TOTAL DEPTH LOGGER
BOTL.F                     1784 : BOTTOM LOGGED INTERVAL
TOPL.F                      880 : TOP LOGGED INTERVAL
CSGS.IN                         : CASING SIZE
CSGD.F                          : CASING DRILLER
CSGL.F                          : CASING LOGGER
BS  .IN                       9 : BIT SIZE
MUD .                       GEL : MUD TYPE
MUDD.                        10 : MUD DENSITY
MUDV.                        80 : MUD VISCOSITY
PH  .                       9.0 : MUD PH
FL  .                       6.8 : FLUID LOSS
MUDS.                       PIT : SOURCE OF SAMPLE
RM  .OHMM                  1.95 : MUD RESISTIVITY
RMT .DEGF                    74 : RM TEMPERATURE
RMF .OHMM                   1.5 : MUD FILTRATE RESISTIVITY
RMFT.DEGF                    74 : RMF TEMPERATURE
RMC .OHMM                   2.3 : MUD CAKE RESISTIVITY
RMCT.DEGF                    74 : RMC TEMPERATURE
RMFS.                  MEASURED : RMF SOURCE
RMCS.                           : RMC SOURCE
RMBH.OHMM                   1.5 : MUD RESISTIVITY AT BHT
BHT .DEGF                    97 : BOTTOM HOLE TEMPERATURE
TIMC.                           : TIME CIRCULATION STOPPED
TIML.                           : TIME LOGGER ON BOTTOM
TMAX.DEGF                    97 : MAXIMUM RECORDED TEMPERATURE
UNIT.                    L-5172 : EQUIPMENT NUMBER
BASE.                      W.F. : BASE LOCATION
ENG .             ADAMS & BAKER : RECORDED BY
WIT .                   MR. NIX : WITNESSED BY
~Curve Information -----------------------------------------
DEPT.F          :DEPTH
CALS.IN         :
DT.US/F         :
SP.MV           :
~ASCII ------------------------------------------------------
# ...
1655.50000        9.25200       97.48852      -37.77603
1656.00000        9.23800       97.87762      -38.35503
1656.50000        9.22400       98.02270      -39.12903
1657.00000        9.21000       97.19468      -40.20003
1657.50000        9.19320       92.13361      -42.00003
1658.00000        9.17920       90.69901      -43.50003
1658.50000        9.16520       92.38193      -44.47503
1659.00000        9.15120       93.19267      -44.66103
1659.50000        9.13860       91.82481      -47.49903
1660.00000        9.13140       91.95096      -51.00002
1660.50000        9.12420       92.82412      -54.50102
1661.00000        9.11720       92.82577      -57.20102
1661.50000        9.11000       91.91707      -59.10002
1662.00000        9.10280       90.17770      -60.24002
1662.50000        9.09660       87.53295      -59.94002
1663.00000        9.09120       84.88920      -59.51402
1663.50000        9.08560       84.03229      -58.57502
1664.00000        9.08000       90.32075      -55.86002
1664.50000        9.09000       93.79383      -47.61303
1665.00000        9.09840       91.71083      -42.45003
1665.50000        9.14360       92.56706      -43.65003
1666.00000        9.19820       93.80974      -45.90003
1666.50000        9.21340       93.54148      -48.15003
1667.00000        9.20220       91.27222      -50.40002
1667.50000        9.07420       88.21612      -52.65002
1668.00000        8.98000       90.18689      -52.05002
1668.50000        8.98000       92.08992      -52.34102
1669.00000        9.09000       91.70711      -59.04002
1669.50000        9.15500       90.32431      -65.73902
1670.00000        9.08000       88.37378      -71.65802
1670.50000        9.00500       74.63049      -74.44202
1671.00000        8.96000       60.88720      -75.90002
1671.50000        8.98660       62.76633      -75.60002
1672.00000        9.12000       74.18326      -76.80002
1672.50000        9.25340       87.88436      -78.15902
1673.00000        9.24600       90.17684      -79.30502
1673.50000        9.20360       85.73330      -80.45402
1674.00000        9.16100       89.40823      -81.60002
1674.50000        9.11860       96.19770      -81.03902
1675.00000        9.07600       79.92454      -79.50002
1675.50000        9.03360       77.73497      -76.50002
1676.00000        8.99100       91.38229      -70.80002
1676.50000        8.94860       94.86998      -63.30002
1677.00000        8.96120       88.71031      -56.95802
1677.50000        8.98760       76.81628      -52.35002
1678.00000        9.01420       67.32795      -55.97102
1678.50000        9.04060       60.59955      -60.00002
1679.00000        9.07240       50.56939      -62.40002
1679.50000        9.09880       52.10091      -62.70002
1680.00000        9.12440       57.89636      -62.70002
1680.50000        9.14660       69.30565      -61.50002
1681.00000        9.25140       69.08817      -60.90002
1681.50000        9.48000       65.86972      -60.30002
1682.00000        9.44660       62.43116      -60.00002
1682.50000        9.41340       58.13701      -59.40002
1683.00000        9.37300       57.93946      -59.10002
1683.50000        9.32780       58.81760      -59.10002
1684.00000        9.28260       58.39097      -59.10002
1684.50000        9.23740       56.76315      -59.10002
1685.00000        9.19220       54.55963      -59.10002
1685.50000        9.14700       53.28042      -58.80002
1686.00000        9.11860       53.66653      -59.10002
1686.50000        9.11620       55.46100      -58.50002
1687.00000        9.11380       53.12203      -57.90002
1687.50000        9.11140       50.94939      -57.60002
1688.00000        9.10900       50.43610      -57.30002
1688.50000        9.10660       52.33747      -57.00002
1689.00000        9.10420       52.31522      -56.70002
1689.50000        9.10200       50.49119      -56.63102
1690.00000        9.09780       52.62729      -56.56502
1690.50000        9.08660       55.25542      -56.49602
1691.00000        9.07560       58.21223      -56.42702
1691.50000        9.06440       61.16805      -56.17502
1692.00000        9.05520       60.91771      -55.80002
1692.50000        9.04720       59.31579      -55.42502
1693.00000        9.03760       61.85759      -54.97502
1693.50000        9.02960       63.78055      -54.60002
1694.00000        9.02160       68.53417      -54.21602
1694.50000        9.06000       73.11747      -53.79602
1695.00000        9.11000       71.52550      -53.37602
1695.50000        9.16000       59.27622      -52.95602
1696.00000        9.14340       60.87149      -52.53602
1696.50000        9.12660       66.84921      -52.21202
1697.00000        9.11000       69.44081      -52.26902
1697.50000        9.09340       73.42651      -52.32602
1698.00000        9.07660       72.87039      -52.38602
1698.50000        9.06000       68.33024      -52.44302
1699.00000        9.07180       62.95343      -52.50002
1699.50000        9.08360       68.58553      -51.71102
1700.00000        9.09520       77.47484      -50.92502
1700.50000        9.12560       68.84135      -49.68002
1701.00000        9.13260       62.56768      -48.89102
1701.50000        9.13960       70.62131      -48.10503
1702.00000        9.14660       67.88937      -47.31603
1702.50000        9.15340       74.10371      -46.53003
1703.00000        9.16040       80.96417      -46.05003
1703.50000        9.16740       81.61193      -46.80003
1704.00000        9.17440       82.37898      -47.55003
1704.50000        9.17740       88.82228      -47.66103
1705.00000        9.16140       92.30303      -47.60703
1705.50000        9.14800       93.24901      -47.55903
1706.00000        9.14800       93.97133      -47.51103
1706.50000        9.16800       94.49484      -47.46603
1707.00000        9.18840       94.49682      -47.41803
1707.50000        9.20940       94.36925      -46.95003
1708.00000        9.23060       93.72477      -46.20003
1708.50000        9.25160       92.68766      -45.45003
1709.00000        9.26000       89.00344      -45.30003
1709.50000        9.26000       84.01804      -45.30003
1710.00000        9.26000       85.63101      -45.80703
1710.50000        9.26000       89.96465      -47.07603
1711.00000        9.24800       92.27344      -48.34503
1711.50000        9.23620       91.94109      -49.26602
1712.00000        9.22420       94.38143      -50.10002
1712.50000        9.21240       97.69618      -50.10002
1713.00000        9.20040      101.01093      -50.10002
1713.50000        9.18860       98.69350      -50.06102
1714.00000        9.17420       91.23993      -49.83602
1714.50000        9.16240       89.19387      -49.65002
1715.00000        9.16000       90.64680      -49.46102
1715.50000        9.16000       74.50242      -49.27502
1716.00000        9.16000       61.82289      -49.75502
1716.50000        9.16000       63.01771      -50.67602
1717.00000        9.17140       65.10682      -51.60002
1717.50000        9.20000       71.94243      -52.52402
1718.00000        9.22860       79.45695      -53.44502
1718.50000        9.22860       87.04040      -54.00002
1719.00000        9.21420       87.24781      -54.00002
1719.50000        9.20000       86.02283      -53.89202
1720.00000        9.14700       89.72923      -53.34602
1720.50000        9.09420       93.80640      -52.80002
1721.00000        9.04120       98.69900      -52.25402
1721.50000        8.98820      104.28710      -51.70802
1722.00000        8.93520      108.92789      -51.16502
1722.50000        8.88240      106.87488      -50.61902
1723.00000        8.84000       94.69966      -50.71202
1723.50000        8.84000       85.17551      -51.10502
1724.00000        8.84000       87.59564      -51.49502
1724.50000        8.86660       89.28714      -51.88802
1725.00000        8.90000       89.56711      -52.14302
1725.50000        8.93340       89.45644      -51.86402
1726.00000        8.94380       89.65722      -51.58202
1726.50000        8.94860       89.13501      -51.30002
