~Version ---------------------------------------------------
VERS. 2.0 : CWLS LOG ASCII STANDARD - VERSION 2.0
WRAP. NO  : One line per depth step
DLM . SPACE : Column Data Section Delimiter
~Well ------------------------------------------------------
STRT.F          227 : START DEPTH
STOP.F       2033.0 : STOP DEPTH
STEP.F          0.5 : STEP
NULL.       -999.25 : NULL VALUE
COMP.                  WALSH & WATTS, INC : COMPANY
WELL.                          HYNDS A 10 : WELL
FLD .                           N. NOCONA : FIELD
CNTY.                            MONTAGUE : COUNTY
STAT.                               TEXAS : STATE
CTRY.                                 USA : COUNTRY
SEC .                                     : SECTION
TWP .                                     : TOWNSHIP
RGE .                                     : RANGE
LOC .  244' SE OF NO. 5A J.J. WALL SURVEY : LOCATION
EKB .F                    903.5 : ELEVATION KELLY BUSHING
EDF .F                          : ELEVATION DERRICK FLOOR
EGL .F                      897 : ELEVATION GROUND LEVEL
PDAT.                        GL : PERMANENT DATUM
EPD .                           : ELEVATION PERMANENT DATUM
APD .                         6 : ABOVE PERMANENT DATUM
LMF .                           : LOG MEASURED FROM
DMF .                           : DRILLING MEASURED FROM
API .            42337037830000 : API NUMBER
UWI .            42337037830000 : UWI NUMBER
DIGC.                     NthDS : DIGITIZING COMPANY
~Params ----------------------------------------------------
SRVC.              SCHLUMBERGER : LOGGING COMPANY
LOG .                       IEL : LOG
DATE.                1957-10-20 : RUN DATE
RUN .                         1 : RUN NUMBER
TDD .F                          : TOTAL DEPTH DRILLER
TDL .F                          : TOTAL DEPTH LOGGER
BOTL.F                     2039 : BOTTOM LOGGED INTERVAL
TOPL.F                          : TOP LOGGED INTERVAL
CSGS.IN                         : CASING SIZE
CSGD.F                      227 : CASING DRILLER
CSGL.F                      227 : CASING LOGGER
BS  .IN                    8.75 : BIT SIZE
MUD .                       GEL : MUD TYPE
MUDD.                       9.9 : MUD DENSITY
MUDV.                        50 : MUD VISCOSITY
PH  .                           : MUD PH
FL  .                           : FLUID LOSS
MUDS.                           : SOURCE OF SAMPLE
RM  .OHMM                   2.3 : MUD RESISTIVITY
RMT .DEGF                    60 : RM TEMPERATURE
RMF .OHMM                   .76 : MUD FILTRATE RESISTIVITY
RMFT.DEGF                    96 : RMF TEMPERATURE
RMC .OHMM                   1.7 : MUD CAKE RESISTIVITY
RMCT.DEGF                    96 : RMC TEMPERATURE
RMFS.                           : RMF SOURCE
RMCS.                           : RMC SOURCE
RMBH.OHMM                   1.4 : MUD RESISTIVITY AT BHT
BHT .DEGF                    96 : BOTTOM HOLE TEMPERATURE
TIMC.                           : TIME CIRCULATION STOPPED
TIML.                           : TIME LOGGER ON BOTTOM
TMAX.DEGF                       : MAXIMUM RECORDED TEMPERATURE
UNIT.                       785 : EQUIPMENT NUMBER
BASE.                        WF : BASE LOCATION
ENG .                     JONES : RECORDED BY
WIT .               BALCH & NIX : WITNESSED BY
~Curve Information -----------------------------------------
DEPT.F          :DEPTH
CILD.MMHO       :
ILD.OHMM        :
ROP.FT/HR       :
SN.OHMM         :
SP.MV           :
~ASCII ------------------------------------------------------
# ...
1880.00000      317.89481        3.13121        6.00732        3.59968      -18.65753
1880.50000      315.46841        3.18566        6.52015        3.72944      -19.70698
1881.00000      310.82969        3.26521        6.52015        3.85619      -20.80954
1881.50000      302.90819        3.34475        6.52015        3.92853      -21.88646
1882.00000      296.16422        3.39259        6.52015        3.91907      -22.57328
1882.50000      291.70391        3.39322        5.97417        3.90961      -22.91394
1883.00000      292.59597        3.38123        5.98297        3.90051      -23.16852
1883.50000      294.30873        3.36060        5.99341        3.86042      -23.47438
1884.00000      296.03041        3.33997        6.00201        3.81312      -23.62639
1884.50000      297.99294        3.31934        6.48388        3.76582      -23.99269
1885.00000      300.33906        3.29487        6.48461        3.71180      -24.60258
1885.50000      302.69410        3.27424        6.48535        3.66739      -24.62090
1886.00000      305.04022        3.25360        6.48608        3.65000      -24.23628
1886.50000      308.25164        3.23297        6.48681        3.65063      -23.73628
1887.00000      311.08839        3.21234        6.48773        3.65125      -24.41943
1887.50000      312.22131        3.19207        6.48846        3.65188      -25.64104
1888.00000      312.22131        3.18405        6.48938        3.65251      -24.90844
1888.50000      312.22131        3.18468        6.49011        3.64882      -22.56412
1889.00000      312.22131        3.18531        6.49084        3.62891      -18.16852
1889.50000      312.22131        3.18593        6.49157        3.60480      -14.51467
1890.00000      313.40775        3.16795        6.49231        3.58452      -14.04214
1890.50000      314.60311        3.14516        6.49304        3.56425      -13.94141
1891.00000      316.08393        3.12200        6.49395        3.54830      -14.05680
1891.50000      317.57367        3.09921        6.49469        3.54893      -14.05680
1892.00000      319.06341        3.08218        6.49560        3.54956      -13.96522
1892.50000      320.14280        3.08893        6.49634        3.55019      -14.05680
1893.00000      319.63433        3.09569        6.49707        3.55082      -14.39929
1893.50000      319.11693        3.10208        6.49780        3.56586      -14.74361
1894.00000      318.59954        3.10884        6.49853        3.58824      -15.07877
1894.50000      318.09107        3.11680        6.49945        3.60689      -15.38463
1895.00000      317.57367        3.12896        6.50018        3.62553      -15.69050
1895.50000      316.95815        3.14977        6.50091        3.61787      -15.85167
1896.00000      316.44075        3.17022        6.50183        3.61058      -15.35167
1896.50000      315.92336        3.19103        5.36337        3.60292      -14.94874
1897.00000      315.41488        3.18589        5.35861        3.59526      -14.60625
1897.50000      314.89749        3.17463        5.35384        3.61679      -14.62639
1898.00000      313.54156        3.16336        5.34890        3.65742      -14.88830
1898.50000      312.18562        3.18778        6.99634        3.70610      -15.14837
1899.00000      310.82077        3.22781        6.99634        3.74673      -15.41028
1899.50000      309.46484        3.26123        6.99634        3.78736      -15.56778
1900.00000      306.86894        3.30245        6.99634        3.87470      -15.56778
1900.50000      299.91055        3.35208        8.53956        4.01226      -16.30039
1901.00000      295.43428        3.41289        8.54359        4.14983      -17.39929
1901.50000      289.85684        3.49316        8.54762        4.28739      -19.04764
1902.00000      282.62318        3.65127        8.55146        4.42496      -20.69599
1902.50000      275.39847        3.80973        7.01465        4.57982      -22.34434
1903.00000      265.52381        3.96784        7.01465        4.79679      -23.99269
1903.50000      254.98665        4.17328        7.01465        5.07021      -24.29855
1904.00000      244.45845        4.34472        7.01465        5.36705      -25.58060
1904.50000      234.71808        4.51615        6.00732        5.66353      -28.89196
1905.00000      226.17735        4.69120        6.00732        5.88038      -33.39379
1905.50000      216.94727        4.87200        6.00732        5.81362      -37.45423
1906.00000      210.98487        5.00957        6.00732        5.71947      -38.96522
1906.50000      208.20958        4.94533        6.46813        5.63506      -39.81686
1907.00000      208.74673        4.76578        6.47289        5.57875      -40.91576
1907.50000      213.96607        4.61182        6.47765        5.48329      -41.41760
1908.00000      222.91862        4.42735        6.48260        5.42086      -41.02565
1908.50000      230.85058        4.31122        7.54469        5.40095      -41.20880
1909.00000      237.24270        4.25203        7.54286        5.50464      -40.59891
1909.50000      238.13795        4.28257        7.54121        5.60833      -41.12822
1910.00000      234.87922        4.37329        7.53938        5.75310      -41.94141
1910.50000      230.97591        4.47302        7.53754        5.95949      -41.36815
1911.00000      225.99829        4.60878        7.53571        6.36192      -41.57510
1911.50000      221.02963        4.74454        7.53351        6.76471      -43.77291
1912.00000      216.05201        4.86841        7.53187        7.14420      -45.99635
1912.50000      211.28030        4.98904        7.53003        7.37402      -48.77840
1913.00000      206.80403        5.04385        7.52820        7.57248      -53.66301
1913.50000      204.47636        4.96989        7.52637        7.68338      -56.22712
1914.00000      207.69928        4.82889        7.52454        7.63464      -57.14287
1914.50000      212.44413        4.68790        7.52289        7.58626      -59.54946
1915.00000      217.59185        4.57250        7.52106        7.50977      -64.26008
1915.50000      223.76911        4.47439        7.51923        7.34031      -67.39927
1916.00000      228.91683        4.37628        7.51740        7.13085      -68.11356
1916.50000      233.66168        4.27817        7.51557        7.00680      -67.10623
1917.00000      238.13795        4.18006        7.51355        6.85765      -66.57510
1917.50000      242.61423        4.08195        7.51172        6.58945      -67.26191
1918.00000      247.09050        4.01411        7.50989        6.28521      -64.71246
1918.50000      248.20957        3.98784        3.92674        5.98098      -60.98902
1919.00000      250.11647        3.96613        3.93590        5.67675      -56.41027
1919.50000      253.22300        3.92748        3.94505        5.37215      -52.01466
1920.00000      256.32058        3.86360        3.95421        5.16449      -49.87730
1920.50000      260.91324        3.79973        1.90659        4.99936      -49.17584
1921.00000      264.89713        3.74486        1.91117        4.81981      -49.00367
1921.50000      268.87206        3.69540        1.91575        4.64999      -49.51100
1922.00000      272.33670        3.64594        1.92033        4.48233      -49.81686
1922.50000      275.02246        3.59648        3.95330        4.31467      -50.06045
1923.00000      277.70823        3.58521        3.94872        4.28191      -50.54946
1923.50000      279.87474        3.57155        3.94414        4.28254      -50.73261
1924.00000      281.24448        3.56245        3.93956        4.29326      -51.39928
1924.50000      282.62318        3.56308        3.93498        4.30398      -52.06411
1925.00000      282.18450        3.56371        3.93040        4.31434      -52.06045
1925.50000      281.11020        3.56434        3.92582        4.38596      -51.37364
1926.00000      280.21494        3.56497        3.92124        4.54875      -51.51100
1926.50000      280.21494        3.56560        4.50439        4.64667      -52.08792
