~Version ---------------------------------------------------
VERS. 2.0 : CWLS LOG ASCII STANDARD - VERSION 2.0
WRAP. NO  : One line per depth step
DLM . SPACE : Column Data Section Delimiter
~Well ------------------------------------------------------
STRT.F         98.5 : START DEPTH
STOP.F       1003.5 : STOP DEPTH
STEP.F          0.5 : STEP
NULL.       -999.25 : NULL VALUE
COMP.                       WALSH & WATTS : COMPANY
WELL.                          SALMON D 8 : WELL
FLD .                          OLD NOCOMA : FIELD
CNTY.                            MONTAGUE : COUNTY
STAT.                               TEXAS : STATE
CTRY.                                 USA : COUNTRY
SEC .                                     : SECTION
TWP .                                     : TOWNSHIP
RGE .                                     : RANGE
LOC .                          OLD NOCOMA : LOCATION
EKB .F                          : ELEVATION KELLY BUSHING
EDF .F                      855 : ELEVATION DERRICK FLOOR
EGL .F                          : ELEVATION GROUND LEVEL
PDAT.                        RT : PERMANENT DATUM
EPD .                           : ELEVATION PERMANENT DATUM
APD .                         4 : ABOVE PERMANENT DATUM
LMF .                           : LOG MEASURED FROM
DMF .                           : DRILLING MEASURED FROM
API .            42337016420000 : API NUMBER
UWI .            42337016420000 : UWI NUMBER
DIGC.                     NthDS : DIGITIZING COMPANY
~Params ----------------------------------------------------
SRVC.              SCHLUMBERGER : LOGGING COMPANY
LOG .                        EL : LOG
DATE.                1948-12-15 : RUN DATE
RUN .                         1 : RUN NUMBER
TDD .F                          : TOTAL DEPTH DRILLER
TDL .F                          : TOTAL DEPTH LOGGER
BOTL.F                     1005 : BOTTOM LOGGED INTERVAL
TOPL.F                     1004 : TOP LOGGED INTERVAL
CSGS.IN                         : CASING SIZE
CSGD.F                          : CASING DRILLER
CSGL.F                          : CASING LOGGER
BS  .IN                       9 : BIT SIZE
MUD .                   AQUAGEL : MUD TYPE
MUDD.                      10.2 : MUD DENSITY
MUDV.                        40 : MUD VISCOSITY
PH  .                           : MUD PH
FL  .                           : FLUID LOSS
MUDS.                           : SOURCE OF SAMPLE
RM  .OHMM                    .8 : MUD RESISTIVITY
RMT .DEGF                    65 : RM TEMPERATURE
RMF .OHMM                       : MUD FILTRATE RESISTIVITY
RMFT.DEGF                       : RMF TEMPERATURE
RMC .OHMM                       : MUD CAKE RESISTIVITY
RMCT.DEGF                       : RMC TEMPERATURE
RMFS.                           : RMF SOURCE
RMCS.                           : RMC SOURCE
RMBH.OHMM                       : MUD RESISTIVITY AT BHT
BHT .DEGF                       : BOTTOM HOLE TEMPERATURE
TIMC.                           : TIME CIRCULATION STOPPED
TIML.                           : TIME LOGGER ON BOTTOM
TMAX.DEGF                       : MAXIMUM RECORDED TEMPERATURE
UNIT.                       201 : EQUIPMENT NUMBER
BASE.                           : BASE LOCATION
ENG .                    LITTLE : RECORDED BY
WIT .                 MR. WATTS : WITNESSED BY
~Curve Information -----------------------------------------
DEPT.F          :DEPTH
ILD.OHMM        :
LAT.OHMM        :
SN.OHMM         :
SP.MV           :
~ASCII ------------------------------------------------------
# ...
558.50000        4.20533        5.10355        4.84282      -44.83735
559.00000        4.01302        5.28816        5.15051      -45.61559
559.50000        3.89572        5.62988        5.45820      -46.39384
560.00000        3.77931        5.82248        6.01142      -47.17208
560.50000        3.71022        5.61390        6.72803      -48.34953
561.00000        3.99827        5.22603        7.77857      -50.12579
561.50000        5.42380        4.56657        9.05143      -51.90205
562.00000        7.91360        3.84053       10.61224      -54.26286
562.50000       12.46991        3.39053       12.05296      -57.49693
563.00000       14.25794        3.30177       13.21599      -60.52070
563.50000       14.03707        3.33106       13.78439      -62.70686
564.00000       12.03050        3.36124       13.35191      -64.89658
564.50000        8.68467        3.81657       12.51498      -67.58531
565.00000        6.72229        4.37130       11.53519      -70.60908
565.50000        5.44785        5.15592       10.89200      -72.70613
566.00000        4.24217        6.28580       10.47202      -73.59131
566.50000        3.61595        7.66242       10.05293      -72.36283
567.00000        3.45043       10.02958        9.63385      -70.01515
567.50000        3.22956       10.38461        8.98352      -66.44491
568.00000        2.97118       10.02958        8.33318      -62.46476
568.50000        2.81013        9.67455        7.94446      -58.20660
569.00000        3.03568        9.31952        7.90572      -53.95200
569.50000        3.26123        8.96449        7.80449      -51.76828
570.00000        3.53189        8.70444        7.70415      -49.14853
570.50000        3.75744        8.44438        7.68595      -46.96125
571.00000        3.93120        8.18432        7.68829      -45.40485
571.50000        4.10586        7.87189        7.69063      -44.26548
572.00000        4.27962        7.61183        7.69296      -43.99938
572.50000        4.45338        7.43609        7.59798      -45.04851
573.00000        4.62804        7.38639        7.50389      -46.09408
573.50000        4.58216        7.33757        7.40891      -47.14321
574.00000        4.48093        7.28787        7.31393      -48.18878
574.50000        4.41005        7.23905        7.30019      -47.90842
575.00000        4.45703        7.18935        7.40789      -47.62805
575.50000        4.54598        7.13964        7.51469      -46.74532
576.00000        4.80367        7.07308        7.62238      -44.95724
576.50000        5.06136        6.93639        7.52561      -43.46500
577.00000        5.45476        6.80059        7.38867      -41.97633
577.50000        6.11959        6.66390        7.09369      -41.58903
578.00000        7.05584        6.52722        6.79871      -42.32094
578.50000        7.99120        6.39053        6.50283      -43.30235
579.00000        9.03549        6.22633        6.20785      -44.28733
579.50000        9.98960        6.09053        5.91287      -45.27230
580.00000       10.14104        6.02041        5.83128      -45.26639
580.50000        9.85589        5.99645        5.80416      -45.26048
581.00000        9.36180        5.97160        5.77703      -45.25457
581.50000        8.86861        5.94674        5.88026      -45.24866
582.00000        8.37453        5.97692        6.01652      -45.50295
582.50000        8.11883        6.00799        6.15279      -45.82139
583.00000        7.92296        6.03816        6.28905      -45.69073
583.50000        7.84405        6.06923        6.24318      -45.26780
584.00000        7.76514        6.09941        6.15176      -44.84129
584.50000        7.57283        6.11006        6.05946      -44.52529
585.00000        7.38678        6.03728        5.96805      -44.64769
585.50000        7.33912        5.96450        6.04181      -44.77010
586.00000        7.22271        5.87751        6.11558      -44.41132
586.50000        7.00183        5.80562        6.18934      -43.33611
587.00000        6.88632        5.73284        6.26311      -42.26090
587.50000        6.92972        5.66095        6.33687      -41.37460
588.00000        6.95974        5.58816        6.41332      -40.77701
588.50000        6.94065        5.51538        6.49065      -40.17585
589.00000        6.92245        5.44349        6.47960      -40.40163
589.50000        6.90336        5.47811        6.41051      -40.62740
590.00000        6.88427        5.58550        6.34142      -40.85673
590.50000        6.72458        5.69290        6.27233      -41.08251
591.00000        6.59209        5.79941        6.20324      -41.21561
591.50000        6.45872        5.90680        6.21319      -41.20970
592.00000        6.32624        6.01420        6.26017      -41.20379
592.50000        6.19286        6.05592        6.30715      -41.19788
593.00000        6.06038        6.08609        6.35413      -41.45811
593.50000        6.00825        6.11183        6.40111      -42.78883
594.00000        6.01059        6.13668        6.44809      -44.56508
594.50000        6.01293        6.16242        6.69328      -46.45540
595.00000        6.01527        6.18728        7.08668      -48.06770
595.50000        6.01760        6.21302        7.47919      -49.35921
596.00000        6.07976        6.38698        7.71635      -49.13587
596.50000        6.15621        6.56006        7.59994      -48.03928
597.00000        6.11390        6.73402        7.30406      -46.94624
597.50000        5.89303        6.90799        7.26444      -45.84965
598.00000        5.67215        7.06154        7.39445      -45.23067
598.50000        5.66378        7.18668        7.52357      -44.92892
599.00000        5.65540        7.31183        7.43305      -44.49529
599.50000        5.64613        7.43609        7.28629      -43.53770
600.00000        5.40317        7.56124        6.69689      -43.04551
600.50000        5.39557        7.81541        6.34287      -42.06973
601.00000        5.38797        7.87055        6.37813      -40.90023
601.50000        5.38038        7.64822        6.41249      -39.92445
602.00000        5.37189        7.10217        6.48257      -40.51193
602.50000        5.57768        6.16571        6.69194      -41.49023
603.00000        6.15042        4.55336        6.90130      -42.46853
603.50000        7.37315        2.37895        7.13566      -43.24973
604.00000       11.36519        1.39358        7.38609      -45.02401
604.50000       18.42170        0.93824        7.43921      -46.79828
605.00000       29.18411        0.57362        7.26375      -49.45457
605.50000       34.17254        0.46512        6.32939      -53.43749
606.00000       29.77068        0.73903        5.39503      -57.41683
606.50000       20.48831        1.01206        5.26690      -63.79125
607.00000       16.83018        1.81423        5.50484      -70.76445
607.50000       10.13703        2.74802        5.79071      -75.37124
608.00000        6.19382        3.92283        6.02864      -74.32734
608.50000        4.33984        5.44713        5.98355      -71.59468
609.00000        3.58342        6.52144        5.75006      -67.75769
609.50000        2.45264        6.90118        5.51747      -64.01752
610.00000        1.93791        6.70197        5.36613      -60.27376
610.50000        1.84728        6.41561        5.54245      -57.53751
611.00000        1.73763        6.13014        5.71967      -55.47175
611.50000        1.64700        5.95227        5.89600      -53.40240
612.00000        1.62958        5.93715        6.00536      -51.33664
612.50000        1.72198        5.92203        6.06919      -49.26729
613.00000        1.81438        5.90603        6.13302      -46.86439
613.50000        1.90678        5.89091        6.19685      -45.51941
614.00000        1.99918        5.87579        6.23925      -44.17422
614.50000        2.10319        5.78063        6.19237      -42.76101
615.00000        2.22594        5.63211        6.14638      -42.96127
615.50000        2.34781        5.41867        6.09950      -43.56668
