~Version ---------------------------------------------------
VERS. 2.0 : CWLS LOG ASCII STANDARD - VERSION 2.0
WRAP. NO  : One line per depth step
DLM . SPACE : Column Data Section Delimiter
~Well ------------------------------------------------------
STRT.F         98.5 : START DEPTH
STOP.F       1003.5 : STOP DEPTH
STEP.F          0.5 : STEP
NULL.       -999.25 : NULL VALUE
COMP.                       WALSH & WATTS : COMPANY
WELL.                          SALMON D 8 : WELL
FLD .                          OLD NOCOMA : FIELD
CNTY.                            MONTAGUE : COUNTY
STAT.                               TEXAS : STATE
CTRY.                                 USA : COUNTRY
SEC .                                     : SECTION
TWP .                                     : TOWNSHIP
RGE .                                     : RANGE
LOC .                          OLD NOCOMA : LOCATION
EKB .F                          : ELEVATION KELLY BUSHING
EDF .F                      855 : ELEVATION DERRICK FLOOR
EGL .F                          : ELEVATION GROUND LEVEL
PDAT.                        RT : PERMANENT DATUM
EPD .                           : ELEVATION PERMANENT DATUM
APD .                         4 : ABOVE PERMANENT DATUM
LMF .                           : LOG MEASURED FROM
DMF .                           : DRILLING MEASURED FROM
API .            42337016420000 : API NUMBER
UWI .            42337016420000 : UWI NUMBER
DIGC.                     NthDS : DIGITIZING COMPANY
~Params ----------------------------------------------------
SRVC.              SCHLUMBERGER : LOGGING COMPANY
LOG .                        EL : LOG
DATE.                1948-12-15 : RUN DATE
RUN .                         1 : RUN NUMBER
TDD .F                          : TOTAL DEPTH DRILLER
TDL .F                          : TOTAL DEPTH LOGGER
BOTL.F                     1005 : BOTTOM LOGGED INTERVAL
TOPL.F                     1004 : TOP LOGGED INTERVAL
CSGS.IN                         : CASING SIZE
CSGD.F                          : CASING DRILLER
CSGL.F                          : CASING LOGGER
BS  .IN                       9 : BIT SIZE
MUD .                   AQUAGEL : MUD TYPE
MUDD.                      10.2 : MUD DENSITY
MUDV.                        40 : MUD VISCOSITY
PH  .                           : MUD PH
FL  .                           : FLUID LOSS
MUDS.                           : SOURCE OF SAMPLE
RM  .OHMM                    .8 : MUD RESISTIVITY
RMT .DEGF                    65 : RM TEMPERATURE
RMF .OHMM                       : MUD FILTRATE RESISTIVITY
RMFT.DEGF                       : RMF TEMPERATURE
RMC .OHMM                       : MUD CAKE RESISTIVITY
RMCT.DEGF                       : RMC TEMPERATURE
RMFS.                           : RMF SOURCE
RMCS.                           : RMC SOURCE
RMBH.OHMM                       : MUD RESISTIVITY AT BHT
BHT .DEGF                       : BOTTOM HOLE TEMPERATURE
TIMC.                           : TIME CIRCULATION STOPPED
TIML.                           : TIME LOGGER ON BOTTOM
TMAX.DEGF                       : MAXIMUM RECORDED TEMPERATURE
UNIT.                       201 : EQUIPMENT NUMBER
BASE.                           : BASE LOCATION
ENG .                    LITTLE : RECORDED BY
WIT .                 MR. WATTS : WITNESSED BY
~Curve Information -----------------------------------------
DEPT.F          :DEPTH
ILD.OHMM        :
LAT.OHMM        :
SN.OHMM         :
SP.MV           :
~ASCII ------------------------------------------------------
# ...
328.50000        5.20766        7.81065        6.31818      -41.33920
329.00000        4.89839        7.81065        6.18984      -41.29626
329.50000        4.58823        7.81065        6.10962      -41.24974
330.00000        4.27807        7.92781        6.02852      -41.20679
330.50000        4.27807        8.04408        5.94741      -41.16027
331.00000        4.27807        8.16124        5.88948      -40.94914
331.50000        4.39661        8.24556        5.92691      -40.69149
332.00000        4.59536        8.20118        5.96435      -40.43741
332.50000        4.79323        8.15680        6.30036      -40.18333
333.00000        4.99109        8.11242        6.71212      -40.33005
333.50000        5.63458        8.06094        7.15419      -40.83463
334.00000        6.23886        7.98018        7.72192      -41.25331
334.50000        6.60784        7.89941        8.28877      -41.67200
335.00000        7.01872        7.81864        8.76203      -42.09069
335.50000        7.71836        7.73787        9.23618      -42.50938
336.00000        8.29768        7.83106        9.70945      -42.92807
336.50000        8.93048        7.96775       10.02941      -43.34675
337.00000        9.48930        8.06183       10.31016      -43.76544
337.50000        9.88146        7.98816       10.64795      -44.11256
338.00000       10.20766        7.89941       10.84403      -44.34874
338.50000       10.66577        7.82574       10.69518      -44.58850
339.00000       11.21034        7.92870       10.34670      -44.61355
339.50000       11.31907        8.07692        9.99732      -44.31296
340.00000       11.02228        8.14083        9.64884      -44.01594
340.50000       10.69518        8.07958        9.30035      -43.44337
341.00000       10.40552        8.01834        8.97950      -42.87081
341.50000       10.22727        7.95799        8.70053      -42.29824
342.00000        9.94830        7.89674        8.42246      -41.72568
342.50000        9.67023        7.83550        8.17112      -41.15312
343.00000        9.46256        7.68461        8.02852      -41.15312
343.50000        9.53654        7.47426        7.88592      -41.15312
344.00000        9.89305        7.26390        7.74331      -41.62906
344.50000        9.81461        7.05355        7.60071      -42.10858
345.00000        9.42513        6.94083        7.48128      -42.58453
345.50000        9.08199        6.85207        7.45544      -43.32886
346.00000        8.77005        6.95237        7.42870      -44.07677
346.50000        8.25312        7.10059        7.40285      -44.17697
347.00000        7.59982        7.24881        7.63547      -43.85490
347.50000        6.94563        7.50621        7.93226      -43.52926
348.00000        6.44385        7.79201        8.22905      -43.20361
348.50000        6.04278        8.07692        8.52674      -42.94238
349.00000        6.01604        8.36183        8.68627      -42.94238
349.50000        6.23886        8.64763        8.75490      -42.63463
350.00000        6.06863        8.89083        8.79679      -42.25172
350.50000        5.74421        8.97966        8.66310      -41.70740
351.00000        5.73797        8.79047        8.52941      -41.31856
351.50000        5.94385        8.60127        8.39572      -40.92973
352.00000        6.14973        8.45540        8.30125      -41.02400
352.50000        6.55793        8.37495        8.36542      -41.44390
353.00000        6.96702        8.25560        8.42870      -41.86739
353.50000        7.39750        7.97888        8.45098      -42.28730
354.00000        7.84314        7.86837        8.40998      -42.32789
354.50000        7.75401        7.86837        8.36720      -41.79949
355.00000        7.36809        7.86837        8.31105      -41.27110
355.50000        6.98128        7.90019        8.11052      -40.74270
356.00000        6.59536        8.06110        7.81372      -40.10934
356.50000        6.43494        8.22200        7.61141      -40.06047
357.00000        6.27451        8.38291        7.43315      -40.13326
357.50000        6.08200        8.54381        7.17469      -40.20605
358.00000        5.92157        8.67377        6.96078      -40.27885
358.50000        5.80214        8.79666        6.76025      -40.31228
359.00000        5.84670        8.91955        6.55971      -40.18825
359.50000        5.89126        8.97524        6.35918      -40.06781
360.00000        5.93583        8.76218        6.31283      -39.94736
360.50000        5.97148        8.50668        6.49911      -39.82692
361.00000        5.97148        8.29361        6.68449      -39.70289
361.50000        5.97148        8.08143        6.90731      -39.58245
362.00000        6.23886        7.86837        7.13012      -39.98446
362.50000        6.90731        7.77554        7.35294      -40.38290
363.00000        7.72460        7.68183        7.57576      -40.78492
363.50000        8.57397        7.58900        7.78075      -41.18693
364.00000        9.28253        7.54037        7.91444      -41.34203
364.50000        8.83066        7.66591        8.02139      -41.33491
365.00000        8.45365        7.79234        8.02139      -41.32898
365.50000        8.40998        7.98595        8.02139      -41.32305
366.00000        8.45098        8.28124        8.25936      -41.40658
366.50000        8.64527        8.57564        8.69429      -41.84796
367.00000        8.94207        8.47131        9.22014      -42.28934
367.50000        9.23975        8.36788        9.75044      -42.73072
368.00000        9.53654        8.26355       10.28520      -43.28303
368.50000        9.68538        8.23350       10.81996      -44.28624
369.00000        9.83333        8.25294       11.02228      -45.28586
369.50000        9.98217        8.27239       10.70499      -46.28549
370.00000       10.00356        8.29096       10.30570      -46.27956
370.50000        9.83333        8.33605        9.90731      -46.27362
371.00000        9.66399        8.46159        9.50802      -46.26769
371.50000        9.45989        8.58801        9.02584      -47.33531
372.00000        9.17201        8.71444        8.62121      -49.56594
372.50000        8.70588        8.84086        8.46702      -52.07928
373.00000        8.23975        8.96729        8.68984      -55.01130
373.50000        7.77451        8.97348        8.91265      -57.94332
374.00000        7.30838        8.79666        8.94028      -59.54414
374.50000        6.76381        8.46513        8.83690      -60.39586
375.00000        6.32798        8.13359        8.73440      -59.63844
375.50000        6.42691        7.80206        8.46702      -58.17606
376.00000        6.92246        7.44047        8.19964      -55.35742
376.50000        7.47415        7.03379        7.69073      -52.53878
377.00000        8.11052        6.62711        7.18093      -49.74161
377.50000        8.74688        6.22043        6.72905      -46.96948
378.00000        9.46969        5.81375        6.50624      -44.44070
378.50000       10.24955        5.51405        6.28342      -42.86738
379.00000       10.89572        5.37436        6.07219      -42.12786
379.50000       10.95187        5.23467        6.12745      -41.94300
380.00000       10.66577        5.09499        6.36007      -42.31281
380.50000       10.56150        5.12770        6.71034      -43.05120
381.00000       10.62210        5.23821        7.05971      -44.13314
381.50000       10.66310        5.34872        7.66488      -47.07829
382.00000       10.66577        5.58035        8.33333      -50.09261
382.50000       10.51693        5.89243        8.76381      -53.24292
383.00000        9.54456        6.20452        9.02763      -56.39681
383.50000        8.45098        6.51306        9.14795      -58.72407
384.00000        7.43583        6.80746        8.98752      -59.82031
384.50000        6.73529        7.10186        8.82709      -60.91298
385.00000        6.31551        7.39715        8.66666      -61.55834
385.50000        5.96524        7.59430        8.50624      -62.08918
