~Version ---------------------------------------------------
VERS. 2.0 : CWLS LOG ASCII STANDARD - VERSION 2.0
WRAP. NO  : One line per depth step
DLM . SPACE : Column Data Section Delimiter
~Well ------------------------------------------------------
STRT.F         98.5 : START DEPTH
STOP.F       1003.5 : STOP DEPTH
STEP.F          0.5 : STEP
NULL.       -999.25 : NULL VALUE
COMP.                       WALSH & WATTS : COMPANY
WELL.                          SALMON D 8 : WELL
FLD .                          OLD NOCOMA : FIELD
CNTY.                            MONTAGUE : COUNTY
STAT.                               TEXAS : STATE
CTRY.                                 USA : COUNTRY
SEC .                                     : SECTION
TWP .                                     : TOWNSHIP
RGE .                                     : RANGE
LOC .                          OLD NOCOMA : LOCATION
EKB .F                          : ELEVATION KELLY BUSHING
EDF .F                      855 : ELEVATION DERRICK FLOOR
EGL .F                          : ELEVATION GROUND LEVEL
PDAT.                        RT : PERMANENT DATUM
EPD .                           : ELEVATION PERMANENT DATUM
APD .                         4 : ABOVE PERMANENT DATUM
LMF .                           : LOG MEASURED FROM
DMF .                           : DRILLING MEASURED FROM
API .            42337016420000 : API NUMBER
UWI .            42337016420000 : UWI NUMBER
DIGC.                     NthDS : DIGITIZING COMPANY
~Params ----------------------------------------------------
SRVC.              SCHLUMBERGER : LOGGING COMPANY
LOG .                        EL : LOG
DATE.                1948-12-15 : RUN DATE
RUN .                         1 : RUN NUMBER
TDD .F                          : TOTAL DEPTH DRILLER
TDL .F                          : TOTAL DEPTH LOGGER
BOTL.F                     1005 : BOTTOM LOGGED INTERVAL
TOPL.F                     1004 : TOP LOGGED INTERVAL
CSGS.IN                         : CASING SIZE
CSGD.F                          : CASING DRILLER
CSGL.F                          : CASING LOGGER
BS  .IN                       9 : BIT SIZE
MUD .                   AQUAGEL : MUD TYPE
MUDD.                      10.2 : MUD DENSITY
MUDV.                        40 : MUD VISCOSITY
PH  .                           : MUD PH
FL  .                           : FLUID LOSS
MUDS.                           : SOURCE OF SAMPLE
RM  .OHMM                    .8 : MUD RESISTIVITY
RMT .DEGF                    65 : RM TEMPERATURE
RMF .OHMM                       : MUD FILTRATE RESISTIVITY
RMFT.DEGF                       : RMF TEMPERATURE
RMC .OHMM                       : MUD CAKE RESISTIVITY
RMCT.DEGF                       : RMC TEMPERATURE
RMFS.                           : RMF SOURCE
RMCS.                           : RMC SOURCE
RMBH.OHMM                       : MUD RESISTIVITY AT BHT
BHT .DEGF                       : BOTTOM HOLE TEMPERATURE
TIMC.                           : TIME CIRCULATION STOPPED
TIML.                           : TIME LOGGER ON BOTTOM
TMAX.DEGF                       : MAXIMUM RECORDED TEMPERATURE
UNIT.                       201 : EQUIPMENT NUMBER
BASE.                           : BASE LOCATION
ENG .                    LITTLE : RECORDED BY
WIT .                 MR. WATTS : WITNESSED BY
~Curve Information -----------------------------------------
DEPT.F          :DEPTH
ILD.OHMM        :
LAT.OHMM        :
SN.OHMM         :
SP.MV           :
~ASCII ------------------------------------------------------
# ...
213.50000       14.27764        8.18093       18.17441      -48.47528
214.00000       13.07814        8.30970       17.77117      -48.17944
214.50000       11.76030        8.43758       17.21667      -47.88003
215.00000       10.78321        8.77218       15.80987      -47.58419
215.50000        9.84527        9.20124       14.13172      -47.04954
216.00000        8.94736        9.80138       12.38506      -46.15845
216.50000        8.05924       10.40063       10.63930      -45.26736
217.00000        7.25030       11.00077        9.30634      -44.19805
217.50000        6.65875       11.23647        8.42711      -43.30696
218.00000        6.26498       11.38217        7.85038      -42.78657
218.50000        5.77187       11.50024        7.43378      -42.82221
219.00000        5.47627       11.61921        7.12395      -42.85786
219.50000        5.31057       11.39806        7.04543      -42.89350
220.00000        5.52119       11.15347        7.20979      -42.92914
220.50000        5.73271       10.90977        7.50850      -42.96479
221.00000        5.94334       10.66518        7.87304      -43.00043
221.50000        6.24204       10.44376        8.28206      -43.03607
222.00000        6.59946       10.31679        8.73290      -43.07172
222.50000        6.95688       10.18982        9.46874      -43.10736
223.00000        7.41248       10.06374       10.08150      -43.22498
223.50000        7.76368       10.09984       10.69515      -43.46736
224.00000        7.95562       10.24553       11.30791      -43.70617
224.50000        8.14756       10.39034       11.74185      -43.94855
225.00000        8.42847       10.62515       12.05656      -44.18736
225.50000        8.84017       10.91876       12.37128      -44.42974
226.00000        9.25275       11.24802       12.68600      -44.66855
226.50000        9.66444       11.71450       13.00072      -44.91092
227.00000       10.07702       12.18187       13.27629      -44.81825
227.50000       10.48694       12.64925       13.39973      -44.72914
228.00000       10.88884       12.71564       13.52228      -44.63647
228.50000       11.45178       12.11819       13.77116      -44.54380
229.00000       12.66151       11.02290       14.22231      -44.45469
229.50000       15.76389        9.85071       14.85464      -44.36201
230.00000       19.12129        8.67762       15.48608      -44.27290
230.50000       22.48225        7.62038       16.07126      -44.28360
231.00000       24.54162        7.37936       16.65733      -44.70063
231.50000       25.89993        7.37625       17.24251      -45.12122
232.00000       24.47800        7.62263       16.08571      -45.53825
232.50000       18.34080        8.36980       14.15933      -45.45627
233.00000       15.49540        9.30766       12.68759      -45.24241
233.50000       13.74696       10.02453       11.89911      -44.98934
234.00000       12.32504       10.47943       11.07949      -44.77904
234.50000       10.98852       10.40058       10.24119      -44.56875
235.00000        9.94115       10.01876        9.54079      -44.35845
235.50000        9.27544        9.63695        8.87509      -44.14815
236.00000        8.60974        9.25514        8.20939      -43.93429
236.50000        7.94404        8.85996        7.54368      -43.72399
237.00000        7.64933        8.32158        7.14488      -43.51370
237.50000        7.60106        7.87294        7.14644      -43.30340
238.00000        7.48607        7.53122        7.14799      -43.08954
238.50000        7.35417        7.34990        6.97161      -42.87924
239.00000        7.37351        7.23986        6.75074      -42.66894
239.50000        7.44210        7.23675        6.52988      -42.45865
240.00000        7.49970        7.27730        6.36626      -42.38380
240.50000        7.23524        7.49161        6.27262      -42.34459
241.00000        6.89071        7.70592        6.17898      -42.30894
241.50000        6.47946        7.92023        6.08177      -42.26974
242.00000        6.06731        8.13543        6.03528      -42.23053
242.50000        5.68897        8.34974        6.19431      -42.19132
243.00000        5.44409        8.56405        6.35245      -42.15211
243.50000        5.19831        8.77836        6.51147      -42.11290
244.00000        4.95253        8.99267        6.85555      -42.07370
244.50000        4.90871        9.03055        7.24589      -42.14498
245.00000        5.25101        8.94992        7.63712      -42.29112
245.50000        5.74811        8.86928        8.02746      -42.43370
246.00000        6.19450        8.78865        8.41869      -42.57984
246.50000        6.72007        8.70802        8.67469      -42.72241
247.00000        7.36397        8.78894        8.92980      -42.86855
247.50000        8.51262        8.85622        9.29999      -43.01469
248.00000        9.48837        8.92350        9.71168      -43.14657
248.50000        9.91252        8.90703       10.12426      -43.23211
249.00000       10.33667        8.76758       10.39183      -43.32122
249.50000       10.76081        8.62725       10.62469      -43.40677
250.00000       10.94196        8.87574       10.64821      -43.49231
250.50000       11.18482        8.97515       10.87946      -43.24281
251.00000       11.42857        9.14201       11.11071      -43.52795
251.50000       11.98214        9.30799       11.19910      -43.73825
252.00000       12.67857        9.47485       11.07143      -43.94498
252.50000       11.88660        9.64083       11.31696      -44.15528
253.00000       11.24464        9.76331       11.56250      -44.57231
253.50000       10.60268        9.91154       11.80803      -45.04281
254.00000        9.97053       10.20710       12.05357      -45.50974
254.50000        9.37500       10.65088       12.05357      -45.98023
255.00000        9.21875       11.09467       12.05357      -45.57746
255.50000        9.06250       11.00591       11.69107      -45.09627
256.00000        8.90625       10.77248       11.32857      -44.69706
256.50000        8.75000       10.53905       10.96518      -44.29429
257.00000        8.93571       10.30562       10.70268      -43.89508
257.50000        9.15893       10.13432       10.41696      -43.49231
258.00000        8.97321       10.21509       10.17857      -43.09310
258.50000        8.64821       10.29586       10.09464      -42.85429
259.00000        8.13750       10.37662       10.01071      -43.25706
259.50000        7.93036       10.45739        9.92768      -43.66340
260.00000        7.79911       10.43432       10.15803      -44.06974
260.50000        7.66786       10.38461       10.46696      -44.55449
261.00000        7.67857       10.33491       10.80357      -44.55449
261.50000        7.95268       10.27988       11.25000      -44.55449
262.00000        8.43125       10.20177       11.69643      -44.55449
262.50000        8.90982       10.12367       12.07589      -45.14261
263.00000        9.25625       10.02958       12.18750      -45.87686
263.50000        9.34732        9.83520       12.29910      -46.60756
264.00000        9.20982        9.64171       12.06607      -46.78934
264.50000        9.04553        9.44733       11.46518      -46.14063
265.00000        9.08571        9.47485       10.78214      -45.49548
265.50000        9.17053        9.55828       10.10000      -44.71488
266.00000        9.25625        9.64171        9.48839      -44.06974
266.50000        9.34107        9.51923        9.16428      -43.42102
267.00000        9.56607        9.26006        8.83928      -42.77231
267.50000        9.88482        9.00266        8.78928      -42.98974
268.00000       10.20446        8.74881        8.77500      -43.20360
268.50000       10.58571        8.49497        8.89911      -43.42102
269.00000       10.98214        8.24201        9.02321      -43.63488
269.50000       11.23750        7.98816        9.14643      -43.85231
270.00000       11.49196        8.06893        9.12946      -44.06974
270.50000       11.67053        8.14970        9.01786      -43.96637
