~Version ---------------------------------------------------
VERS. 2.0 : CWLS LOG ASCII STANDARD - VERSION 2.0
WRAP. NO  : One line per depth step
DLM . SPACE : Column Data Section Delimiter
~Well ------------------------------------------------------
STRT.F          866 : START DEPTH
STOP.F       1785.0 : STOP DEPTH
STEP.F          0.5 : STEP
NULL.       -999.25 : NULL VALUE
COMP.                 WALSH & WATTS, INC, : COMPANY
WELL.                         SALMON E 41 : WELL
FLD .                        NORTH NOCONA : FIELD
CNTY.                            MONTAGUE : COUNTY
STAT.                               TEXAS : STATE
CTRY.                                 USA : COUNTRY
SEC .                                     : SECTION
TWP .                                     : TOWNSHIP
RGE .                                     : RANGE
LOC . 300' N OF NO. 40
150' W OF EL & 385' E OF NO. 87
F. ROBERTSON SURVEY : LOCATION
EKB .F                          : ELEVATION KELLY BUSHING
EDF .F                          : ELEVATION DERRICK FLOOR
EGL .F                      878 : ELEVATION GROUND LEVEL
PDAT.              GROUND LEVEL : PERMANENT DATUM
EPD .                       878 : ELEVATION PERMANENT DATUM
APD .                           : ABOVE PERMANENT DATUM
LMF .                        KB : LOG MEASURED FROM
DMF .                        KB : DRILLING MEASURED FROM
API .            42337037790000 : API NUMBER
UWI .            42337037790000 : UWI NUMBER
DIGC.                     NthDS : DIGITIZING COMPANY
~Params ----------------------------------------------------
SRVC.                LANE WELLS : LOGGING COMPANY
LOG .                        AC : LOG
DATE.                1965-12-01 : RUN DATE
RUN .                         1 : RUN NUMBER
TDD .F                     1790 : TOTAL DEPTH DRILLER
TDL .F                     1791 : TOTAL DEPTH LOGGER
BOTL.F                     1784 : BOTTOM LOGGED INTERVAL
TOPL.F                      880 : TOP LOGGED INTERVAL
CSGS.IN                         : CASING SIZE
CSGD.F                          : CASING DRILLER
CSGL.F                          : CASING LOGGER
BS  .IN                       9 : BIT SIZE
MUD .                       GEL : MUD TYPE
MUDD.                        10 : MUD DENSITY
MUDV.                        80 : MUD VISCOSITY
PH  .                       9.0 : MUD PH
FL  .                       6.8 : FLUID LOSS
MUDS.                       PIT : SOURCE OF SAMPLE
RM  .OHMM                  1.95 : MUD RESISTIVITY
RMT .DEGF                    74 : RM TEMPERATURE
RMF .OHMM                   1.5 : MUD FILTRATE RESISTIVITY
RMFT.DEGF                    74 : RMF TEMPERATURE
RMC .OHMM                   2.3 : MUD CAKE RESISTIVITY
RMCT.DEGF                    74 : RMC TEMPERATURE
RMFS.                  MEASURED : RMF SOURCE
RMCS.                           : RMC SOURCE
RMBH.OHMM                   1.5 : MUD RESISTIVITY AT BHT
BHT .DEGF                    97 : BOTTOM HOLE TEMPERATURE
TIMC.                           : TIME CIRCULATION STOPPED
TIML.                           : TIME LOGGER ON BOTTOM
TMAX.DEGF                    97 : MAXIMUM RECORDED TEMPERATURE
UNIT.                    L-5172 : EQUIPMENT NUMBER
BASE.                      W.F. : BASE LOCATION
ENG .             ADAMS & BAKER : RECORDED BY
WIT .                   MR. NIX : WITNESSED BY
~Curve Information -----------------------------------------
DEPT.F          :DEPTH
CALS.IN         :
DT.US/F         :
SP.MV           :
~ASCII ------------------------------------------------------
# ...
1369.50000        9.29760       93.95045      -41.40003
1370.00000        9.33880       93.20509      -42.60003
1370.50000        9.35800       91.07429      -43.80003
1371.00000        9.24840       88.22336      -48.00003
1371.50000        9.13880       88.57860      -49.50002
1372.00000        9.02900       91.07028      -52.69202
1372.50000        8.91940       92.76515      -56.50802
1373.00000        8.80960       92.28274      -59.94002
1373.50000        8.70000       94.76080      -62.79002
1374.00000        8.70720       95.42679      -63.56702
1374.50000        8.71420       94.56490      -61.23302
1375.00000        8.74340       95.39623      -59.70002
1375.50000        8.90000       96.75943      -54.30002
1376.00000        9.10000       97.60071      -51.60002
1376.50000        9.22000       95.82349      -44.10003
1377.00000        9.22000       94.77236      -41.70003
1377.50000        9.20640       96.66676      -41.10003
1378.00000        9.18940       94.75109      -41.10003
1378.50000        9.17240       92.69797      -41.40003
1379.00000        9.15540       93.32811      -41.70003
1379.50000        9.13820       92.04889      -42.30003
1380.00000        9.12120       92.16409      -42.30003
1380.50000        9.10080       94.01633      -43.50003
1381.00000        9.08380       94.06877      -44.70003
1381.50000        9.06680       92.64613      -45.90003
1382.00000        9.02440       92.49871      -46.80003
1382.50000        8.96520       91.77626      -46.80003
1383.00000        8.90600       94.13149      -47.10003
1383.50000        8.84660       96.48771      -47.40003
1384.00000        8.78740       93.53420      -48.00003
1384.50000        8.73840       91.14542      -48.00003
1385.00000        8.73000       92.07237      -47.40003
1385.50000        8.72000       94.18390      -46.80003
1386.00000        8.91000       93.27619      -45.90003
1386.50000        9.10000       95.10353      -45.30003
1387.00000        9.13340       96.55936      -45.00003
1387.50000        9.16660       96.27715      -44.40003
1388.00000        9.20000       94.22502      -44.40003
1388.50000        9.23340       95.22468      -43.50003
1389.00000        9.20400       96.98927      -43.20003
1389.50000        9.15900       96.36874      -42.90003
1390.00000        9.11400       92.82460      -42.90003
1390.50000        9.06000       93.82226      -43.20003
1391.00000        9.11000       91.30102      -43.20003
1391.50000        9.16000       92.84350      -43.80003
1392.00000        9.09000       96.90389      -44.70003
1392.50000        9.02000       97.84578      -45.30003
1393.00000        9.03000       99.24881      -46.50003
1393.50000        9.04000       99.25577      -47.10003
1394.00000        9.02880       97.17576      -46.80003
1394.50000        9.01780       96.35073      -46.50003
1395.00000        9.00660       97.41114      -46.20003
1395.50000        9.03600       96.07415      -45.60003
1396.00000        9.09600       94.13956      -45.30003
1396.50000        9.07420       97.52765      -45.30003
1397.00000        8.99760      100.76633      -45.30003
1397.50000        8.92120      100.81811      -45.60003
1398.00000        8.86760       98.21918      -44.70003
1398.50000        8.90500       95.82443      -42.90003
1399.00000        9.02280       94.24940      -42.00003
1399.50000        9.16180       96.54187      -41.10003
1400.00000        9.17040       98.56564      -40.20003
1400.50000        9.22789      100.06131      -39.74106
1401.00000        9.23665       98.13369      -40.03987
1401.50000        9.24522       97.44211      -40.33867
1402.00000        9.20319       98.60511      -40.63748
1402.50000        9.14841       97.99621      -40.93628
1403.00000        9.09362       97.05663      -40.93628
1403.50000        9.03884       98.20602      -41.53389
1404.00000        9.01295       99.43077      -43.62552
1404.50000        8.99422      100.00812      -43.62552
1405.00000        8.97570       99.53567      -43.92433
1405.50000        9.02789       98.88294      -43.32672
1406.00000        9.14084       99.88060      -42.72911
1406.50000        9.22928      100.87826      -41.53389
1407.00000        9.26155       99.52932      -41.23509
1407.50000        9.27968       97.76107      -40.93628
1408.00000        9.27729       96.65017      -41.53389
1408.50000        9.26135       96.52732      -41.83270
1409.00000        9.24542       94.71126      -41.83270
1409.50000        9.22948       94.05355      -41.83270
1410.00000        9.21355       95.24344      -42.43031
1410.50000        9.19761       96.43234      -42.43031
1411.00000        9.18167       96.90908      -42.72911
1411.50000        9.16255       96.91074      -43.02791
1412.00000        9.14661       95.78391      -43.92433
1412.50000        9.13068       97.85361      -44.52194
1413.00000        9.12749       99.03453      -45.11955
1413.50000        9.12749       98.35691      -45.11955
1414.00000        9.12749       97.89741      -44.82074
1414.50000        9.11036       98.30643      -43.92433
1415.00000        9.08187       98.71544      -43.62552
1415.50000        9.05358       98.46809      -43.32672
1416.00000        9.02510       98.07732      -42.72911
1416.50000        9.00956       97.46941      -42.13150
1417.00000        9.01414       96.86250      -42.13150
1417.50000        9.01793       96.25559      -42.13150
1418.00000        9.02171       96.02915      -42.13150
1418.50000        9.02550       95.89834      -42.72911
1419.00000        9.05518       95.76752      -43.02791
1419.50000        9.12370       96.80104      -42.72911
1420.00000        9.19223       97.23794      -42.13150
1420.50000        9.24343       96.64232      -41.83270
1421.00000        9.22530       96.21270      -40.93628
1421.50000        9.20717       94.92750      -40.93628
1422.00000        9.16355       93.06164      -40.93628
1422.50000        9.11135       91.86808      -40.93628
1423.00000        9.06773       93.36374      -40.93628
1423.50000        9.07430       94.85941      -40.93628
1424.00000        9.08107       95.55827      -40.93628
1424.50000        9.08765       96.05792      -41.23509
1425.00000        9.06115       95.80061      -41.23509
1425.50000        9.03446       94.13594      -41.23509
1426.00000        9.00797       92.41051      -41.83270
1426.50000        9.01514       92.87730      -42.13150
1427.00000        9.02211       93.87496      -42.43031
1427.50000        9.02311       94.73318      -42.72911
1428.00000        8.99502       94.02368      -43.02791
1428.50000        8.97171       95.25142      -43.02791
1429.00000        8.94821       96.72451      -43.32672
1429.50000        8.97809       96.21023      -43.32672
1430.00000        9.00797       95.26168      -42.72911
1430.50000        9.06932       95.42569      -42.13150
1431.00000        9.13048       96.33371      -41.53389
1431.50000        9.17370       96.64811      -41.53389
1432.00000        9.18964       96.07506      -41.53389
1432.50000        9.20558       95.50201      -41.53389
1433.00000        9.22151       95.75765      -41.23509
1433.50000        9.24064       96.60591      -40.63748
1434.00000        9.24223       97.14142      -40.03987
1434.50000        9.23426       96.42694      -39.74106
1435.00000        9.22629       95.71346      -39.44226
1435.50000        9.21833       94.99898      -38.84465
1436.00000        9.21036       95.37413      -38.54584
1436.50000        9.21653       95.30108      -39.14345
1437.00000        9.23227       94.55573      -39.14345
1437.50000        9.24801       91.34325      -39.74106
1438.00000        9.26374       87.51425      -40.03987
1438.50000        9.22450       85.24798      -40.63748
1439.00000        9.16076       89.23368      -41.53389
1439.50000        9.10757       91.66991      -42.72911
1440.00000        9.09641       92.72335      -43.32672
1440.50000        9.09402       94.71702      -43.92433
