~Version ---------------------------------------------------
VERS. 2.0 : CWLS LOG ASCII STANDARD - VERSION 2.0
WRAP. NO  : One line per depth step
DLM . SPACE : Column Data Section Delimiter
~Well ------------------------------------------------------
STRT.F          572 : START DEPTH
STOP.F       1770.0 : STOP DEPTH
STEP.F          0.5 : STEP
NULL.       -999.25 : NULL VALUE
COMP.         WALSH & WATTS, INCORPORATED : COMPANY
WELL.                         SALMON E 44 : WELL
FLD .                             REGULAR : FIELD
CNTY.                            MONTAGUE : COUNTY
STAT.                               TEXAS : STATE
CTRY.                                 USA : COUNTRY
SEC .                                     : SECTION
TWP .                                     : TOWNSHIP
RGE .                                     : RANGE
LOC . 300' WEST OF NO 23, 300' SOUTH OF D-9, F.ROBERTSON SURV. : LOCATION
EKB .F                      862 : ELEVATION KELLY BUSHING
EDF .F                          : ELEVATION DERRICK FLOOR
EGL .F                      856 : ELEVATION GROUND LEVEL
PDAT.                        GL : PERMANENT DATUM
EPD .                       856 : ELEVATION PERMANENT DATUM
APD .                         6 : ABOVE PERMANENT DATUM
LMF .                        KB : LOG MEASURED FROM
DMF .                        KB : DRILLING MEASURED FROM
API .            42337038720000 : API NUMBER
UWI .                           : UWI NUMBER
DIGC.                     NthDS : DIGITIZING COMPANY
~Params ----------------------------------------------------
SRVC.              SCHLUMBERGER : LOGGING COMPANY
LOG .                     SONIC : LOG
DATE.                1965-11-28 : RUN DATE
RUN .                         1 : RUN NUMBER
TDD .F                     1179 : TOTAL DEPTH DRILLER
TDL .F                     1179 : TOTAL DEPTH LOGGER
BOTL.F                     1170 : BOTTOM LOGGED INTERVAL
TOPL.F                      600 : TOP LOGGED INTERVAL
CSGS.IN                         : CASING SIZE
CSGD.F                          : CASING DRILLER
CSGL.F                          : CASING LOGGER
BS  .IN                   7.875 : BIT SIZE
MUD .                       GEL : MUD TYPE
MUDD.                        10 : MUD DENSITY
MUDV.                        98 : MUD VISCOSITY
PH  .                           : MUD PH
FL  .                           : FLUID LOSS
MUDS.                CIRCULATED : SOURCE OF SAMPLE
RM  .OHMM                   2.0 : MUD RESISTIVITY
RMT .DEGF                    81 : RM TEMPERATURE
RMF .OHMM                   1.5 : MUD FILTRATE RESISTIVITY
RMFT.DEGF                    81 : RMF TEMPERATURE
RMC .OHMM                       : MUD CAKE RESISTIVITY
RMCT.DEGF                       : RMC TEMPERATURE
RMFS.                         M : RMF SOURCE
RMCS.                           : RMC SOURCE
RMBH.OHMM                   1.6 : MUD RESISTIVITY AT BHT
BHT .DEGF                   100 : BOTTOM HOLE TEMPERATURE
TIMC.                           : TIME CIRCULATION STOPPED
TIML.                           : TIME LOGGER ON BOTTOM
TMAX.DEGF                   100 : MAXIMUM RECORDED TEMPERATURE
UNIT.                      4559 : EQUIPMENT NUMBER
BASE.                       WFS : BASE LOCATION
ENG .                      FINK : RECORDED BY
WIT .                       NIX : WITNESSED BY
~Curve Information -----------------------------------------
DEPT.F          :DEPTH
CALS.IN         :
DT.US/F         :
SP.MV           :
~ASCII ------------------------------------------------------
# ...
1296.00000        7.83195       93.38174      -77.12278
1296.50000        7.78601       91.97678      -78.28033
1297.00000        7.74006       93.73562      -77.55252
1297.50000        7.84926       96.28565      -72.65674
1298.00000        8.04659       95.48508      -64.75505
1298.50000        8.16487       93.37084      -65.64877
1299.00000        8.06577       92.57826      -72.84275
1299.50000        8.00342       91.72475      -74.84813
1300.00000        7.96214       89.89985      -74.40274
1300.50000        7.95468       92.47727      -71.41914
1301.00000        7.80956       95.91297      -67.83793
1301.50000        7.57281       95.87567      -69.51566
1302.00000        7.78162       95.57190      -69.54101
1302.50000        7.93073       96.52659      -67.55243
1303.00000        7.92465       96.55216      -66.72021
1303.50000        7.89428       96.15558      -67.52245
1304.00000        7.92446       95.74203      -68.46214
1304.50000        7.99648       95.66181      -66.30921
1305.00000        8.06869       95.91392      -64.54473
1305.50000        8.08254       96.21645      -64.33402
1306.00000        8.09658       96.46856      -63.44204
1306.50000        8.11023       96.34642      -63.56688
1307.00000        8.12229       95.66342      -64.83525
1307.50000        8.11701       94.97941      -66.10363
1308.00000        8.06253       94.78243      -66.43973
1308.50000        7.95148       97.13032      -66.57265
1309.00000        7.92688      100.30155      -65.88685
1309.50000        7.96637       99.96285      -65.20104
1310.00000        7.99934       98.05631      -63.69951
1310.50000        7.96578       97.17370      -61.64817
1311.00000        7.88082       97.23220      -66.13466
1311.50000        7.77256       97.64499      -69.12712
1312.00000        7.69099       99.47692      -69.72916
1312.50000        7.71559      100.71704      -68.47862
1313.00000        7.71868      101.80846      -66.39143
1313.50000        7.70723      102.04660      -62.93063
1314.00000        7.86411       99.73687      -62.27770
1314.50000        8.06302       94.66669      -63.23830
1315.00000        8.14240       93.17232      -64.43795
1315.50000        8.14210       93.13202      -64.58282
1316.00000        8.12528       94.35019      -64.08825
1316.50000        8.07173       97.53140      -63.59368
1317.00000        8.10251       99.91921      -65.29233
1317.50000        7.95580       95.35601      -70.77383
1318.00000        7.80890       86.40166      -77.25333
1318.50000        7.66219       85.30649      -79.64819
1319.00000        7.82125       90.72719      -77.85980
1319.50000        7.99526       94.99222      -71.75968
1320.00000        8.09955       98.66796      -63.22730
1320.50000        8.09925       99.32924      -59.64609
1321.00000        8.06150       98.39375      -61.29483
1321.50000        7.96738       95.60146      -63.91379
1322.00000        7.87346       93.65800      -66.53276
1322.50000        7.77934       93.47798      -68.23140
1323.00000        7.90853       95.58088      -67.58743
1323.50000        8.03772       99.00560      -65.35084
1324.00000        8.08338       99.70681      -61.07342
1324.50000        8.12133       97.08171      -58.48723
1325.00000        8.09155       95.20112      -61.24962
1325.50000        8.01655       95.32349      -64.01200
1326.00000        7.97204       98.10650      -64.57520
1326.50000        8.04923      100.83762      -61.79180
1327.00000        8.05053       99.99693      -60.00341
1327.50000        7.93808       96.45169      -61.63333
1328.00000        7.96866       96.18485      -62.43646
1328.50000        8.03470       98.60359      -62.82635
1329.00000        8.04437       99.76886      -63.42839
1329.50000        8.05403       98.45613      -64.42783
1330.00000        7.90433       97.14339      -67.01094
1330.50000        7.84089       97.44540      -69.59703
1331.00000        7.79074       99.56874      -67.21104
1331.50000        7.80379      101.14918      -65.18660
1332.00000        7.83995      101.91525      -63.16514
1332.50000        7.87571      102.68033      -61.15863
1333.00000        7.98935      103.11459      -59.22084
1333.50000        8.03169      101.39615      -57.37269
1334.00000        8.05629       98.76107      -56.24167
1334.50000        8.05958       96.84256      -56.54491
1335.00000        8.03080       97.34217      -57.36209
1335.50000        7.82174       99.95804      -60.80364
1336.00000        7.77384       98.82195      -63.67061
1336.50000        7.72593       95.92987      -66.45093
1337.00000        7.67803       97.47936      -67.78803
1337.50000        7.62050      102.57225      -66.22374
1338.00000        7.61782      101.35232      -66.97518
1338.50000        7.62668       98.53561      -67.72662
1339.00000        7.64193       96.49235      -68.47807
1339.50000        7.66155       98.96099      -67.41577
1340.00000        7.64353      102.88471      -67.35148
1340.50000        7.61176      101.27956      -67.95352
1341.00000        7.62481       98.73131      -68.08345
1341.50000        7.63786       97.45350      -67.90262
1342.00000        7.65808       96.95712      -67.68384
1342.50000        7.70759       94.96375      -67.16537
1343.00000        7.75709       93.47936      -65.82518
1343.50000        7.80660       93.92109      -64.63440
1344.00000        7.85610       93.97360      -66.93066
1344.50000        7.79266       91.57106      -70.61934
1345.00000        7.68274       89.18847      -77.13768
1345.50000        7.66591       87.07383      -77.79948
1346.00000        7.66562       77.46679      -76.30990
1346.50000        7.67190       72.30480      -74.22271
1347.00000        7.71602       78.15065      -69.69429
1347.50000        7.75995       94.76533      -64.96867
1348.00000        7.80388       98.36071      -65.40039
1348.50000        7.79023       95.93122      -63.93172
1349.00000        7.77679       95.84601      -62.74094
1349.50000        7.76315       96.74681      -64.09088
1350.00000        7.80197       98.03347      -64.25683
1350.50000        7.78188       99.18377      -63.27214
1351.00000        7.73208       97.98932      -65.75079
1351.50000        7.67232       97.81429      -67.47499
1352.00000        7.62906       98.87078      -66.18138
1352.50000        7.59589       98.39635      -66.33430
1353.00000        7.58926       97.06864      -66.07732
1353.50000        7.60065       96.33075      -64.78372
1354.00000        7.61204       95.95911      -70.72869
1354.50000        7.61293       96.51062      -70.73398
1355.00000        7.57185       97.67789      -69.55027
1355.50000        7.53076       97.91355      -68.36656
1356.00000        7.48968       96.38625      -69.03037
1356.50000        7.53612       97.27009      -69.44765
1357.00000        7.61794       98.49524      -68.87582
1357.50000        7.66636       98.68447      -68.30102
1358.00000        7.68488       98.87471      -67.72919
1358.50000        7.70359       98.82742      -68.90092
1359.00000        7.72211       97.83204      -70.03107
1359.50000        7.76914       98.53325      -66.57806
1360.00000        7.92964       99.69405      -64.54485
1360.50000        8.03826       97.12185      -64.55014
1361.00000        8.11222       95.21531      -65.14861
1361.50000        8.03490       95.38359      -67.52924
1362.00000        7.98708       95.09379      -69.90987
1362.50000        8.05768       92.76111      -68.42914
1363.00000        8.05495       90.39349      -69.15532
1363.50000        8.06258       93.94396      -68.58646
1364.00000        8.05278       97.95849      -64.22455
1364.50000        8.00753       98.54046      -62.20917
1365.00000        7.95140       96.99619      -65.33237
1365.50000        7.85209       96.95988      -68.45558
1366.00000        7.75279       99.18502      -64.04702
1366.50000        7.69923      100.90817      -62.78015
1367.00000        7.67597      100.61937      -63.12317
