~Version ---------------------------------------------------
VERS. 2.0 : CWLS LOG ASCII STANDARD - VERSION 2.0
WRAP. NO  : One line per depth step
DLM . SPACE : Column Data Section Delimiter
~Well ------------------------------------------------------
STRT.F          642 : START DEPTH
STOP.F       1779.0 : STOP DEPTH
STEP.F          0.5 : STEP
NULL.       -999.25 : NULL VALUE
COMP.                       WALSH & WATTS : COMPANY
WELL.                        SALMON E 24  : WELL
FLD .                               NORTH : FIELD
CNTY.                            MONTAGUE : COUNTY
STAT.                               TEXAS : STATE
CTRY.                                 USA : COUNTRY
SEC .                                     : SECTION
TWP .                                     : TOWNSHIP
RGE .                                     : RANGE
LOC .                 SW CORNER OF LEAGUE : LOCATION
EKB .F                          : ELEVATION KELLY BUSHING
EDF .F                          : ELEVATION DERRICK FLOOR
EGL .F                      850 : ELEVATION GROUND LEVEL
PDAT.                        GL : PERMANENT DATUM
EPD .                       850 : ELEVATION PERMANENT DATUM
APD .                         5 : ABOVE PERMANENT DATUM
LMF .                        RT : LOG MEASURED FROM
DMF .                        RT : DRILLING MEASURED FROM
API .            42337038630000 : API NUMBER
UWI .                           : UWI NUMBER
DIGC.                     NthDS : DIGITIZING COMPANY
~Params ----------------------------------------------------
SRVC.              SCHLUMBERGER : LOGGING COMPANY
LOG .                       GRN : LOG
DATE.                1964-03-24 : RUN DATE
RUN .                         1 : RUN NUMBER
TDD .F                     1783 : TOTAL DEPTH DRILLER
TDL .F                     1782 : TOTAL DEPTH LOGGER
BOTL.F                     1780 : BOTTOM LOGGED INTERVAL
TOPL.F                      650 : TOP LOGGED INTERVAL
CSGS.IN                     4.5 : CASING SIZE
CSGD.F                     1802 : CASING DRILLER
CSGL.F                          : CASING LOGGER
BS  .IN                       9 : BIT SIZE
MUD .                     WATER : MUD TYPE
MUDD.                           : MUD DENSITY
MUDV.                           : MUD VISCOSITY
PH  .                           : MUD PH
FL  .                           : FLUID LOSS
MUDS.                           : SOURCE OF SAMPLE
RM  .OHMM                       : MUD RESISTIVITY
RMT .DEGF                       : RM TEMPERATURE
RMF .OHMM                       : MUD FILTRATE RESISTIVITY
RMFT.DEGF                       : RMF TEMPERATURE
RMC .OHMM                       : MUD CAKE RESISTIVITY
RMCT.DEGF                       : RMC TEMPERATURE
RMFS.                           : RMF SOURCE
RMCS.                           : RMC SOURCE
RMBH.OHMM                       : MUD RESISTIVITY AT BHT
BHT .DEGF                       : BOTTOM HOLE TEMPERATURE
TIMC.                           : TIME CIRCULATION STOPPED
TIML.                           : TIME LOGGER ON BOTTOM
TMAX.DEGF                   107 : MAXIMUM RECORDED TEMPERATURE
UNIT.                           : EQUIPMENT NUMBER
BASE.                           : BASE LOCATION
ENG .                    MCCUNE : RECORDED BY
WIT .                       NIX : WITNESSED BY
~Curve Information -----------------------------------------
DEPT.F          :DEPTH
GRN.GAPI        :
NEUT.API        :
~ASCII ------------------------------------------------------
# ...
1531.00000       86.22042      610.46149
1531.50000       87.82363      606.46349
1532.00000       89.74748      595.80215
1532.50000       91.35068      586.47348
1533.00000       90.31982      574.47947
1533.50000       87.02203      570.48147
1534.00000       81.57113      575.81214
1534.50000       77.08215      583.80814
1535.00000       73.39478      586.47348
1535.50000       72.11221      583.80814
1536.00000       73.87574      583.80814
1536.50000       77.08215      583.80814
1537.00000       80.92984      578.47748
1537.50000       84.45690      565.15080
1538.00000       86.94187      543.82813
1538.50000       86.78155      521.17279
1539.00000       85.09818      507.84612
1539.50000       82.53305      497.18478
1540.00000       79.00600      493.18678
1540.50000       75.95991      499.85011
1541.00000       75.31862      509.17878
1541.50000       76.44087      519.84012
1542.00000       77.85650      525.17079
1542.50000       76.92183      535.49896
1543.00000       74.83766      544.26791
1543.50000       72.59317      540.89626
1544.00000       71.63125      547.82613
1544.50000       72.91381      551.82413
1545.00000       74.99798      551.82413
1545.50000       76.44087      546.49346
1546.00000       76.44087      537.16479
1546.50000       75.63926      527.83612
1547.00000       75.31862      519.84012
1547.50000       74.19638      514.50945
1548.00000       73.55510      510.51145
1548.50000       74.19638      503.84811
1549.00000       74.35670      495.85211
1549.50000       74.51702      499.85011
1550.00000       75.47894      506.51345
1550.50000       76.84167      509.17878
1551.00000       77.27453      506.51345
1551.50000       74.99798      505.18078
1552.00000       72.43285      501.18278
1552.50000       70.34868      506.51345
1553.00000       70.18836      513.17678
1553.50000       71.47093      513.17678
1554.00000       73.39478      519.84012
1554.50000       75.15830      526.50346
1555.00000       74.83766      538.49746
1555.50000       74.83766      557.15480
1556.00000       77.24247      579.81014
1556.50000       80.44888      598.24093
1557.00000       82.69337      594.20295
1557.50000       82.85369      585.54061
1558.00000       80.60920      574.47947
1558.50000       76.92183      561.15280
1559.00000       73.23445      553.15680
1559.50000       71.63125      555.82213
1560.00000       73.71542      551.82413
1560.50000       75.79958      554.48947
1561.00000       77.88375      558.48747
1561.50000       78.84568      554.48947
1562.00000       78.04407      547.82613
1562.50000       77.72343      534.49946
1563.00000       76.76151      533.16679
1563.50000       74.83766      527.83612
1564.00000       71.31061      514.50945
1564.50000       69.06612      505.18078
1565.00000       69.22644      501.18278
1565.50000       72.27253      501.18278
1566.00000       75.31862      502.51545
1566.50000       76.76151      498.51745
1567.00000       77.40279      498.51745
1567.50000       76.76151      510.51145
1568.00000       75.31862      523.83812
1568.50000       73.87574      535.83213
1569.00000       75.15830      535.83213
1569.50000       77.08215      527.83612
1570.00000       77.24247      521.17279
1570.50000       76.28055      517.17479
1571.00000       74.51702      507.84612
1571.50000       75.47894      499.85011
1572.00000       76.92183      494.51944
1572.50000       78.86652      487.85611
1573.00000       79.96792      478.52744
1573.50000       77.40279      477.19477
1574.00000       73.39478      473.19677
1574.50000       70.18836      470.53144
1575.00000       67.94387      465.20077
1575.50000       67.46291      462.53543
1576.00000       68.10420      470.53144
1576.50000       68.10420      478.52744
1577.00000       69.06612      491.85411
1577.50000       71.95189      507.84612
1578.00000       74.99798      529.16879
1578.50000       78.04407      558.48747
1579.00000       78.36471      587.80615
1579.50000       75.31862      611.79416
1580.00000       71.15029      646.44350
1580.50000       64.73746      683.75818
1581.00000       55.27855      719.74020
1581.50000       46.30059      747.72621
1582.00000       41.17033      757.05488
1582.50000       40.52905      762.38555
1583.00000       43.41482      763.71821
1583.50000       46.14027      759.72021
1584.00000       47.90380      750.39154
1584.50000       46.78156      738.39754
1585.00000       44.53707      737.06487
1585.50000       44.53707      743.72820
1586.00000       46.14027      758.38754
1586.50000       46.94188      746.39354
1587.00000       45.65931      737.06487
1587.50000       44.21643      715.74219
1588.00000       43.57514      679.76018
1588.50000       46.46091      654.43950
1589.00000       49.98797      619.79016
1589.50000       54.95791      601.13282
1590.00000       62.01201      593.13681
1590.50000       66.98195      583.80814
1591.00000       68.90580      586.47348
1591.50000       68.42484      595.80215
1592.00000       68.42484      613.12682
1592.50000       68.90580      633.11683
1593.00000       67.78355      670.43151
1593.50000       63.13426      709.07886
1594.00000       56.40079      726.40353
1594.50000       49.34669      734.39953
1595.00000       43.41482      738.39754
1595.50000       39.72745      743.72820
1596.00000       37.64328      744.62109
1596.50000       36.84168      729.06887
1597.00000       36.52104      721.87246
1597.50000       37.64328      729.29542
1598.00000       40.52905      722.40553
1598.50000       42.29258      718.40753
1599.00000       41.49098      715.74219
1599.50000       41.01001      710.41153
1600.00000       40.04809      703.74819
1600.50000       39.40681      678.42751
1601.00000       40.52905      653.10684
1601.50000       42.61322      629.11883
1602.00000       47.42284      605.13082
1602.50000       52.71342      573.14681
1603.00000       57.04207      553.15680
1603.50000       61.21041      533.16679
1604.00000       67.30259      521.17279
1604.50000       70.50900      525.17079
1605.00000       71.79157      519.84012
1605.50000       72.11221      519.84012
1606.00000       70.50900      519.84012
1606.50000       69.22644      522.50545
1607.00000       68.58516      521.17279
1607.50000       67.94387      511.84412
1608.00000       70.18836      507.84612
1608.50000       72.27253      501.18278
1609.00000       73.39478      489.18878
1609.50000       72.75349      479.86011
1610.00000       70.34868      477.19477
1610.50000       67.14227      470.53144
1611.00000       65.85971      461.20277
1611.50000       67.14227      462.53543
1612.00000       69.06612      466.53343
1612.50000       70.02804      478.52744
1613.00000       69.54708      489.18878
1613.50000       69.54708      493.18678
1614.00000       70.18836      490.52144
1614.50000       70.02804      491.85411
1615.00000       67.94387      494.51944
1615.50000       65.85971      501.18278
1616.00000       64.41682      509.17878
1616.50000       64.57714      510.51145
1617.00000       64.57714      510.51145
1617.50000       65.85971      507.84612
1618.00000       68.58516      507.84612
1618.50000       70.34868      511.84412
1619.00000       71.79157      509.17878
1619.50000       73.39478      507.84612
1620.00000       74.35670      503.84811
1620.50000       74.67734      511.84412
1621.00000       73.87574      510.51145
1621.50000       72.59317      519.84012
1622.00000       70.18836      531.83413
1622.50000       68.42484      546.49346
1623.00000       69.70740      566.48347
1623.50000       71.15029      577.14481
1624.00000       70.02804      586.47348
1624.50000       67.46291      593.13681
1625.00000       62.49297      590.47148
1625.50000       60.40881      585.14081
1626.00000       59.92784      581.14281
1626.50000       59.44688      578.47748
1627.00000       58.16432      559.82014
1627.50000       58.00400      542.49546
1628.00000       59.12624      526.50346
1628.50000       59.76752      506.51345
