~Version ---------------------------------------------------
VERS. 2.0 : CWLS LOG ASCII STANDARD - VERSION 2.0
WRAP. NO  : One line per depth step
DLM . SPACE : Column Data Section Delimiter
~Well ------------------------------------------------------
STRT.F          642 : START DEPTH
STOP.F       1779.0 : STOP DEPTH
STEP.F          0.5 : STEP
NULL.       -999.25 : NULL VALUE
COMP.                       WALSH & WATTS : COMPANY
WELL.                        SALMON E 24  : WELL
FLD .                               NORTH : FIELD
CNTY.                            MONTAGUE : COUNTY
STAT.                               TEXAS : STATE
CTRY.                                 USA : COUNTRY
SEC .                                     : SECTION
TWP .                                     : TOWNSHIP
RGE .                                     : RANGE
LOC .                 SW CORNER OF LEAGUE : LOCATION
EKB .F                          : ELEVATION KELLY BUSHING
EDF .F                          : ELEVATION DERRICK FLOOR
EGL .F                      850 : ELEVATION GROUND LEVEL
PDAT.                        GL : PERMANENT DATUM
EPD .                       850 : ELEVATION PERMANENT DATUM
APD .                         5 : ABOVE PERMANENT DATUM
LMF .                        RT : LOG MEASURED FROM
DMF .                        RT : DRILLING MEASURED FROM
API .            42337038630000 : API NUMBER
UWI .                           : UWI NUMBER
DIGC.                     NthDS : DIGITIZING COMPANY
~Params ----------------------------------------------------
SRVC.              SCHLUMBERGER : LOGGING COMPANY
LOG .                       GRN : LOG
DATE.                1964-03-24 : RUN DATE
RUN .                         1 : RUN NUMBER
TDD .F                     1783 : TOTAL DEPTH DRILLER
TDL .F                     1782 : TOTAL DEPTH LOGGER
BOTL.F                     1780 : BOTTOM LOGGED INTERVAL
TOPL.F                      650 : TOP LOGGED INTERVAL
CSGS.IN                     4.5 : CASING SIZE
CSGD.F                     1802 : CASING DRILLER
CSGL.F                          : CASING LOGGER
BS  .IN                       9 : BIT SIZE
MUD .                     WATER : MUD TYPE
MUDD.                           : MUD DENSITY
MUDV.                           : MUD VISCOSITY
PH  .                           : MUD PH
FL  .                           : FLUID LOSS
MUDS.                           : SOURCE OF SAMPLE
RM  .OHMM                       : MUD RESISTIVITY
RMT .DEGF                       : RM TEMPERATURE
RMF .OHMM                       : MUD FILTRATE RESISTIVITY
RMFT.DEGF                       : RMF TEMPERATURE
RMC .OHMM                       : MUD CAKE RESISTIVITY
RMCT.DEGF                       : RMC TEMPERATURE
RMFS.                           : RMF SOURCE
RMCS.                           : RMC SOURCE
RMBH.OHMM                       : MUD RESISTIVITY AT BHT
BHT .DEGF                       : BOTTOM HOLE TEMPERATURE
TIMC.                           : TIME CIRCULATION STOPPED
TIML.                           : TIME LOGGER ON BOTTOM
TMAX.DEGF                   107 : MAXIMUM RECORDED TEMPERATURE
UNIT.                           : EQUIPMENT NUMBER
BASE.                           : BASE LOCATION
ENG .                    MCCUNE : RECORDED BY
WIT .                       NIX : WITNESSED BY
~Curve Information -----------------------------------------
DEPT.F          :DEPTH
GRN.GAPI        :
NEUT.API        :
~ASCII ------------------------------------------------------
# ...
1237.00000       70.34868      519.84012
1237.50000       80.28856      491.85411
1238.00000       86.54106      471.86410
1238.50000       89.42684      471.86410
1239.00000       90.70940      473.19677
1239.50000       91.03004      481.19277
1240.00000       89.74748      494.51944
1240.50000       88.14427      514.50945
1241.00000       87.02203      534.49946
1241.50000       85.73946      563.81814
1242.00000       83.97594      597.13482
1242.50000       80.44888      627.78616
1243.00000       74.03606      659.77017
1243.50000       67.94387      686.42352
1244.00000       60.24849      707.74619
1244.50000       52.07214      719.74020
1245.00000       47.42284      717.07486
1245.50000       46.30059      698.41752
1246.00000       48.06412      651.77417
1246.50000       52.39278      611.79416
1247.00000       58.16432      575.81214
1247.50000       65.37875      549.15880
1248.00000       71.95189      537.69786
1248.50000       76.12023      537.49796
1249.00000       77.88375      542.76200
1249.50000       77.24247      537.16479
1250.00000       76.44087      534.27291
1250.50000       76.28055      517.17479
1251.00000       77.08215      518.50745
1251.50000       78.52503      526.50346
1252.00000       79.80760      530.50146
1252.50000       81.09016      531.83413
1253.00000       82.53305      522.50545
1253.50000       83.97594      514.50945
1254.00000       85.09818      515.84212
1254.50000       85.73946      518.50745
1255.00000       85.25850      510.51145
1255.50000       85.09818      503.84811
1256.00000       83.97594      502.51545
1256.50000       84.93786      503.84811
1257.00000       87.50299      507.84612
1257.50000       88.62523      518.50745
1258.00000       87.66331      525.17079
1258.50000       85.89978      533.16679
1259.00000       84.77754      536.80497
1259.50000       86.06010      528.31588
1260.00000       87.98395      519.84012
1260.50000       89.58716      533.16679
1261.00000       90.06812      546.49346
1261.50000       88.30459      550.30489
1262.00000       86.38074      543.82813
1262.50000       84.77754      530.50146
1263.00000       84.61722      531.83413
1263.50000       86.54106      533.16679
1264.00000       89.42684      543.82813
1264.50000       90.86972      533.35337
1265.00000       89.42684      526.50346
1265.50000       85.57914      521.17279
1266.00000       82.37273      514.50945
1266.50000       80.92984      498.51745
1267.00000       80.28856      475.86210
1267.50000       80.12824      462.53543
1268.00000       80.92984      459.87010
1268.50000       83.81561      467.86610
1269.00000       88.14427      485.19077
1269.50000       90.54908      497.18478
1270.00000       91.51100      501.18278
1270.50000       87.66331      503.84811
1271.00000       85.25850      505.18078
1271.50000       85.73946      510.51145
1272.00000       87.18235      515.84212
1272.50000       85.89978      522.50545
1273.00000       83.17433      531.83413
1273.50000       81.25048      547.82613
1274.00000       82.37273      545.16080
1274.50000       86.86171      541.16280
1275.00000       92.58034      538.49746
1275.50000       94.71742      535.83213
1276.00000       95.03806      526.50346
1276.50000       94.15629      523.83812
1277.00000       93.27453      522.50545
1277.50000       92.95389      519.84012
1278.00000       91.99197      521.17279
1278.50000       91.67132      518.50745
1279.00000       93.11421      523.83812
1279.50000       94.39677      532.02070
1280.00000       94.87774      535.83213
1280.50000       93.27453      532.50046
1281.00000       88.78555      534.05968
1281.50000       84.93786      525.17079
1282.00000       84.93786      528.50246
1282.50000       86.22042      533.83313
1283.00000       85.25850      528.27590
1283.50000       83.17433      524.27790
1284.00000       82.69337      526.79664
1284.50000       83.17433      534.93924
1285.00000       82.37273      538.76399
1285.50000       80.76952      536.09866
1286.00000       80.12824      535.83213
1286.50000       80.44888      534.49946
1287.00000       80.60920      534.49946
1287.50000       80.92984      534.49946
1288.00000       81.09016      537.16479
1288.50000       80.92984      538.49746
1289.00000       81.41081      539.83013
1289.50000       82.85369      542.49546
1290.00000       85.09818      534.49946
1290.50000       87.82363      523.83812
1291.00000       89.58716      514.50945
1291.50000       90.22844      507.84612
1292.00000       89.58716      507.84612
1292.50000       87.02203      499.85011
1293.00000       84.29658      489.18878
1293.50000       83.17433      479.86011
1294.00000       82.85369      481.19277
1294.50000       83.01401      483.85811
1295.00000       83.97594      481.19277
1295.50000       86.22042      475.86210
1296.00000       87.98395      477.19477
1296.50000       88.62523      477.19477
1297.00000       88.78555      485.19077
1297.50000       87.66331      493.18678
1298.00000       85.89978      495.85211
1298.50000       83.65529      499.85011
1299.00000       80.60920      505.18078
1299.50000       77.88375      511.84412
1300.00000       77.08215      513.17678
1300.50000       78.36471      509.17878
1301.00000       80.12824      510.51145
1301.50000       82.37273      502.51545
1302.00000       83.17433      494.51944
1302.50000       82.05209      489.18878
1303.00000       80.44888      483.85811
1303.50000       79.00600      479.86011
1304.00000       77.88375      482.52544
1304.50000       77.24247      485.19077
1305.00000       76.60119      482.52544
1305.50000       78.52503      474.52944
1306.00000       81.25048      469.19877
1306.50000       82.05209      462.53543
1307.00000       81.41081      455.87210
1307.50000       80.92984      449.20876
1308.00000       82.21241      451.87409
1308.50000       83.97594      454.53943
1309.00000       84.13626      455.87210
1309.50000       83.01401      454.53943
1310.00000       80.12824      455.87210
1310.50000       76.76151      457.20476
1311.00000       74.67734      459.87010
1311.50000       74.51702      461.20277
1312.00000       76.44087      458.53743
1312.50000       79.80760      455.87210
1313.00000       83.97594      455.87210
1313.50000       85.09818      450.54143
1314.00000       85.73946      450.54143
1314.50000       85.09818      449.20876
1315.00000       83.65529      447.87609
1315.50000       82.21241      443.87809
1316.00000       81.57113      443.87809
1316.50000       81.41081      439.88009
1317.00000       80.76952      426.55342
1317.50000       76.92183      415.89208
1318.00000       68.74548      401.23274
1318.50000       60.40881      390.57141
1319.00000       53.03406      387.90607
1319.50000       48.22444      389.23874
1320.00000       46.78156      394.56941
1320.50000       46.30059      395.90207
1321.00000       46.46091      395.90207
1321.50000       48.06412      390.57141
1322.00000       49.02604      386.57340
1322.50000       50.14829      386.57340
1323.00000       50.94989      393.23674
1323.50000       51.75149      401.23274
1324.00000       53.51502      409.22875
1324.50000       57.52304      414.55941
1325.00000       61.69137      419.89008
1325.50000       66.34067      421.22275
1326.00000       70.50900      429.21875
1326.50000       73.23445      437.21476
1327.00000       71.95189      443.87809
1327.50000       68.42484      454.53943
1328.00000       63.45490      463.86810
1328.50000       60.40881      467.86610
1329.00000       59.28656      474.52944
1329.50000       61.21041      482.52544
1330.00000       64.41682      490.52144
1330.50000       68.74548      498.51745
1331.00000       72.59317      503.84811
1331.50000       77.24247      507.84612
1332.00000       83.65529      514.50945
1332.50000       87.98395      513.17678
1333.00000       87.02203      514.50945
1333.50000       82.85369      519.84012
1334.00000       79.48696      518.50745
1334.50000       78.04407      525.17079
