~Version ---------------------------------------------------
VERS. 2.0 : CWLS LOG ASCII STANDARD - VERSION 2.0
WRAP. NO  : One line per depth step
DLM . SPACE : Column Data Section Delimiter
~Well ------------------------------------------------------
STRT.F          100 : START DEPTH
STOP.F       2271.5 : STOP DEPTH
STEP.F          0.5 : STEP
NULL.       -999.25 : NULL VALUE
COMP.                       WALSH & WATTS : COMPANY
WELL.                        SALMON E 24  : WELL
FLD .                               NORTH : FIELD
CNTY.                            MONTAGUE : COUNTY
STAT.                               TEXAS : STATE
CTRY.                                 USA : COUNTRY
SEC .                                     : SECTION
TWP .                                     : TOWNSHIP
RGE .                                     : RANGE
LOC .                 SW CORNER OF LEAGUE : LOCATION
EKB .F                          : ELEVATION KELLY BUSHING
EDF .F                          : ELEVATION DERRICK FLOOR
EGL .F                      850 : ELEVATION GROUND LEVEL
PDAT.                        GL : PERMANENT DATUM
EPD .                       850 : ELEVATION PERMANENT DATUM
APD .                         5 : ABOVE PERMANENT DATUM
LMF .                        RT : LOG MEASURED FROM
DMF .                        RT : DRILLING MEASURED FROM
API .            42337038630000 : API NUMBER
UWI .                           : UWI NUMBER
DIGC.                     NthDS : DIGITIZING COMPANY
~Params ----------------------------------------------------
SRVC.               HALLIBURTON : LOGGING COMPANY
LOG .                        EL : LOG
DATE.                1950-09-25 : RUN DATE
RUN .                         1 : RUN NUMBER
TDD .F                     2272 : TOTAL DEPTH DRILLER
TDL .F                     2272 : TOTAL DEPTH LOGGER
BOTL.F                     2272 : BOTTOM LOGGED INTERVAL
TOPL.F                          : TOP LOGGED INTERVAL
CSGS.IN                         : CASING SIZE
CSGD.F                          : CASING DRILLER
CSGL.F                          : CASING LOGGER
BS  .IN                       9 : BIT SIZE
MUD .        WATER BASE AQUAGEL : MUD TYPE
MUDD.                       9.8 : MUD DENSITY
MUDV.                        39 : MUD VISCOSITY
PH  .                           : MUD PH
FL  .                           : FLUID LOSS
MUDS.                           : SOURCE OF SAMPLE
RM  .OHMM                   2.3 : MUD RESISTIVITY
RMT .DEGF                    70 : RM TEMPERATURE
RMF .OHMM                       : MUD FILTRATE RESISTIVITY
RMFT.DEGF                       : RMF TEMPERATURE
RMC .OHMM                       : MUD CAKE RESISTIVITY
RMCT.DEGF                       : RMC TEMPERATURE
RMFS.                           : RMF SOURCE
RMCS.                           : RMC SOURCE
RMBH.OHMM                       : MUD RESISTIVITY AT BHT
BHT .DEGF                       : BOTTOM HOLE TEMPERATURE
TIMC.                           : TIME CIRCULATION STOPPED
TIML.                           : TIME LOGGER ON BOTTOM
TMAX.DEGF                       : MAXIMUM RECORDED TEMPERATURE
UNIT.                           : EQUIPMENT NUMBER
BASE.                           : BASE LOCATION
ENG .                  HARRISON : RECORDED BY
WIT .                    DAWSON : WITNESSED BY
~Curve Information -----------------------------------------
DEPT.F          :DEPTH
ILD.OHMM        :
SN.OHMM         :
SP.MV           :
~ASCII ------------------------------------------------------
# ...
1119.50000        2.41911        7.82058      -74.85107
1120.00000        2.48234        7.90551      -74.17113
1120.50000        2.49715        7.90697      -74.16033
1121.00000        2.51196        7.74148      -74.48409
1121.50000        2.52761        7.65946      -74.13872
1122.00000        2.54242        7.49398      -73.45879
1122.50000        2.55724        7.24502      -73.44799
1123.00000        2.57205        6.82912      -74.10632
1123.50000        2.57350        6.49669      -75.09921
1124.00000        2.57496        6.24773      -76.09210
1124.50000        2.57642        6.41613      -76.08130
1125.00000        2.57788        6.75147      -75.39921
1125.50000        2.57933        6.83640      -75.38840
1126.00000        2.58079        6.75439      -74.37390
1126.50000        2.58225        6.25501      -73.35941
1127.00000        2.58788        6.00605      -70.67208
1127.50000        2.61187        6.17474      -66.64649
1128.00000        2.63503        5.92578      -61.28264
1128.50000        2.65819        5.50988      -54.05526
1129.00000        2.68915        4.84356      -46.39629
1129.50000        2.71649        4.18893      -40.01655
1130.00000        2.74382        4.17870      -38.86822
1130.50000        2.75613        3.95729      -39.47971
1131.00000        2.74423        3.57644      -37.79608
1131.50000        2.73317        3.46354      -37.11615
1132.00000        2.72127        3.75465      -37.43991
1132.50000        2.70937        4.04492      -39.10194
1133.00000        2.69830        4.60480      -40.42940
1133.50000        2.68641        5.10709      -40.75316
1134.00000        2.67451        5.10855      -39.73866
1134.50000        2.66344        4.85959      -38.72416
1135.00000        2.65154        4.86105      -39.40925
1135.50000        2.64048        5.36333      -40.09769
1136.00000        2.62858        5.86562      -41.03371
1136.50000        2.61668        6.03402      -40.93927
1137.00000        2.59811        5.61812      -39.67384
1137.50000        2.57536        5.20222      -39.32847
1138.00000        2.55261        4.61937      -38.64854
1138.50000        2.53403        4.45418      -38.97230
1139.00000        2.53578        4.53910      -38.96150
1139.50000        2.53724        4.70751      -39.28526
1140.00000        2.53869        4.87591      -39.60903
1140.50000        2.54015        4.87736      -38.92909
1141.00000        2.54161        4.71188      -37.91243
1141.50000        2.54306        4.62986      -37.56706
1142.00000        2.60712        4.54785      -37.22170
1142.50000        2.68704        4.38236      -36.54176
1143.00000        2.76613        4.13340      -35.19270
1143.50000        2.84939        3.70331      -33.50907
1144.00000        2.93432        3.63548      -31.49087
1144.50000        3.01925        3.56766      -30.47637
1145.00000        3.12588        3.62671      -30.13100
1145.50000        3.24670        3.71748      -29.45107
1146.00000        3.36669        3.80825      -29.10570
1146.50000        4.14360        3.93993      -29.09490
1147.00000        5.00482        4.07160      -29.41866
1147.50000        5.54884        4.20411      -29.07329
1148.00000        5.81770        4.21057      -29.73162
1148.50000        5.23485        3.64889      -30.05538
1149.00000        4.40159        3.16370      -28.37175
1149.50000        3.73527        3.03578      -27.02269
1150.00000        3.21396        3.10044      -26.42798
1150.50000        2.94747        3.06266      -26.41502
1151.00000        2.76946        3.02405      -27.40791
1151.50000        2.59229        3.04721      -29.40450
1152.00000        2.57038        3.11127      -30.73196
1152.50000        2.54846        3.17534      -31.39029
1153.00000        2.52738        3.23940      -32.38318
1153.50000        2.53552        3.32850      -33.37608
1154.00000        2.58956        3.43430      -34.36897
1154.50000        2.64277        3.54009      -34.69273
1155.00000        2.67595        3.64589      -35.35106
1155.50000        2.62815        3.68908      -34.67113
1156.00000        2.58120        3.69054      -33.99119
1156.50000        2.53341        3.69200      -33.64582
1157.00000        2.55490        3.76023      -32.96589
1157.50000        2.59475        3.87270      -32.28596
1158.00000        2.73644        3.98601      -33.27885
1158.50000        2.94658        4.22620      -34.94088
1159.00000        3.15671        4.55236      -36.93747
1159.50000        3.36685        4.54631      -37.93036
1160.00000        3.52690        4.18216      -36.24673
1160.50000        3.48662        4.03754      -34.89766
1161.00000        3.44634        4.08073      -36.22512
1161.50000        3.40607        4.25414      -38.55628
1162.00000        3.36161        4.48681      -39.54917
1162.50000        3.29880        4.60680      -40.54207
1163.00000        3.23598        4.55651      -41.86952
1163.50000        3.31173        4.33092      -41.85656
1164.00000        3.48013        4.00880      -40.17293
1164.50000        3.68221        3.73980      -37.15104
1165.00000        3.69034        3.45161      -33.79458
1165.50000        3.65758        3.14923      -31.10726
1166.00000        3.62481        2.96872      -29.42363
1166.50000        3.59288        2.97018      -29.41282
1167.00000        3.56011        2.97163      -29.73659
1167.50000        3.52818        2.97309      -28.38752
1168.00000        3.49541        2.97455      -27.37302
1168.50000        3.47684        2.97600      -26.69309
1169.00000        3.47829        2.97746      -26.68229
1169.50000        3.47975        2.98727      -27.00605
1170.00000        3.48121        3.03046      -27.66438
1170.50000        3.55612        3.09285      -29.32640
1171.00000        3.63103        3.23370      -31.65756
1171.50000        3.70678        3.37456      -33.31958
1172.00000        3.82676        3.40356      -34.98160
1172.50000        3.97764        3.40502      -36.64147
1173.00000        4.12767        3.36474      -36.96523
1173.50000        4.00309        3.26186      -34.94704
1174.00000        3.81005        2.99203      -32.25971
1174.50000        3.61702        2.74808      -29.57238
1175.00000        3.49578        2.77625      -28.22332
1175.50000        3.49723        2.80358      -27.54339
1176.00000        3.49869        2.83091      -26.86345
1176.50000        3.45257        2.79898      -26.51808
1177.00000        3.39392        2.76705      -26.17271
1177.50000        3.33612        2.73512      -25.82735
1178.00000        3.27831        2.70319      -25.48198
1178.50000        3.25556        2.67125      -25.47118
1179.00000        3.25701        2.75117      -25.79494
1179.50000        3.25847        2.83109      -26.45327
1180.00000        3.14891        2.91018      -28.11529
1180.50000        2.96422        3.03267      -29.77732
1181.00000        2.78037        3.16601      -30.10108
1181.50000        2.59652        3.32636      -28.74985
1182.00000        2.83533        3.49059      -28.40448
1182.50000        3.03462        3.77919      -30.06651
1183.00000        3.23390        4.06695      -32.73223
1183.50000        3.49329        4.35555      -33.72512
1184.00000        3.84199        4.68172      -35.72171
1184.50000        4.19152        4.95195      -36.38004
1185.00000        4.54106        4.99681      -35.36554
1185.50000        4.63183        5.04251      -33.68191
1186.00000        4.65749        5.08737      -33.33654
1186.50000        4.68316        5.15394      -33.66031
1187.00000        4.56942        5.25222      -34.65320
1187.50000        4.24701        5.34967      -35.98066
1188.00000        4.15414        5.62074      -36.86315
1188.50000        4.23323        5.93522      -38.58874
1189.00000        4.38660        6.26389      -40.79945
1189.50000        4.53998        6.60174      -40.84552
1190.00000        4.88951        6.89534      -41.04215
1190.50000        5.23821        7.01366      -41.26457
