~Version ---------------------------------------------------
VERS. 2.0 : CWLS LOG ASCII STANDARD - VERSION 2.0
WRAP. NO  : One line per depth step
DLM . SPACE : Column Data Section Delimiter
~Well ------------------------------------------------------
STRT.F          100 : START DEPTH
STOP.F       2271.5 : STOP DEPTH
STEP.F          0.5 : STEP
NULL.       -999.25 : NULL VALUE
COMP.                       WALSH & WATTS : COMPANY
WELL.                        SALMON E 24  : WELL
FLD .                               NORTH : FIELD
CNTY.                            MONTAGUE : COUNTY
STAT.                               TEXAS : STATE
CTRY.                                 USA : COUNTRY
SEC .                                     : SECTION
TWP .                                     : TOWNSHIP
RGE .                                     : RANGE
LOC .                 SW CORNER OF LEAGUE : LOCATION
EKB .F                          : ELEVATION KELLY BUSHING
EDF .F                          : ELEVATION DERRICK FLOOR
EGL .F                      850 : ELEVATION GROUND LEVEL
PDAT.                        GL : PERMANENT DATUM
EPD .                       850 : ELEVATION PERMANENT DATUM
APD .                         5 : ABOVE PERMANENT DATUM
LMF .                        RT : LOG MEASURED FROM
DMF .                        RT : DRILLING MEASURED FROM
API .            42337038630000 : API NUMBER
UWI .                           : UWI NUMBER
DIGC.                     NthDS : DIGITIZING COMPANY
~Params ----------------------------------------------------
SRVC.               HALLIBURTON : LOGGING COMPANY
LOG .                        EL : LOG
DATE.                1950-09-25 : RUN DATE
RUN .                         1 : RUN NUMBER
TDD .F                     2272 : TOTAL DEPTH DRILLER
TDL .F                     2272 : TOTAL DEPTH LOGGER
BOTL.F                     2272 : BOTTOM LOGGED INTERVAL
TOPL.F                          : TOP LOGGED INTERVAL
CSGS.IN                         : CASING SIZE
CSGD.F                          : CASING DRILLER
CSGL.F                          : CASING LOGGER
BS  .IN                       9 : BIT SIZE
MUD .        WATER BASE AQUAGEL : MUD TYPE
MUDD.                       9.8 : MUD DENSITY
MUDV.                        39 : MUD VISCOSITY
PH  .                           : MUD PH
FL  .                           : FLUID LOSS
MUDS.                           : SOURCE OF SAMPLE
RM  .OHMM                   2.3 : MUD RESISTIVITY
RMT .DEGF                    70 : RM TEMPERATURE
RMF .OHMM                       : MUD FILTRATE RESISTIVITY
RMFT.DEGF                       : RMF TEMPERATURE
RMC .OHMM                       : MUD CAKE RESISTIVITY
RMCT.DEGF                       : RMC TEMPERATURE
RMFS.                           : RMF SOURCE
RMCS.                           : RMC SOURCE
RMBH.OHMM                       : MUD RESISTIVITY AT BHT
BHT .DEGF                       : BOTTOM HOLE TEMPERATURE
TIMC.                           : TIME CIRCULATION STOPPED
TIML.                           : TIME LOGGER ON BOTTOM
TMAX.DEGF                       : MAXIMUM RECORDED TEMPERATURE
UNIT.                           : EQUIPMENT NUMBER
BASE.                           : BASE LOCATION
ENG .                  HARRISON : RECORDED BY
WIT .                    DAWSON : WITNESSED BY
~Curve Information -----------------------------------------
DEPT.F          :DEPTH
ILD.OHMM        :
SN.OHMM         :
SP.MV           :
~ASCII ------------------------------------------------------
# ...
538.00000        5.86143        9.93322      -41.82159
538.50000        5.90818        9.93322      -41.82159
539.00000        6.00501       10.01669      -41.82159
539.50000        6.13522       10.10016      -41.74799
540.00000        6.30217       10.18364      -41.73126
540.50000        6.29048       10.18364      -41.51044
541.00000        6.06344       10.10016      -41.28628
541.50000        5.80133       10.10016      -41.07884
542.00000        5.98915       10.18364      -40.89148
542.50000        6.22704       10.18364      -40.70747
543.00000        6.39399       10.18364      -40.52011
543.50000        6.42738       10.01669      -40.30598
544.00000        6.39399        9.93322      -40.08182
544.50000        6.31052        9.84975      -39.85765
545.00000        6.34391        9.93322      -39.66695
545.50000        6.60434       10.18364      -39.47959
546.00000        7.07429       10.43405      -38.14130
546.50000        7.54340       10.35058      -36.80301
547.00000        8.01335        9.93322      -35.46472
547.50000        8.69616        9.26544      -33.45728
548.00000        9.37896        8.54424      -31.78442
548.50000        9.34891        7.82387      -29.77699
549.00000        9.00083        6.92821      -28.77327
549.50000        8.65359        6.74958      -28.10412
550.00000        8.26377        6.82805      -28.10412
550.50000        8.26377        6.96160      -27.76955
551.00000        8.68113        7.44073      -28.77327
551.50000        9.09850        7.83222      -29.10784
552.00000        9.41152        8.00668      -29.44241
552.50000        9.65526        8.18030      -30.44613
553.00000        9.76628        8.18030      -31.44985
553.50000        9.34891        8.26377      -32.45357
554.00000        9.00334        8.34724      -34.46100
554.50000        8.70534        8.43072      -36.13386
555.00000        8.40651        8.26377      -37.07066
555.50000        7.88815        8.01335      -38.07438
556.00000        7.26210        7.84641      -38.47587
556.50000        6.42738        7.76294      -38.97773
557.00000        5.59265        7.67946      -39.47959
557.50000        5.36978        7.59599      -38.73684
558.00000        5.14775        7.42905      -38.11118
558.50000        4.92487        7.26210      -37.95728
559.00000        4.92487        7.17863      -37.80672
559.50000        4.92487        6.92821      -38.43237
560.00000        4.92487        6.84474      -39.06137
560.50000        4.92487        6.76127      -39.68702
561.00000        4.92487        6.76127      -39.94799
561.50000        4.92487        6.76127      -40.11527
562.00000        4.86227        6.84474      -40.28256
562.50000        4.75793        6.76127      -40.44985
563.00000        4.62688        6.84474      -40.43312
563.50000        4.38815        6.92821      -40.56025
564.00000        4.37396        7.01168      -40.69074
564.50000        4.41569        7.09516      -40.81788
565.00000        4.42404        7.09516      -40.87475
565.50000        4.31886        7.01168      -40.92828
566.00000        4.18698        6.84474      -40.98516
566.50000        4.05509        6.84474      -41.04204
567.00000        3.92320        6.92821      -41.09557
567.50000        3.92320        7.09516      -41.15245
568.00000        3.92320        7.34557      -40.85802
568.50000        3.92320        7.42905      -40.56360
569.00000        3.92320        7.76294      -40.26583
569.50000        3.92320        8.09683      -40.02159
570.00000        3.92320        8.34724      -39.81416
570.50000        3.92320        8.18030      -39.60338
571.00000        4.00668        7.92988      -39.14501
571.50000        4.09015        7.67946      -38.47587
572.00000        4.17362        7.59599      -37.80672
572.50000        4.26628        7.59599      -36.46843
573.00000        4.42404        7.42905      -34.79557
573.50000        4.84140        7.17863      -32.78814
574.00000        5.21118        6.67779      -30.11156
574.50000        5.56845        5.88982      -27.43498
575.00000        5.92654        5.28631      -25.76212
575.50000        5.95242        4.92487      -24.75840
576.00000        5.97913        5.08180      -24.42383
576.50000        6.00501        5.34224      -24.08925
577.00000        6.10517        5.66694      -24.08925
577.50000        6.22454        5.92654      -24.08925
578.00000        6.34391        5.92654      -23.75468
578.50000        6.15442        5.92654      -23.75468
579.00000        5.96411        5.92654      -24.42383
579.50000        5.65943        5.92654      -25.09297
580.00000        4.86895        6.17696      -25.09297
580.50000        4.12604        6.67779      -25.76212
581.00000        4.04340        7.51252      -26.43126
581.50000        4.55426        8.26377      -27.76955
582.00000        5.28631        8.93155      -28.77327
582.50000        6.16778        9.51586      -29.44241
583.00000        7.07262        9.84975      -30.11156
583.50000        7.98330        9.76628      -30.44613
584.00000        8.04674        9.26544      -30.11156
584.50000        7.34557        8.76461      -29.44241
585.00000        6.51085        8.01335      -28.10412
585.50000        5.84307        7.34557      -26.76583
586.00000        5.22287        6.67779      -25.76212
586.50000        4.62688        6.51085      -24.75840
587.00000        4.65359        6.67779      -24.08925
587.50000        4.83639        6.67779      -23.75468
588.00000        5.01920        6.51085      -23.75468
588.50000        5.15776        6.51085      -23.75468
589.00000        5.26795        6.76127      -23.75468
589.50000        5.37729        7.17863      -23.42011
590.00000        5.48748        7.51252      -23.42011
590.50000        5.70701        8.01335      -23.75468
591.00000        5.90484        8.26377      -23.75468
591.50000        6.10267        8.26377      -24.08925
592.00000        6.26043        8.09683      -24.08925
592.50000        6.26043        8.01335      -23.75468
593.00000        6.29382        8.01335      -23.42011
593.50000        6.45492        8.01335      -23.42011
594.00000        6.59432        8.26377      -23.75468
594.50000        6.86561        8.43072      -23.75468
595.00000        7.33556        8.43072      -23.75468
595.50000        7.78380        8.23789      -23.58740
596.00000        8.22704        8.05509      -23.30970
596.50000        8.67112        7.87229      -23.04873
597.00000        8.81886        7.68948      -22.86137
597.50000        8.76961        7.50751      -22.67736
598.00000        8.72037        7.32471      -22.49000
598.50000        8.65693        7.17863      -22.33610
599.00000        8.53422        7.09516      -22.20227
599.50000        8.41068        7.01168      -22.06844
600.00000        8.28798        6.92821      -21.93461
600.50000        8.12354        6.76127      -22.77773
601.00000        8.06761        6.76127      -23.08554
601.50000        8.01085        6.67779      -22.75097
602.00000        7.95492        6.64274      -22.41639
602.50000        7.89816        6.60851      -22.75097
603.00000        7.84224        6.57763      -22.75097
603.50000        7.84641        6.55008      -22.75097
604.00000        7.80968        6.52170      -22.75097
604.50000        7.76294        6.54257      -23.08554
605.00000        7.44991        6.59432      -23.42011
605.50000        7.13689        6.73372      -23.42011
606.00000        6.85726        6.93572      -23.75468
606.50000        6.60100        7.39148      -24.08925
607.00000        6.34391        7.84641      -25.09297
607.50000        6.50000        8.80050      -26.43126
608.00000        6.76127        9.75125      -27.76955
608.50000        7.59599       10.69950      -30.78070
609.00000        9.22370       11.36394      -33.12271
609.50000       11.14941       11.60267      -34.79557
610.00000       13.05759       11.53339      -35.13014
610.50000       13.21619       10.99415      -34.46100
