~Version ---------------------------------------------------
VERS. 2.0 : CWLS LOG ASCII STANDARD - VERSION 2.0
WRAP. NO  : One line per depth step
DLM . SPACE : Column Data Section Delimiter
~Well ------------------------------------------------------
STRT.F          572 : START DEPTH
STOP.F       1770.0 : STOP DEPTH
STEP.F          0.5 : STEP
NULL.       -999.25 : NULL VALUE
COMP.         WALSH & WATTS, INCORPORATED : COMPANY
WELL.                         SALMON E 44 : WELL
FLD .                             REGULAR : FIELD
CNTY.                            MONTAGUE : COUNTY
STAT.                               TEXAS : STATE
CTRY.                                 USA : COUNTRY
SEC .                                     : SECTION
TWP .                                     : TOWNSHIP
RGE .                                     : RANGE
LOC . 300' WEST OF NO 23, 300' SOUTH OF D-9, F.ROBERTSON SURV. : LOCATION
EKB .F                      862 : ELEVATION KELLY BUSHING
EDF .F                          : ELEVATION DERRICK FLOOR
EGL .F                      856 : ELEVATION GROUND LEVEL
PDAT.                        GL : PERMANENT DATUM
EPD .                       856 : ELEVATION PERMANENT DATUM
APD .                         6 : ABOVE PERMANENT DATUM
LMF .                        KB : LOG MEASURED FROM
DMF .                        KB : DRILLING MEASURED FROM
API .            42337038720000 : API NUMBER
UWI .                           : UWI NUMBER
DIGC.                     NthDS : DIGITIZING COMPANY
~Params ----------------------------------------------------
SRVC.              SCHLUMBERGER : LOGGING COMPANY
LOG .                     SONIC : LOG
DATE.                1965-11-28 : RUN DATE
RUN .                         1 : RUN NUMBER
TDD .F                     1179 : TOTAL DEPTH DRILLER
TDL .F                     1179 : TOTAL DEPTH LOGGER
BOTL.F                     1170 : BOTTOM LOGGED INTERVAL
TOPL.F                      600 : TOP LOGGED INTERVAL
CSGS.IN                         : CASING SIZE
CSGD.F                          : CASING DRILLER
CSGL.F                          : CASING LOGGER
BS  .IN                   7.875 : BIT SIZE
MUD .                       GEL : MUD TYPE
MUDD.                        10 : MUD DENSITY
MUDV.                        98 : MUD VISCOSITY
PH  .                           : MUD PH
FL  .                           : FLUID LOSS
MUDS.                CIRCULATED : SOURCE OF SAMPLE
RM  .OHMM                   2.0 : MUD RESISTIVITY
RMT .DEGF                    81 : RM TEMPERATURE
RMF .OHMM                   1.5 : MUD FILTRATE RESISTIVITY
RMFT.DEGF                    81 : RMF TEMPERATURE
RMC .OHMM                       : MUD CAKE RESISTIVITY
RMCT.DEGF                       : RMC TEMPERATURE
RMFS.                         M : RMF SOURCE
RMCS.                           : RMC SOURCE
RMBH.OHMM                   1.6 : MUD RESISTIVITY AT BHT
BHT .DEGF                   100 : BOTTOM HOLE TEMPERATURE
TIMC.                           : TIME CIRCULATION STOPPED
TIML.                           : TIME LOGGER ON BOTTOM
TMAX.DEGF                   100 : MAXIMUM RECORDED TEMPERATURE
UNIT.                      4559 : EQUIPMENT NUMBER
BASE.                       WFS : BASE LOCATION
ENG .                      FINK : RECORDED BY
WIT .                       NIX : WITNESSED BY
~Curve Information -----------------------------------------
DEPT.F          :DEPTH
CALS.IN         :
DT.US/F         :
SP.MV           :
~ASCII ------------------------------------------------------
# ...
1725.00000        7.63837       92.82643      -67.15785
1725.50000        7.68070       95.07452      -67.66128
1726.00000        7.66427       96.27472      -67.16671
1726.50000        7.60879       95.90308      -68.06755
1727.00000        7.59928       96.76896      -71.06002
1727.50000        7.60097       97.41679      -74.05249
1728.00000        7.60287       96.63499      -79.99116
1728.50000        7.60457       97.53579      -84.81828
1729.00000        7.60626       98.87571      -77.35262
1729.50000        7.60796       97.42126      -75.46563
1730.00000        7.60965       95.60753      -83.93605
1730.50000        7.61155       95.20097      -85.43450
1731.00000        7.61325       95.10378      -84.06444
1731.50000        7.61574       93.32199      -76.92747
1732.00000        7.62142       91.26674      -70.50763
1732.50000        7.62710       90.74541      -68.48020
1733.00000        7.63392       92.12026      -67.14002
1733.50000        7.63960       92.20171      -65.65342
1734.00000        7.64528       91.61651      -63.95169
1734.50000        7.65096       91.62910      -61.82266
1735.00000        7.65664       90.25149      -61.12192
1735.50000        7.66232       88.36192      -61.37436
1736.00000        7.66800       87.96134      -61.80309
1736.50000        7.66213       89.94297      -62.92804
1737.00000        7.63873       91.74197      -65.53295
1737.50000        7.61552       91.75456      -68.22661
1738.00000        7.60208       91.59801      -70.26291
1738.50000        7.59123       90.63557      -75.04819
1739.00000        7.57792       85.11578      -87.30357
1739.50000        7.56707       81.62543      -88.05501
1740.00000        7.55602       91.07654      -82.63018
1740.50000        7.56648       95.37849      -76.41054
1741.00000        7.60881       94.38311      -68.89409
1741.50000        7.65115       93.57536      -60.88163
1742.00000        7.64687       92.61691      -59.66097
1742.50000        7.61151       91.62153      -61.63750
1743.00000        7.57596       92.17903      -65.65575
1743.50000        7.55096       92.62475      -66.20401
1744.00000        7.56720       92.62736      -63.40567
1744.50000        7.58344       92.28766      -64.04655
1745.00000        7.59987       91.43500      -64.12568
1745.50000        7.61944       92.61823      -62.07435
1746.00000        7.62572       93.71616      -62.78396
1746.50000        7.62542       92.09205      -64.18380
1747.00000        7.62513       90.34818      -65.58365
1747.50000        7.69595       91.51545      -62.48052
1748.00000        7.68669       92.19969      -59.38338
1748.50000        7.62424       92.09252      -56.99738
1749.00000        7.72355       93.39551      -54.43808
1749.50000        7.73520       94.25341      -54.95646
1750.00000        7.71852       92.84392      -58.64086
1750.50000        7.67161       91.94834      -60.41720
1751.00000        7.65279       91.20246      -61.23737
1751.50000        7.65243       91.50447      -61.54957
1752.00000        7.69198       92.50507      -59.96436
1752.50000        7.70881       91.40990      -58.38215
1753.00000        7.65155       90.84266      -56.79994
1753.50000        7.59428       91.14067      -60.68882
1754.00000        7.60115       92.01653      -69.44520
1754.50000        7.58094       91.91934      -72.94951
1755.00000        7.53264       94.80567      -83.71086
1755.50000        7.53533       95.61765      -80.85873
1756.00000        7.53802       92.42670      -73.72774
1756.50000        7.54145       91.71675      -67.54694
1757.00000        7.54414       91.31418      -62.81236
1757.50000        7.54684       91.33675      -65.58072
1758.00000        7.53638       91.50602      -69.69370
1758.50000        7.47393       91.34197      -75.52480
1759.00000        7.45213       95.03715      -85.83884
1759.50000        7.45721       98.84210      -92.21674
1760.00000        7.46249       97.89663      -93.88252
1760.50000        7.46777       97.22659      -95.71265
1761.00000        7.47305       97.65635      -90.33862
1761.50000        7.47927       97.27873      -83.08512
1762.00000        7.48456       95.30232      -74.51090
1762.50000        7.48406       93.09239      -83.47944
1763.00000        7.47958       92.61298      -87.59242
1763.50000        7.47510       94.86107      -95.62061
1764.00000        7.47062       97.97793     -100.40590
1764.50000        7.46615       98.18513     -101.62646
1765.00000        7.46167       97.20472     -100.46855
1765.50000        7.45739       96.63549     -100.63732
1766.00000        7.45291       94.97445     -101.14075
1766.50000        7.44757       93.83437     -101.82347
1767.00000        7.44389       95.10642     -102.77810
1767.50000        7.44360       96.37948     -103.51250
1768.00000        7.44330       96.98088     -103.43924
1768.50000        7.44301       97.03938     -103.36599
1769.00000        7.44271       97.03601     -103.29273
1769.50000        7.44241       96.78912     -103.26429
1770.00000        7.44212       96.59214     -103.26873
