~Version ---------------------------------------------------
VERS. 2.0 : CWLS LOG ASCII STANDARD - VERSION 2.0
WRAP. NO  : One line per depth step
DLM . SPACE : Column Data Section Delimiter
~Well ------------------------------------------------------
STRT.F          227 : START DEPTH
STOP.F       2033.0 : STOP DEPTH
STEP.F          0.5 : STEP
NULL.       -999.25 : NULL VALUE
COMP.                  WALSH & WATTS, INC : COMPANY
WELL.                          HYNDS A 10 : WELL
FLD .                           N. NOCONA : FIELD
CNTY.                            MONTAGUE : COUNTY
STAT.                               TEXAS : STATE
CTRY.                                 USA : COUNTRY
SEC .                                     : SECTION
TWP .                                     : TOWNSHIP
RGE .                                     : RANGE
LOC .  244' SE OF NO. 5A J.J. WALL SURVEY : LOCATION
EKB .F                    903.5 : ELEVATION KELLY BUSHING
EDF .F                          : ELEVATION DERRICK FLOOR
EGL .F                      897 : ELEVATION GROUND LEVEL
PDAT.                        GL : PERMANENT DATUM
EPD .                           : ELEVATION PERMANENT DATUM
APD .                         6 : ABOVE PERMANENT DATUM
LMF .                           : LOG MEASURED FROM
DMF .                           : DRILLING MEASURED FROM
API .            42337037830000 : API NUMBER
UWI .            42337037830000 : UWI NUMBER
DIGC.                     NthDS : DIGITIZING COMPANY
~Params ----------------------------------------------------
SRVC.              SCHLUMBERGER : LOGGING COMPANY
LOG .                       IEL : LOG
DATE.                1957-10-20 : RUN DATE
RUN .                         1 : RUN NUMBER
TDD .F                          : TOTAL DEPTH DRILLER
TDL .F                          : TOTAL DEPTH LOGGER
BOTL.F                     2039 : BOTTOM LOGGED INTERVAL
TOPL.F                          : TOP LOGGED INTERVAL
CSGS.IN                         : CASING SIZE
CSGD.F                      227 : CASING DRILLER
CSGL.F                      227 : CASING LOGGER
BS  .IN                    8.75 : BIT SIZE
MUD .                       GEL : MUD TYPE
MUDD.                       9.9 : MUD DENSITY
MUDV.                        50 : MUD VISCOSITY
PH  .                           : MUD PH
FL  .                           : FLUID LOSS
MUDS.                           : SOURCE OF SAMPLE
RM  .OHMM                   2.3 : MUD RESISTIVITY
RMT .DEGF                    60 : RM TEMPERATURE
RMF .OHMM                   .76 : MUD FILTRATE RESISTIVITY
RMFT.DEGF                    96 : RMF TEMPERATURE
RMC .OHMM                   1.7 : MUD CAKE RESISTIVITY
RMCT.DEGF                    96 : RMC TEMPERATURE
RMFS.                           : RMF SOURCE
RMCS.                           : RMC SOURCE
RMBH.OHMM                   1.4 : MUD RESISTIVITY AT BHT
BHT .DEGF                    96 : BOTTOM HOLE TEMPERATURE
TIMC.                           : TIME CIRCULATION STOPPED
TIML.                           : TIME LOGGER ON BOTTOM
TMAX.DEGF                       : MAXIMUM RECORDED TEMPERATURE
UNIT.                       785 : EQUIPMENT NUMBER
BASE.                        WF : BASE LOCATION
ENG .                     JONES : RECORDED BY
WIT .               BALCH & NIX : WITNESSED BY
~Curve Information -----------------------------------------
DEPT.F          :DEPTH
CILD.MMHO       :
ILD.OHMM        :
ROP.FT/HR       :
SN.OHMM         :
SP.MV           :
~ASCII ------------------------------------------------------
# ...
797.00000       33.58795      158.99816        1.01022       97.00178      -73.42788
797.50000       37.19236      114.09006        1.01060       92.85403      -72.89574
798.00000       42.58725       60.49368        1.01091       83.24322      -72.25789
798.50000       51.56781       40.45044        1.50036       73.63242      -70.97213
799.00000       61.43892       19.66955        1.50067       63.63963      -69.14651
799.50000       70.41478       20.90090        1.50105       52.10810      -65.92417
800.00000       76.47280       16.56540        1.98293       41.80179      -62.08069
800.50000       87.66348       14.49765        1.98757       36.39639      -56.91722
801.00000       95.79240       12.68468        1.99203       32.72071      -48.70088
801.50000      102.95444       12.14414        1.99667       32.07206      -41.29058
802.00000      108.32597       12.74486        2.00131       33.51351      -37.10368
802.50000      108.32597       14.10594        2.00595       36.65945      -44.30769
803.00000       99.37342       18.12612        2.01137       40.14414      -55.56574
803.50000       86.83985       26.44684        2.01601       43.62882      -61.70129
804.00000       68.03949       32.71351        4.00262       45.76576      -66.15938
804.50000       55.50592       38.98017        4.00293       45.38017      -70.19585
805.00000       49.23914       45.25044        4.00325       44.99458      -73.57107
805.50000       48.34388       48.73873        4.00356       44.12251      -77.00393
806.00000       50.13439       42.11891        3.01289       42.72431      -80.53770
806.50000       55.50592       33.96035        2.02222       40.81080      -84.32733
807.00000       68.93475       25.79819        2.02253       38.55855      -87.05390
807.50000       90.42087       14.48648        2.02291       32.55134      -87.69940
808.00000      131.60260        9.98198        1.03224       26.54774      -86.63617
808.50000      170.99382        6.23423        1.03256       20.54054      -84.94475
809.00000      216.65183        4.79279        1.03287       14.47747      -82.72180
809.50000      255.14780        3.75279        1.03318       10.41441      -79.86642
810.00000      308.86310        3.31531        1.27674        7.63964      -75.89933
810.50000      353.62585        2.63856        1.51237        6.90090      -72.26198
811.00000      394.80759        2.49838        1.50259        6.71171      -69.47804
811.50000      421.66524        2.43495        1.49282        6.88793      -68.93436
812.00000      422.56049        2.48649        1.74646        7.21009      -69.65193
812.50000      396.98306        2.78126        2.00288        7.66739      -72.71183
813.00000      358.84519        3.07604        1.99778        8.12468      -77.41316
813.50000      320.69837        3.56757        1.99287        8.54054      -81.23342
814.00000      282.55156        4.10811        1.99103        8.94594      -83.21224
814.50000      242.61423        4.62811        3.03332        9.36612      -84.51179
815.00000      223.81387        5.08108        3.02877        9.80829      -85.66900
815.50000      202.32775        5.51351        3.02404       10.32216      -87.16674
816.00000      189.79418        5.81621        2.49685       10.72288      -88.68972
816.50000      182.63214        6.03243        2.02870       11.05261      -90.04332
817.00000      179.94637        6.13802        2.02901       11.27928      -90.34107
817.50000      179.05112        6.07820        2.02933       11.27207      -89.79676
818.00000      179.94637        6.02991        4.02963       11.23603      -89.45488
818.50000      180.84163        5.98991        4.02562       11.23135      -89.24994
819.00000      182.63214        5.95099        4.02143       11.35135      -89.24679
819.50000      184.42265        5.91243        4.01658       11.65153      -89.24365
820.00000      185.31791        5.87387        4.01257       12.09009      -89.26573
820.50000      185.31791        5.97369        4.00838       12.65153      -89.29502
821.00000      183.52740        6.05694        4.00437       13.10883      -89.32430
821.50000      179.94637        6.22522        4.00018       13.56612      -89.35359
822.00000      175.47010        6.45045        9.36737       13.94594      -89.38765
822.50000      170.09857        6.67459        9.37669       14.45585      -89.54847
823.00000      165.62229        6.89477        9.38602       15.06594      -90.00118
823.50000      161.14602        7.00901        9.39534       15.67567      -90.59983
824.00000      160.25076        6.96396        8.98851       16.46414      -90.22732
824.50000      164.72704        6.78667        8.99892       17.18919      -89.21157
825.00000      172.78433        6.41910        9.00914       16.73261      -84.98143
825.50000      183.52740        5.85153        9.01955       14.62018      -80.75128
826.00000      195.16571        5.37838        5.00865       11.39207      -72.42684
826.50000      211.28030        4.90090        5.01383        7.31531      -62.78412
827.00000      236.34744        4.42054        5.01883        5.82234      -52.97923
827.50000      266.78611        3.85586        5.02479        4.66919      -41.08364
828.00000      299.01530        3.33333        4.54061        3.88468      -36.57602
828.50000      330.34922        3.06306        4.54092        3.66847      -32.06840
829.00000      352.73060        2.90090        4.54124        3.47748      -30.03824
829.50000      365.26417        2.81081        4.54155        3.38739      -28.53060
830.00000      369.74045        2.77477        4.54187        3.33477      -28.57610
830.50000      370.63570        2.77477        4.54218        3.30162      -29.71286
831.00000      369.74045        2.77477        4.54249        3.25513      -29.66467
831.50000      369.74045        2.77477        4.54281        3.13513      -28.98586
832.00000      369.74045        2.80468        5.02787        3.01513      -28.62235
832.50000      371.53096        2.78198        5.02368        2.90703      -28.31831
833.00000      376.00723        2.74595        5.01949        2.84685      -29.15660
833.50000      379.58825        2.69081        5.01530        2.78667      -30.54985
834.00000      384.06453        2.63063        4.02192        2.72685      -31.33408
834.50000      390.33131        2.58559        4.02224        2.68793      -31.48950
835.00000      399.28386        2.54054        4.02255        2.66342      -32.53076
835.50000      405.55065        2.50955        4.02287        2.63387      -33.16365
836.00000      410.02692        2.49297        4.02318        2.60937      -32.74069
836.50000      413.60794        2.45946        4.58349        2.57153      -33.00781
837.00000      416.29371        2.43387        4.58675        2.51423      -34.35601
837.50000      420.76998        2.40613        4.58959        2.45694      -35.35646
838.00000      427.03677        2.37838        4.59225        2.36396      -34.96773
838.50000      437.77983        2.35604        4.59508        2.32793      -34.88711
839.00000      445.83712        2.32432        4.59774        2.30631      -36.14522
839.50000      456.58019        2.27928        4.60058        2.30631      -37.94387
840.00000      465.53274        2.21622        3.99063        2.33513      -38.22180
840.50000      472.69478        2.12613        3.99527        2.31748      -36.65587
841.00000      474.48529        2.12613        3.99972        2.21622      -35.95183
841.50000      471.79952        2.16216        4.00436        2.11495      -34.14690
842.00000      463.74223        2.22234        4.54960        2.05405      -30.17981
842.50000      451.20865        2.29333        4.54992        2.12613      -25.67219
843.00000      436.88457        2.40793        4.55023        2.33189      -22.48528
843.50000      420.76998        2.52252        4.55054        2.58270      -24.22384
844.00000      401.07437        2.59459        5.03464        2.86270      -27.02428
