~Version ---------------------------------------------------
VERS. 2.0 : CWLS LOG ASCII STANDARD - VERSION 2.0
WRAP. NO  : One line per depth step
DLM . SPACE : Column Data Section Delimiter
~Well ------------------------------------------------------
STRT.F          100 : START DEPTH
STOP.F       1786.5 : STOP DEPTH
STEP.F          0.5 : STEP
NULL.       -999.25 : NULL VALUE
COMP.                 WALSH & WATTS, INC. : COMPANY
WELL.                         SALMON E 41 : WELL
FLD .                        NORTH NOCONA : FIELD
CNTY.                            MONTAGUE : COUNTY
STAT.                               TEXAS : STATE
CTRY.                                 USA : COUNTRY
SEC .                                     : SECTION
TWP .                                     : TOWNSHIP
RGE .                                     : RANGE
LOC . 300' N OF NO. 40
150' W OF EL & 385' E OF NO. 87
F. ROBERTSON SURVEY : LOCATION
EKB .F                          : ELEVATION KELLY BUSHING
EDF .F                          : ELEVATION DERRICK FLOOR
EGL .F                      878 : ELEVATION GROUND LEVEL
PDAT.              GROUND LEVEL : PERMANENT DATUM
EPD .                       878 : ELEVATION PERMANENT DATUM
APD .                           : ABOVE PERMANENT DATUM
LMF .                        KB : LOG MEASURED FROM
DMF .                        KB : DRILLING MEASURED FROM
API .            42337037790000 : API NUMBER
UWI .            42337037790000 : UWI NUMBER
DIGC.                     NthDS : DIGITIZING COMPANY
~Params ----------------------------------------------------
SRVC.                LANE WELLS : LOGGING COMPANY
LOG .                       IEL : LOG
DATE.                1965-12-01 : RUN DATE
RUN .                         1 : RUN NUMBER
TDD .F                     1790 : TOTAL DEPTH DRILLER
TDL .F                     1791 : TOTAL DEPTH LOGGER
BOTL.F                     1787 : BOTTOM LOGGED INTERVAL
TOPL.F                      100 : TOP LOGGED INTERVAL
CSGS.IN                         : CASING SIZE
CSGD.F                          : CASING DRILLER
CSGL.F                          : CASING LOGGER
BS  .IN                       9 : BIT SIZE
MUD .                       GEL : MUD TYPE
MUDD.                        10 : MUD DENSITY
MUDV.                        80 : MUD VISCOSITY
PH  .                       9.0 : MUD PH
FL  .                       6.8 : FLUID LOSS
MUDS.                       PIT : SOURCE OF SAMPLE
RM  .OHMM                  1.95 : MUD RESISTIVITY
RMT .DEGF                    74 : RM TEMPERATURE
RMF .OHMM                   1.5 : MUD FILTRATE RESISTIVITY
RMFT.DEGF                    74 : RMF TEMPERATURE
RMC .OHMM                   2.3 : MUD CAKE RESISTIVITY
RMCT.DEGF                    74 : RMC TEMPERATURE
RMFS.                  MEASURED : RMF SOURCE
RMCS.                           : RMC SOURCE
RMBH.OHMM                   1.5 : MUD RESISTIVITY AT BHT
BHT .DEGF                    97 : BOTTOM HOLE TEMPERATURE
TIMC.                           : TIME CIRCULATION STOPPED
TIML.                           : TIME LOGGER ON BOTTOM
TMAX.DEGF                    97 : MAXIMUM RECORDED TEMPERATURE
UNIT.                    L-5172 : EQUIPMENT NUMBER
BASE.                      W.F. : BASE LOCATION
ENG .             ADAMS & BAKER : RECORDED BY
WIT .                   MR. NIX : WITNESSED BY
~Curve Information -----------------------------------------
DEPT.F          :DEPTH
CILD.MMHO       :
ILD.OHMM        :
ROP.FT/HR       :
SN.OHMM         :
SP.MV           :
~ASCII ------------------------------------------------------
# ...
1190.50000      415.49359        2.42945        -999.25        2.77498      -58.01769
1191.00000      410.28455        2.44676        -999.25        2.76659      -56.80829
1191.50000      405.93539        2.46098        -999.25        2.75779      -54.39702
1192.00000      403.58621        2.47560        -999.25        2.74940      -52.88763
1192.50000      402.57035        2.48982        -999.25        2.79774      -53.17820
1193.00000      404.63905        2.50404        -999.25        2.84570      -53.76876
1193.50000      408.76743        2.51271        -999.25        2.89404      -53.75934
1194.00000      412.88585        2.49915        -999.25        2.87017      -53.74991
1194.50000      417.01423        2.48520        -999.25        2.79868      -53.74049
1195.00000      421.14261        2.47164        -999.25        2.72719      -52.23109
1195.50000      425.26103        2.45769        -999.25        2.65570      -49.51984
1196.00000      427.32973        2.44414        -999.25        2.67508      -48.01044
1196.50000      426.46312        2.43058        -999.25        2.71748      -47.70102
1197.00000      419.39757        2.41663        -999.25        2.76811      -47.69160
1197.50000      410.91493        2.42441        -999.25        2.81011      -48.28216
1198.00000      409.23241        2.45054        -999.25        2.85251      -49.17272
1198.50000      407.55985        2.47706        -999.25        2.89451      -50.36327
1199.00000      403.88730        2.50318        -999.25        2.93690      -51.85382
1199.50000      398.89138        2.52971        -999.25        2.96223      -54.24434
1200.00000      394.37659        2.47087        1.49299        2.84427      -53.88849
1200.50000      391.85083        2.48469        1.49299        2.80175      -51.78332
1201.00000      394.89161        2.49891        1.49299        2.75883      -49.07936
1201.50000      397.92245        2.51313        1.32936        2.77702      -47.87237
1202.00000      396.18197        2.52736        1.00120        2.83528      -47.56357
1202.50000      392.64807        2.54158        1.00000        2.90497      -47.25477
1203.00000      389.70481        2.55849        0.99870        2.85689      -47.24536
1203.50000      385.52896        2.57271        0.99749        2.80881      -46.63717
1204.00000      380.53801        2.58693        0.99619        2.76073      -45.13078
1204.50000      375.54705        2.64282        0.99499        2.83170      -43.92380
1205.00000      365.78477        2.72648        0.99369        2.93243      -42.71493
1205.50000      354.82966        2.81014        0.99248        3.03315      -41.80734
1206.00000      343.87454        2.89381        1.49248        3.13388      -40.30096
1206.50000      332.91942        2.97747        1.48998        3.23461      -38.79457
1207.00000      323.61023        3.06114        1.48747        3.32572      -37.28819
1207.50000      321.07452        3.07923        1.48497        3.35224      -36.08121
1208.00000      321.61036        3.08076        1.48246        3.30813      -36.37119
1208.50000      327.31514        3.05014        1.47996        3.24656      -37.25997
1209.00000      334.31215        2.99849        1.47745        3.18499      -37.84936
1209.50000      341.29922        2.94644        1.47495        3.12303      -38.43874
1210.00000      346.88471        2.89440        1.24248        3.11582      -39.02813
1210.50000      350.34299        2.84275        1.01202        3.18956      -40.21630
1211.00000      349.85497        2.84943        1.01202        3.25894      -42.00139
1211.50000      343.44256        2.94421        1.01202        3.31285      -41.09380
1212.00000      337.03015        3.03938        1.01202        3.37737      -40.48560
1212.50000      320.93175        3.16898        1.01202        3.43088      -39.57801
1213.00000      304.01247        3.34431        1.01202        3.54271      -38.96981
1213.50000      287.09320        3.51924        1.01202        3.69304      -39.55920
1214.00000      270.17392        3.69457        1.01202        3.84337      -40.44798
1214.50000      260.80925        3.86950        1.48297        3.95243      -42.83373
1215.00000      256.10656        3.98411        1.48297        3.99999      -44.92009
1215.50000      262.46740        4.00786        1.48297        4.04714      -46.70706
1216.00000      275.46833        3.89907        1.48297        4.05779      -48.19463
1216.50000      290.11935        3.66281        1.01202        3.93264      -49.08341
1217.00000      304.77037        3.42188        1.01202        3.77544      -50.57098
1217.50000      322.35954        3.18968        1.01202        3.80871      -52.65734
1218.00000      330.56927        3.07216        1.01202        3.94515      -55.34249
1218.50000      331.21445        3.03400        0.69138        4.14508      -58.62643
1219.00000      321.50186        3.11489        0.69138        4.38469      -61.31158
1219.50000      302.21680        3.19577        0.69138        4.74335      -64.89492
1220.00000      280.34727        3.42904        0.69138        5.30072      -69.07705
1220.50000      257.83162        3.81706        0.69138        5.73873      -71.46280
1221.00000      230.81881        4.28236        0.69138        6.13707      -72.95037
1221.50000      211.20572        4.67038        0.69138        6.65445      -73.53787
1222.00000      203.23268        4.96952        0.69138        7.21152      -74.12726
1222.50000      196.23380        5.26865        0.69138        7.64953      -75.01604
1223.00000      193.10167        5.29002        0.69138        8.16722      -76.20421
1223.50000      192.54408        5.35106        0.69138        8.56556      -77.09299
1224.00000      193.68627        5.31290        0.69138        8.92421      -77.98177
1224.50000      194.83840        5.31443        0.69138        9.16383      -78.27176
1225.00000      193.64463        5.34165        0.69138        9.44312      -78.26236
1225.50000      180.96569        5.50547        0.69138       10.19889      -77.35477
1226.00000      170.40818        5.74667        0.69138       11.07341      -75.54899
1226.50000      159.84074        6.29778        0.89850       12.42410      -73.44382
1227.00000      149.27329        6.84850        1.00200       14.25127      -71.93743
1227.50000      138.71579        7.39961        1.00200       16.19718      -72.52494
1228.00000      128.14834        8.06054        1.00200       17.70690      -75.80888
1228.50000      123.74387        8.52832        0.89850       17.51001      -77.89524
1229.00000      124.89600        8.66199        0.69138       16.47982      -78.78402
1229.50000      132.05205        8.50002        0.69138       15.17156      -78.77461
1230.00000      143.80629        7.89363        0.69138       13.78423      -78.16642
1230.50000      154.91857        7.28763        0.69138       12.63500      -76.95943
1231.00000      166.03086        6.73044        0.69138       11.80321      -76.65063
1231.50000      177.14314        6.36808        0.69138       10.97143      -76.64122
1232.00000      188.25542        6.00573        0.69138       10.09996      -76.63182
1232.50000      200.00388        5.64377        0.69138        9.34754      -75.72423
1233.00000      223.99875        5.18698        0.69138        8.63480      -74.21784
1233.50000      251.02541        4.66788        0.69138        7.40620      -70.91321
1234.00000      278.05206        4.14839        0.69138        6.21728      -66.71227
1234.50000      305.06878        3.63921        0.69138        5.46456      -62.51133
1235.00000      332.09543        3.28360        0.69138        4.67245      -58.01100
1235.50000      359.11214        2.96768        0.69138        3.99939      -53.21127
1236.00000      386.13880        2.73111        0.69138        3.56442      -50.20791
1236.50000      398.12583        2.61359        0.99198        3.32786      -48.70153
1237.00000      410.12279        2.49607        0.99198        3.13128      -48.09145
