~Version ---------------------------------------------------
VERS. 2.0 : CWLS LOG ASCII STANDARD - VERSION 2.0
WRAP. NO  : One line per depth step
DLM . SPACE : Column Data Section Delimiter
~Well ------------------------------------------------------
STRT.F        490.5 : START DEPTH
STOP.F       1005.0 : STOP DEPTH
STEP.F          0.5 : STEP
NULL.       -999.25 : NULL VALUE
COMP.                       WALSH & WATTS : COMPANY
WELL.                           HYNDS B 6 : WELL
FLD .                           N. NOCONA : FIELD
CNTY.                            MONTAGUE : COUNTY
STAT.                               TEXAS : STATE
CTRY.                                 USA : COUNTRY
SEC .                                     : SECTION
TWP .                                     : TOWNSHIP
RGE .                                     : RANGE
LOC . 550' FR W/L OF LEASE, 150' FR S/L OF LEASE, 400' FR NO 4 WELL, 300' FR NO 3 WELL : LOCATION
EKB .F                          : ELEVATION KELLY BUSHING
EDF .F                          : ELEVATION DERRICK FLOOR
EGL .F                          : ELEVATION GROUND LEVEL
PDAT.                        GL : PERMANENT DATUM
EPD .                           : ELEVATION PERMANENT DATUM
APD .                         6 : ABOVE PERMANENT DATUM
LMF .                        KB : LOG MEASURED FROM
DMF .                        KB : DRILLING MEASURED FROM
API .            42337038650000 : API NUMBER
UWI .                           : UWI NUMBER
DIGC.                     NthDS : DIGITIZING COMPANY
~Params ----------------------------------------------------
SRVC.              SCHLUMBERGER : LOGGING COMPANY
LOG .                        ML : LOG
DATE.                1957-10-13 : RUN DATE
RUN .                         1 : RUN NUMBER
TDD .F                     1015 : TOTAL DEPTH DRILLER
TDL .F                     1008 : TOTAL DEPTH LOGGER
BOTL.F                     1005 : BOTTOM LOGGED INTERVAL
TOPL.F                      500 : TOP LOGGED INTERVAL
CSGS.IN                         : CASING SIZE
CSGD.F                          : CASING DRILLER
CSGL.F                          : CASING LOGGER
BS  .IN                         : BIT SIZE
MUD .                       GEL : MUD TYPE
MUDD.                        10 : MUD DENSITY
MUDV.                        53 : MUD VISCOSITY
PH  .                           : MUD PH
FL  .                           : FLUID LOSS
MUDS.                   MUD PIT : SOURCE OF SAMPLE
RM  .OHMM                   1.7 : MUD RESISTIVITY
RMT .DEGF                    68 : RM TEMPERATURE
RMF .OHMM                   1.1 : MUD FILTRATE RESISTIVITY
RMFT.DEGF                    90 : RMF TEMPERATURE
RMC .OHMM                   1.5 : MUD CAKE RESISTIVITY
RMCT.DEGF                    90 : RMC TEMPERATURE
RMFS.                           : RMF SOURCE
RMCS.                           : RMC SOURCE
RMBH.OHMM                   1.3 : MUD RESISTIVITY AT BHT
BHT .DEGF                    90 : BOTTOM HOLE TEMPERATURE
TIMC.                           : TIME CIRCULATION STOPPED
TIML.                           : TIME LOGGER ON BOTTOM
TMAX.DEGF                    90 : MAXIMUM RECORDED TEMPERATURE
UNIT.                       785 : EQUIPMENT NUMBER
BASE.                        WF : BASE LOCATION
ENG .                     JONES : RECORDED BY
WIT .                       NIX : WITNESSED BY
~Curve Information -----------------------------------------
DEPT.F          :DEPTH
CALM.IN         :
MINV.OHMM       :
MNOR.OHMM       :
SP.MV           :
~ASCII ------------------------------------------------------
# ...
605.50000        8.43426        9.50000       10.73536      -86.92979
606.00000        8.43426        9.88540       12.05492      -87.26595
606.50000        8.43426        9.32007       11.75517      -86.69314
607.00000        8.43426       10.21970       12.04773      -85.51794
607.50000        8.43426        9.98220       11.84621      -84.17332
608.00000        8.56872       10.19810       12.07292      -79.87053
608.50000        8.70319        9.84185       11.09521      -71.95609
609.00000        8.74263       10.65151        9.78788      -66.42432
609.50000        8.90040        3.27462        6.00947      -62.65938
610.00000        8.74675        3.81439        3.52651      -69.97950
610.50000        8.52390       10.54356       10.46655      -76.86665
611.00000        8.47012        9.94369       10.84583      -82.02193
611.50000        8.47012        9.88144       11.80303      -84.32661
612.00000        8.43175        9.92462       12.16288      -85.11455
612.50000        8.41633       10.16572       12.37159      -83.90439
613.00000        8.37151       10.00379       11.87500      -79.94852
613.50000        7.84944        8.61585        9.58744      -74.91426
614.00000        7.05378        5.55606        6.02746      -68.96028
614.50000        7.02384        2.53945        3.10657      -56.74305
615.00000        6.93044        2.10259        2.53333      -50.66536
615.50000        6.58317        2.28720        2.46316      -49.02223
616.00000        6.42880        2.62689        2.54521      -47.77173
616.50000        6.40837        2.36708        2.62689      -46.52393
617.00000        6.40837        2.18320        2.48295      -47.49205
617.50000        6.40837        2.30303        2.41098      -48.90659
618.00000        6.40837        2.12311        2.33901      -52.74683
618.50000        6.40837        2.23106        2.45165      -55.57861
619.00000        6.40837        2.38687        2.53333      -58.56635
619.50000        6.40837        2.32714        2.56932      -59.90022
620.00000        6.40837        2.26705        2.46136      -60.81994
620.50000        6.40837        2.37500        2.59091      -61.73966
621.00000        6.40837        2.26705        2.35953      -62.65938
621.50000        6.71315        2.15909        2.49375      -62.21028
622.00000        7.54233        2.23106        2.87159      -62.32322
622.50000        7.73506        2.30303        3.11269      -65.99404
623.00000        7.73506        2.99286        3.59129      -71.64145
623.50000        7.78633        3.05871        4.44413      -77.28886
624.00000        7.91434        3.66758        5.11884      -82.82870
624.50000        7.93317        4.27680        5.41572      -86.72810
625.00000        7.95217        4.49811        5.52367      -87.23906
625.50000        7.97100        4.46212        5.10985      -85.51794
626.00000        7.99376        4.52905        4.68990      -82.82870
626.50000        8.03213        6.12246        5.95909      -80.40838
627.00000        8.02783        6.09187        6.49886      -81.21515
627.50000        7.98014        5.94470        6.51326      -84.78916
628.00000        7.91040        6.23258        6.41430      -87.50798
628.50000        7.73990        6.12930        6.09943      -87.88447
629.00000        7.54430        5.68561        5.78456      -87.36545
629.50000        7.46614        7.10485        6.60934      -85.85410
630.00000        7.48765        8.17576        7.61439      -85.85410
630.50000        7.65940        8.42045        8.23441      -86.86256
631.00000        8.08771        9.28913       10.00379      -88.74503
631.50000        8.38048        8.59534        8.64140      -90.96097
632.00000        8.40432        7.90119        7.95265      -93.17421
632.50000        8.38442        8.19555        8.47443      -95.39015
633.00000        8.41633        8.71229        8.99621      -97.65718
633.50000        8.47012        9.03220        9.78788     -100.42441
634.00000        8.49217        8.80081        9.64394     -102.72909
634.50000        8.49916        8.83176       10.11174     -105.41833
635.00000        8.50598        8.91704        9.47841     -108.10758
635.50000        8.46116        8.43089        8.52841     -110.79682
636.00000        8.46528        7.58237        8.07860     -113.48606
636.50000        8.48159        7.95985        8.94835     -116.17530
637.00000        8.48930        8.76231        9.85985     -118.86455
637.50000        8.49110        8.51653       10.22365     -120.52650
638.00000        8.49307        8.11098        9.78392     -122.18576
638.50000        8.49504        8.25672        9.68892     -123.84771
639.00000        8.49701        8.50214        9.82386     -125.43436
639.50000        8.49898        8.49242        9.78788     -126.96992
640.00000        8.50096        8.31250        9.46401     -128.50817
640.50000        8.50293        8.60650        9.42803     -130.04373
641.00000        8.50472        8.38447        9.65437     -130.50628
641.50000        8.48805        8.31250        9.34562     -129.35259
642.00000        8.44323        7.95265        8.73244     -126.66335
642.50000        8.39841        8.67235        8.31970     -123.97411
643.00000        8.34462        7.79072        7.70975     -121.39243
643.50000        8.29084        6.88750        6.92097     -118.97212
644.00000        8.38048        6.35888        7.06850     -116.55180
644.50000        8.38855        7.41288        6.78566     -114.78497
645.00000        8.39679        7.46326        7.34091     -114.00240
645.50000        8.34713        7.31536        6.76011     -113.21714
646.00000        8.36255        5.54167        5.93750     -113.36773
646.50000        8.41633        6.56112        6.44129     -113.60170
647.00000        8.41633        6.60682        6.69318     -114.17720
647.50000        8.41633        6.02746        6.18939     -114.91674
648.00000        8.41633        6.49526        6.44129     -115.69393
648.50000        8.48034        6.80114        6.54924     -116.47381
649.00000        8.49325        7.52083        7.43447     -117.25100
649.50000        8.47227        7.63598        8.15417     -116.74811
650.00000        8.45112        8.62197        8.85947     -116.00319
650.50000        8.43094        8.01562        8.81629     -114.71687
651.00000        8.42897        8.35316        9.12468     -113.61377
651.50000        8.42682        8.31250        9.09229     -112.51068
652.00000        8.42486        8.36036        9.21212     -111.66793
652.50000        8.42289        8.29811        8.78930     -111.86920
653.00000        8.42092        8.13257        8.70833     -112.07047
653.50000        8.41896        8.06564        8.55540     -111.68934
654.00000        8.41699        8.63636        8.51042     -110.91636
654.50000        8.34524        9.17614        7.85189     -110.14339
655.00000        8.28298        6.51326        7.06490     -109.37041
655.50000        8.36385        7.09621        8.35568     -108.90501
656.00000        8.39882        8.91237        9.23011     -108.89962
656.50000        8.37538        9.21212       10.21970     -108.89423
657.00000        8.35194        9.57197       10.36364     -108.88885
657.50000        8.39524       10.13873       10.83144     -108.88346
658.00000        8.38218       10.67203       12.14848     -108.87807
658.50000        8.32063       10.25568       11.53314     -108.87269
659.00000        8.25908        9.32007        9.98939     -109.29672
659.50000        8.25944        8.88826        8.81629     -109.82811
660.00000        8.25980        7.01704        7.79072     -108.31975
660.50000        8.26016        6.08144        5.92203     -106.77650
661.00000        8.33209        5.79356        6.14729     -107.13881
661.50000        8.40706        7.66477        7.73674     -107.49843
662.00000        8.42227        9.55398       10.22869     -107.49304
662.50000        8.28844       10.33485       11.54070     -107.48765
