~Version ---------------------------------------------------
VERS. 2.0 : CWLS LOG ASCII STANDARD - VERSION 2.0
WRAP. NO  : One line per depth step
DLM . SPACE : Column Data Section Delimiter
~Well ------------------------------------------------------
STRT.F          227 : START DEPTH
STOP.F       2033.0 : STOP DEPTH
STEP.F          0.5 : STEP
NULL.       -999.25 : NULL VALUE
COMP.                  WALSH & WATTS, INC : COMPANY
WELL.                          HYNDS A 10 : WELL
FLD .                           N. NOCONA : FIELD
CNTY.                            MONTAGUE : COUNTY
STAT.                               TEXAS : STATE
CTRY.                                 USA : COUNTRY
SEC .                                     : SECTION
TWP .                                     : TOWNSHIP
RGE .                                     : RANGE
LOC .  244' SE OF NO. 5A J.J. WALL SURVEY : LOCATION
EKB .F                    903.5 : ELEVATION KELLY BUSHING
EDF .F                          : ELEVATION DERRICK FLOOR
EGL .F                      897 : ELEVATION GROUND LEVEL
PDAT.                        GL : PERMANENT DATUM
EPD .                           : ELEVATION PERMANENT DATUM
APD .                         6 : ABOVE PERMANENT DATUM
LMF .                           : LOG MEASURED FROM
DMF .                           : DRILLING MEASURED FROM
API .            42337037830000 : API NUMBER
UWI .            42337037830000 : UWI NUMBER
DIGC.                     NthDS : DIGITIZING COMPANY
~Params ----------------------------------------------------
SRVC.              SCHLUMBERGER : LOGGING COMPANY
LOG .                       IEL : LOG
DATE.                1957-10-20 : RUN DATE
RUN .                         1 : RUN NUMBER
TDD .F                          : TOTAL DEPTH DRILLER
TDL .F                          : TOTAL DEPTH LOGGER
BOTL.F                     2039 : BOTTOM LOGGED INTERVAL
TOPL.F                          : TOP LOGGED INTERVAL
CSGS.IN                         : CASING SIZE
CSGD.F                      227 : CASING DRILLER
CSGL.F                      227 : CASING LOGGER
BS  .IN                    8.75 : BIT SIZE
MUD .                       GEL : MUD TYPE
MUDD.                       9.9 : MUD DENSITY
MUDV.                        50 : MUD VISCOSITY
PH  .                           : MUD PH
FL  .                           : FLUID LOSS
MUDS.                           : SOURCE OF SAMPLE
RM  .OHMM                   2.3 : MUD RESISTIVITY
RMT .DEGF                    60 : RM TEMPERATURE
RMF .OHMM                   .76 : MUD FILTRATE RESISTIVITY
RMFT.DEGF                    96 : RMF TEMPERATURE
RMC .OHMM                   1.7 : MUD CAKE RESISTIVITY
RMCT.DEGF                    96 : RMC TEMPERATURE
RMFS.                           : RMF SOURCE
RMCS.                           : RMC SOURCE
RMBH.OHMM                   1.4 : MUD RESISTIVITY AT BHT
BHT .DEGF                    96 : BOTTOM HOLE TEMPERATURE
TIMC.                           : TIME CIRCULATION STOPPED
TIML.                           : TIME LOGGER ON BOTTOM
TMAX.DEGF                       : MAXIMUM RECORDED TEMPERATURE
UNIT.                       785 : EQUIPMENT NUMBER
BASE.                        WF : BASE LOCATION
ENG .                     JONES : RECORDED BY
WIT .               BALCH & NIX : WITNESSED BY
~Curve Information -----------------------------------------
DEPT.F          :DEPTH
CILD.MMHO       :
ILD.OHMM        :
ROP.FT/HR       :
SN.OHMM         :
SP.MV           :
~ASCII ------------------------------------------------------
# ...
702.00000      290.15217        3.46739        -999.25        3.63351      -26.63045
702.50000      298.23279        3.30739        -999.25        3.61874      -28.98552
703.00000      310.78962        3.20000        -999.25        3.60360      -30.61596
703.50000      322.45122        3.12793        -999.25        3.55207      -31.34060
704.00000      332.32701        3.06306        -999.25        3.37694      -31.52175
704.50000      337.72191        3.00000        -999.25        3.13513      -31.34060
705.00000      342.22156        2.90450        -999.25        2.99099      -32.06523
705.50000      350.30218        2.88793        -999.25        2.88288      -33.33335
706.00000      361.06853        2.86847        -999.25        2.73874      -35.68842
706.50000      374.52061        2.74234        -999.25        2.85333      -36.23190
707.00000      384.39641        2.65622        -999.25        2.96793      -35.68842
707.50000      387.10557        2.63063        -999.25        3.11279      -34.05799
708.00000      379.96707        2.76937        -999.25        3.26558      -30.79712
708.50000      366.56187        2.90775        -999.25        3.42991      -29.71016
709.00000      349.57569        3.04865        -999.25        3.64180      -31.34060
709.50000      331.69427        3.19279        -999.25        3.85369      -34.05799
710.00000      318.28907        3.29369        -999.25        4.06558      -36.05074
710.50000      312.94105        3.33694        -999.25        4.01549      -36.77538
711.00000      308.48827        3.32973        -999.25        3.78378      -35.68842
711.50000      308.51171        3.29369        -999.25        3.55207      -32.60871
712.00000      313.90661        3.21117        -999.25        3.34486      -28.98552
712.50000      324.67764        3.09766        -999.25        3.15423      -26.44929
713.00000      335.44399        2.98414        -999.25        2.96360      -25.18118
713.50000      349.79132        2.87099        -999.25        2.80036      -25.18118
714.00000      363.24340        2.75748        -999.25        2.74919      -24.27538
714.50000      374.90499        2.66234        -999.25        2.69766      -22.64494
715.00000      381.19513        2.63964        -999.25        2.69549      -21.92031
715.50000      382.11849        2.65297        -999.25        2.78198      -22.46379
716.00000      380.35145        2.68036        -999.25        2.85405      -24.09422
716.50000      378.58440        2.71856        -999.25        2.92288      -26.26813
717.00000      373.23638        2.79892        -999.25        2.98919      -26.81161
717.50000      365.20263        2.88288        -999.25        3.05549      -25.36234
718.00000      353.58791        2.97297        -999.25        3.12180      -24.45654
718.50000      344.65892        3.02703        -999.25        3.15748      -23.36958
719.00000      336.62518        3.04396        -999.25        3.18486      -23.91306
719.50000      331.27716        3.07207        -999.25        3.21261      -24.81886
720.00000      327.71962        3.10018        -999.25        3.24036      -25.72465
720.50000      324.16209        3.13405        -999.25        3.27387      -25.54349
721.00000      319.71400        3.16216        -999.25        3.27928      -24.45654
721.50000      317.05171        3.19027        -999.25        3.27928      -23.73190
722.00000      316.17991        3.21441        -999.25        3.27928      -23.55074
722.50000      316.20334        3.23243        -999.25        3.27928      -23.91306
723.00000      318.01727        3.21441        -999.25        3.27928      -24.09422
723.50000      321.62168        3.14234        -999.25        3.21910      -23.18842
724.00000      328.80705        3.06919        -999.25        3.15171      -21.55799
724.50000      335.99243        2.99387        -999.25        3.05477      -21.01451
725.00000      345.86823        2.91892        -999.25        2.95784      -22.28263
725.50000      353.05361        2.83243        -999.25        2.93189      -24.45654
726.00000      362.92472        2.76036        -999.25        2.94847      -26.81161
726.50000      371.90058        2.70883        -999.25        2.93333      -25.90581
727.00000      377.29548        2.73874        -999.25        2.89730      -24.09422
727.50000      379.10940        2.75892        -999.25        2.90775      -22.46379
728.00000      372.87083        2.78667        -999.25        2.94955      -20.65219
728.50000      363.94184        2.84685        -999.25        2.99099      -20.83335
729.00000      356.80333        2.90703        -999.25        3.12324      -21.73915
729.50000      349.66483        2.96685        -999.25        3.25513      -23.00726
730.00000      344.31681        3.02703        -999.25        3.38739      -25.36234
730.50000      337.17830        3.12685        -999.25        3.43531      -28.56342
731.00000      329.14456        3.21009        -999.25        3.45946      -31.46197
731.50000      320.21557        3.27567        -999.25        3.45946      -31.88407
732.00000      314.86755        3.32973        -999.25        3.45946      -28.13226
732.50000      313.99574        3.31820        -999.25        3.42342      -23.73190
733.00000      315.80967        3.26270        -999.25        3.37838      -22.28263
733.50000      318.52352        3.20721        -999.25        3.33333      -23.55074
734.00000      320.33744        3.19279        -999.25        3.26126      -23.55074
734.50000      321.25612        3.13117        -999.25        3.17117      -22.46379
735.00000      323.96529        3.03099        -999.25        3.09910      -22.28263
735.50000      330.25543        3.01153        -999.25        3.09910      -22.82610
736.00000      340.12653        3.00000        -999.25        3.12324      -24.81886
736.50000      351.78813        2.93225        -999.25        3.13513      -25.36234
737.00000      359.87344        2.86486        -999.25        3.10739      -23.73190
737.50000      365.26833        2.80468        -999.25        2.96865      -21.92031
738.00000      367.97750        2.77477        -999.25        2.83027      -19.20292
738.50000      371.58191        2.72000        -999.25        2.73622      -17.75364
739.00000      376.97680        2.66522        -999.25        2.67171      -19.38408
739.50000      386.84791        2.61009        -999.25        2.60757      -21.55799
740.00000      399.40943        2.55531        -999.25        2.64432      -23.36958
740.50000      405.69957        2.51171        -999.25        2.73153      -25.18118
741.00000      409.30398        2.49369        -999.25        2.76937      -26.81161
741.50000      408.43217        2.51063        -999.25        2.76036      -27.53625
742.00000      406.66513        2.55063        -999.25        2.75135      -27.53625
742.50000      404.00283        2.59063        -999.25        2.74234      -26.26813
743.00000      400.44530        2.63063        -999.25        2.75531      -23.73190
743.50000      395.09728        2.68396        -999.25        2.78306      -20.83335
744.00000      387.95878        2.73730        -999.25        2.81081      -19.56524
744.50000      376.34875        2.79063        -999.25        2.94595      -21.37683
745.00000      370.10548        2.84432        -999.25        3.08108      -25.00002
745.50000      365.65271        2.90811        -999.25        3.13513      -28.62320
746.00000      356.72372        2.98054        -999.25        3.10198      -30.07248
746.50000      349.58521        3.05802        -999.25        3.06018      -28.62320
747.00000      344.23719        3.13513        -999.25        3.02414      -26.99277
747.50000      343.36539        3.08360        -999.25        3.01045      -26.63045
748.00000      347.86504        3.00288        -999.25        2.99640      -26.99277
748.50000      354.15518        2.90306        -999.25        3.03423      -26.26813
749.00000      360.45000        2.88288        -999.25        3.12468      -26.26813
