~Version ---------------------------------------------------
VERS. 2.0 : CWLS LOG ASCII STANDARD - VERSION 2.0
WRAP. NO  : One line per depth step
DLM . SPACE : Column Data Section Delimiter
~Well ------------------------------------------------------
STRT.F          800 : START DEPTH
STOP.F       1756.5 : STOP DEPTH
STEP.F          0.5 : STEP
NULL.       -999.25 : NULL VALUE
COMP.                 WALSH & WATTS, INC. : COMPANY
WELL.                       SALMON D E 6D : WELL
FLD .                             REGULAR : FIELD
CNTY.                            MONTAGUE : COUNTY
STAT.                               TEXAS : STATE
CTRY.                                 USA : COUNTRY
SEC .                                     : SECTION
TWP .                                     : TOWNSHIP
RGE .                                     : RANGE
LOC .  460 FSL 755 FEL
F. ROBERTSON A-620 : LOCATION
EKB .F                      880 : ELEVATION KELLY BUSHING
EDF .F                      878 : ELEVATION DERRICK FLOOR
EGL .F                      874 : ELEVATION GROUND LEVEL
PDAT.                        GL : PERMANENT DATUM
EPD .                       874 : ELEVATION PERMANENT DATUM
APD .                           : ABOVE PERMANENT DATUM
LMF .                        KB : LOG MEASURED FROM
DMF .                        KB : DRILLING MEASURED FROM
API .            42337016430000 : API NUMBER
UWI .            42337016430000 : UWI NUMBER
DIGC.                     NthDS : DIGITIZING COMPANY
~Params ----------------------------------------------------
SRVC.              SCHLUMBERGER : LOGGING COMPANY
LOG .                   CNFD/ML : LOG
DATE.                2005-08-03 : RUN DATE
RUN .                         1 : RUN NUMBER
TDD .F                     1750 : TOTAL DEPTH DRILLER
TDL .F                     1750 : TOTAL DEPTH LOGGER
BOTL.F                     1750 : BOTTOM LOGGED INTERVAL
TOPL.F                      980 : TOP LOGGED INTERVAL
CSGS.IN                       7 : CASING SIZE
CSGD.F                      880 : CASING DRILLER
CSGL.F                      880 : CASING LOGGER
BS  .IN                     6.5 : BIT SIZE
MUD .                       FGM : MUD TYPE
MUDD.                       0.2 : MUD DENSITY
MUDV.                        80 : MUD VISCOSITY
PH  .                        11 : MUD PH
FL  .                         7 : FLUID LOSS
MUDS.                       PIT : SOURCE OF SAMPLE
RM  .OHMM                  1.70 : MUD RESISTIVITY
RMT .DEGF                    70 : RM TEMPERATURE
RMF .OHMM                  1.33 : MUD FILTRATE RESISTIVITY
RMFT.DEGF                    70 : RMF TEMPERATURE
RMC .OHMM                  2.67 : MUD CAKE RESISTIVITY
RMCT.DEGF                    70 : RMC TEMPERATURE
RMFS.                      MEAS : RMF SOURCE
RMCS.                       CAL : RMC SOURCE
RMBH.OHMM                  1.47 : MUD RESISTIVITY AT BHT
BHT .DEGF                    98 : BOTTOM HOLE TEMPERATURE
TIMC.                     2100  : TIME CIRCULATION STOPPED
TIML.                     0300  : TIME LOGGER ON BOTTOM
TMAX.DEGF                    98 : MAXIMUM RECORDED TEMPERATURE
UNIT.                       303 : EQUIPMENT NUMBER
BASE.                   WICHITA : BASE LOCATION
ENG .              DAVID PARKER : RECORDED BY
WIT .              MR. BURLESON : WITNESSED BY
~Curve Information -----------------------------------------
DEPT.F          :DEPTH
CALD.IN         :
DPHI.%          :
GRD.GAPI        :
MINV.OHMM       :
MNOR.OHMM       :
NPHI.%          :
~ASCII ------------------------------------------------------
# ...
1160.00000        6.50000       14.81248       80.44353        4.73049        4.02134       21.41778
1160.50000        6.54193       16.81201       83.97276        4.54872        3.56028       22.59755
1161.00000        6.59617       18.46035       84.97982        4.50503        3.56028       23.49607
1161.50000        6.65040       17.39808       86.99695        4.70475        3.56028       24.22176
1162.00000        6.71714       16.47066       87.26611        4.80851        3.75141       25.53473
1162.50000        6.78689       15.43607       86.59171        4.99028        4.07127       26.98415
1163.00000        6.85867       13.16245       86.70663        5.32340        4.26241       27.67662
1163.50000        6.93831       12.45096       88.00401        5.09794        4.01276       28.01315
1164.00000        7.01774       15.10105       86.55845        4.59709        3.70070       28.03331
1164.50000        7.09738       19.74009       83.70361        4.36616        3.32624       28.08629
1165.00000        7.18004       20.55951       80.14111        4.30141        3.54936       28.17486
1165.50000        7.26754       18.63904       76.10986        4.49645        3.40425       28.76213
1166.00000        7.35484       17.59417       71.30139        4.94113        3.59929       28.57545
1166.50000        7.43548       17.99003       66.29938        4.82411        4.18439       27.51120
1167.00000        7.52016       18.43097       59.57660        4.74999        4.29049       25.96327
1167.50000        7.56351       18.75525       52.77216        5.14631        4.39737       24.75349
1168.00000        7.58871       16.06914       49.70261        5.82269        4.50347       22.70212
1168.50000        7.47439       13.78357       47.56753        5.69787        4.60957       21.02883
1169.00000        7.23931       11.21333       45.43547        5.68070        4.67822       19.00040
1169.50000        6.99395       11.15558       44.32559        6.10666        4.72191       16.80587
1170.00000        6.74193       10.38952       44.75805        6.36879        4.57446       15.59173
1170.50000        6.56048       10.18504       45.06047        5.97872        4.37943       15.05505
1171.00000        6.42601       10.53186       48.32660        5.58865        4.32248       14.67142
1171.50000        6.29657       11.58698       53.14414        5.41312        4.50269       14.39496
1172.00000        6.16835       13.10331       59.74293        5.31560        4.65248       14.46139
1172.50000        6.08064       14.57606       65.70059        5.21808        4.50581       15.07239
1173.00000        6.07157       16.51587       68.67639        5.35460        4.60021       15.81983
1173.50000        6.09677       17.52077       71.01410        5.76028        5.00744       16.82670
1174.00000        6.11532       17.69911       72.36893        4.85531        5.21964       17.83397
1174.50000        6.10685       14.84532       69.79837        4.05957        5.43262       19.70813
1175.00000        6.09839       13.56711       67.82962        4.73049        5.66666       21.61116
1175.50000        6.05202       13.96297       68.25906        6.12382        6.32666       22.96843
1176.00000        5.99597       13.47889       65.81853        9.64538        6.98666       23.92943
1176.50000        5.98689       11.25470       62.65523        9.45815        7.00616       20.93999
1177.00000        5.94093        9.17881       60.93748        6.90397        6.06297       17.89913
1177.50000        5.89516       10.26676       61.69353        6.06765        5.12056       16.82776
1178.00000        5.85847       13.25301       61.69353        5.98574        5.12056       16.65413
1178.50000        5.82177       13.80706       66.15422        6.09184        5.12056       16.20960
1179.00000        5.83831       12.46281       72.01510        6.12148        4.97624       15.68834
1179.50000        5.86794       12.72697       74.54635        6.10588        4.85687       15.05120
1180.00000        5.89758       13.05679       76.27619        6.08950        4.83425       14.71780
1180.50000        5.92883       13.65038       78.12397        6.07311        4.87794       15.04761
1181.00000        5.96230       13.33992       79.11288        6.05673        4.77340       17.26940
1181.50000        5.99597       12.96894       78.81046        5.97872        4.63141       18.71882
1182.00000        6.03911       12.84593       79.23385        5.95297        4.65950       19.37016
1182.50000        6.06754       12.59281       79.66934        6.02553        4.80148       19.72647
1183.00000        6.08568       12.63709       78.49595        6.29077        4.87872       20.08278
1183.50000        6.09677       12.41679       79.27317        6.09574        4.85921       20.44186
1184.00000        6.09677       11.79903       82.48486        6.05673        4.83971       20.80450
1184.50000        6.09677       12.00981       84.37498        6.16283        4.82021       21.16753
1185.00000        6.09677       12.42781       84.12700        5.91475        4.73751       21.24187
1185.50000        6.09677       13.24723       85.22780        5.66666        4.56042       21.31659
1186.00000        6.09677       13.40224       85.73587        5.37411        4.50503       21.40603
1186.50000        6.09677       13.11353       83.77014        5.39361        4.72191       21.76234
1187.00000        6.09677       12.82481       80.74595        5.58865        4.74999       22.11866
1187.50000        6.09677       12.83824       80.69454        5.78368        4.65248       22.00791
1188.00000        6.09677       12.70693       77.41934        5.52390        4.76950       21.89716
1188.50000        6.09677       13.14234       74.14413        5.97872        4.88652       21.78601
1189.00000        6.19758       13.18226       73.14313        5.75950        4.49645       21.70492
1189.50000        6.21129       12.86626       73.08567        5.53950        4.57446       21.69027
1190.00000        6.22480       12.34263       73.58768        5.32028        4.69694       21.91331
1190.50000        6.23851       13.08453       75.69555        5.38815        4.75312       22.13595
1191.00000        6.25202       13.40327       78.87095        5.52702        4.80851       22.35898
1191.50000        6.26573       13.43925       81.17841        5.66666        4.66184       22.97749
1192.00000        6.27923       13.58002       83.54333        5.51063        4.51595       23.59561
1192.50000        6.29294       13.87701       87.70159        5.35460        4.36929       24.21413
1193.00000        6.30907       14.17400       90.00905        5.32574        4.34042       24.89157
1193.50000        6.32681       12.95511       89.44050        5.30077        4.02836       25.84782
1194.00000        6.34456       12.55329       88.87498        5.27659        3.95035       26.25673
1194.50000        6.34456       12.12537       88.30643        5.38035        3.88950       26.45880
1195.00000        6.23790       12.38795       86.98183        5.48489        3.54312       26.31128
1195.50000        6.16794       12.11387       85.94756        5.58865        4.41843       25.88770
1196.00000        6.08064       11.84295       85.34272        5.58865        4.32092       25.45543
1196.50000        5.99335       11.84333       83.77014        5.58865        4.30687       25.34230
1197.00000        5.97581       11.67998       80.74595        5.49503        4.41843       25.39726
1197.50000        5.97581       12.35829       81.75300        5.37801        5.15957       25.38933
1198.00000        5.95282       12.25980       81.95562        5.93971        5.07687       24.89536
1198.50000        5.89516       12.16131       82.35784        5.76730        4.77418       25.15004
1199.00000        5.89173       12.38434       83.10482        5.40453        4.63297       25.34697
1199.50000        5.88831       12.70268       82.78123        5.11510        4.60021       25.50554
