~Version ---------------------------------------------------
VERS. 2.0 : CWLS LOG ASCII STANDARD - VERSION 2.0
WRAP. NO  : One line per depth step
DLM . SPACE : Column Data Section Delimiter
~Well ------------------------------------------------------
STRT.F          572 : START DEPTH
STOP.F       1770.0 : STOP DEPTH
STEP.F          0.5 : STEP
NULL.       -999.25 : NULL VALUE
COMP.         WALSH & WATTS, INCORPORATED : COMPANY
WELL.                         SALMON E 44 : WELL
FLD .                             REGULAR : FIELD
CNTY.                            MONTAGUE : COUNTY
STAT.                               TEXAS : STATE
CTRY.                                 USA : COUNTRY
SEC .                                     : SECTION
TWP .                                     : TOWNSHIP
RGE .                                     : RANGE
LOC . 300' WEST OF NO 23, 300' SOUTH OF D-9, F.ROBERTSON SURV. : LOCATION
EKB .F                      862 : ELEVATION KELLY BUSHING
EDF .F                          : ELEVATION DERRICK FLOOR
EGL .F                      856 : ELEVATION GROUND LEVEL
PDAT.                        GL : PERMANENT DATUM
EPD .                       856 : ELEVATION PERMANENT DATUM
APD .                         6 : ABOVE PERMANENT DATUM
LMF .                        KB : LOG MEASURED FROM
DMF .                        KB : DRILLING MEASURED FROM
API .            42337038720000 : API NUMBER
UWI .                           : UWI NUMBER
DIGC.                     NthDS : DIGITIZING COMPANY
~Params ----------------------------------------------------
SRVC.              SCHLUMBERGER : LOGGING COMPANY
LOG .                     SONIC : LOG
DATE.                1965-11-28 : RUN DATE
RUN .                         1 : RUN NUMBER
TDD .F                     1179 : TOTAL DEPTH DRILLER
TDL .F                     1179 : TOTAL DEPTH LOGGER
BOTL.F                     1170 : BOTTOM LOGGED INTERVAL
TOPL.F                      600 : TOP LOGGED INTERVAL
CSGS.IN                         : CASING SIZE
CSGD.F                          : CASING DRILLER
CSGL.F                          : CASING LOGGER
BS  .IN                   7.875 : BIT SIZE
MUD .                       GEL : MUD TYPE
MUDD.                        10 : MUD DENSITY
MUDV.                        98 : MUD VISCOSITY
PH  .                           : MUD PH
FL  .                           : FLUID LOSS
MUDS.                CIRCULATED : SOURCE OF SAMPLE
RM  .OHMM                   2.0 : MUD RESISTIVITY
RMT .DEGF                    81 : RM TEMPERATURE
RMF .OHMM                   1.5 : MUD FILTRATE RESISTIVITY
RMFT.DEGF                    81 : RMF TEMPERATURE
RMC .OHMM                       : MUD CAKE RESISTIVITY
RMCT.DEGF                       : RMC TEMPERATURE
RMFS.                         M : RMF SOURCE
RMCS.                           : RMC SOURCE
RMBH.OHMM                   1.6 : MUD RESISTIVITY AT BHT
BHT .DEGF                   100 : BOTTOM HOLE TEMPERATURE
TIMC.                           : TIME CIRCULATION STOPPED
TIML.                           : TIME LOGGER ON BOTTOM
TMAX.DEGF                   100 : MAXIMUM RECORDED TEMPERATURE
UNIT.                      4559 : EQUIPMENT NUMBER
BASE.                       WFS : BASE LOCATION
ENG .                      FINK : RECORDED BY
WIT .                       NIX : WITNESSED BY
~Curve Information -----------------------------------------
DEPT.F          :DEPTH
CALS.IN         :
DT.US/F         :
SP.MV           :
~ASCII ------------------------------------------------------
# ...
1439.00000        7.96587       92.87401      -60.93906
1439.50000        7.98775       90.75426      -62.76722
1440.00000        8.10508       92.82947      -60.01521
1440.50000        8.25330       94.75941      -56.69587
1441.00000        8.31598       96.12120      -53.23395
1441.50000        8.32480       94.55965      -54.57499
1442.00000        8.34153       93.77222      -55.91602
1442.50000        8.39074       94.27034      -54.18875
1443.00000        8.39045       95.19584      -54.35356
1443.50000        8.39016       94.98153      -54.96390
1444.00000        8.36749       94.51947      -55.52375
1444.50000        8.25590       94.05740      -55.79845
1445.00000        8.14413       94.68388      -56.00187
1445.50000        8.03255       96.15910      -56.20528
1446.00000        7.92077       97.01742      -57.97701
1446.50000        7.86503       94.59219      -60.14081
1447.00000        7.89305       91.49036      -60.11848
1447.50000        7.75137       90.37856      -62.10495
1448.00000        7.69841       92.86371      -64.13806
1448.50000        7.70465       95.16181      -64.73652
1449.00000        7.71109       96.61116      -63.53797
1449.50000        7.71733       97.62271      -61.78990
1450.00000        7.77286       96.60333      -59.96774
1450.50000        7.77930       96.56919      -59.88898
1451.00000        7.84752       97.00575      -59.81022
1451.50000        7.95733       96.80974      -59.73443
1452.00000        7.97901       97.40816      -58.89825
1452.50000        7.97866       97.87503      -57.87494
1453.00000        7.97837       97.21527      -57.35360
1453.50000        7.97807       96.42345      -58.84315
1454.00000        7.87877       97.12117      -58.55053
1454.50000        7.75471       97.65306      -60.04008
1455.00000        7.68016       97.54543      -61.52962
1455.50000        7.67987       96.93036      -62.78155
1456.00000        7.67958       95.92007      -63.67704
1456.50000        7.67928       95.25932      -63.69718
1457.00000        7.67899       94.95209      -62.83426
1457.50000        7.69572       95.81565      -62.41986
1458.00000        7.71662       98.13500      -63.78466
1458.50000        7.73751       99.85456      -65.14945
1459.00000        7.77445       98.43811      -64.71426
1459.50000        7.84914       96.15673      -62.16422
1460.00000        7.93677       95.53869      -59.71220
1460.50000        7.96103       95.12322      -59.30968
1461.00000        7.96925       95.01062      -58.91013
1461.50000        7.97767       94.87671      -59.09869
1462.00000        7.98589       94.10375      -59.47142
1462.50000        7.98362       93.33078      -60.11146
1463.00000        7.93818       92.55683      -62.49210
1463.50000        7.89293       93.48593      -64.19044
1464.00000        7.89838       95.91551      -60.77903
1464.50000        7.90403       97.77211      -57.55473
1465.00000        7.90948       98.34570      -55.08489
1465.50000        7.86542       97.13878      -54.90217
1466.00000        7.78810       95.79384      -55.47687
1466.50000        7.85487       96.15790      -57.17731
1467.00000        7.76547       97.96584      -59.55795
1467.50000        7.74795       99.77377      -61.93858
1468.00000        7.87043       97.95614      -58.23013
1468.50000        7.95786       96.79987      -55.41277
1469.00000        7.92925       96.77367      -53.93203
1469.50000        8.00816       96.39050      -53.93644
1470.00000        7.97301       96.07235      -54.32401
1470.50000        7.93767       95.82967      -56.23534
1471.00000        7.90253       95.89483      -55.09619
1471.50000        7.88817       95.27678      -55.35395
1472.00000        7.90629       94.83252      -56.94449
1472.50000        7.95234       95.33164      -55.53801
1473.00000        7.99818       95.19223      -54.13153
1473.50000        8.01472       94.89593      -52.72505
1474.00000        7.98209       95.67012      -52.02550
1474.50000        7.95467       95.67768      -54.15069
1475.00000        7.92744       94.50055      -55.66103
1475.50000        7.90557       93.26186      -57.01395
1476.00000        7.90527       94.38957      -56.96489
1476.50000        7.90498       96.84199      -55.98019
1477.00000        7.90468       98.75868      -57.08063
1477.50000        7.90439       97.58752      -58.70681
1478.00000        7.90410       96.86719      -57.75479
1478.50000        7.90856       97.94524      -54.55217
1479.00000        7.93143       98.79689      -53.82292
1479.50000        7.95450       98.43802      -53.85703
1480.00000        7.97738       98.54886      -54.20896
1480.50000        7.97174       99.30617      -55.15494
1481.00000        7.95614       97.82617      -56.30291
1481.50000        7.94317       96.07408      -57.44790
1482.00000        7.93020       95.58016      -57.61271
1482.50000        7.91704       95.31166      -57.12107
1483.00000        7.90407       95.37980      -56.63241
1483.50000        7.89110       95.44893      -56.98731
1484.00000        7.88210       95.77228      -57.90360
1484.50000        7.88834       96.47894      -58.82285
1485.00000        7.89458       97.18461      -58.33122
1485.50000        7.90082       96.37491      -57.74245
1486.00000        7.90627       95.56521      -57.09340
1486.50000        7.91192       96.56434      -56.40573
1487.00000        7.91736       96.96415      -55.71806
1487.50000        7.85489       92.77913      -58.55314
1488.00000        7.75949       89.32247      -63.01297
1488.50000        7.85821       87.66968      -66.01440
1489.00000        7.85356       88.33463      -66.82969
1489.50000        7.84910       90.64159      -66.68855
1490.00000        7.84445       92.98080      -63.32763
1490.50000        7.83980       94.30513      -61.64194
1491.00000        7.82505       93.74071      -61.87506
1491.50000        7.79506       94.62016      -62.10818
1492.00000        7.81655       96.52640      -60.96903
1492.50000        7.91526       97.74746      -57.66542
1493.00000        7.85556       98.96951      -55.03816
1493.50000        7.68557       98.71940      -58.01285
1494.00000        7.64072       98.77165      -59.31230
1494.50000        7.75745       99.18835      -58.10186
1495.00000        7.87235       99.38459      -57.17062
1495.50000        7.86295       98.70497      -57.36216
1496.00000        7.85374       98.01741      -56.80518
1496.50000        7.82038       97.18884      -56.10860
1497.00000        7.80603       96.31459      -56.85558
1497.50000        7.86771       96.09873      -57.60256
1498.00000        7.89356       97.78949      -55.97331
1498.50000        7.89544       98.99366      -54.34406
1499.00000        7.89752       98.25148      -55.09103
1499.50000        7.89941       97.50930      -55.88851
1500.00000        7.93108       97.03935      -56.39746
1500.50000        7.93316       98.16135      -57.19197
1501.00000        7.93505       97.71620      -57.98944
1501.50000        7.93693       96.49195      -58.78691
1502.00000        7.93935       96.12939      -59.22498
1502.50000        7.95549       97.92353      -58.24028
1503.00000        7.95639       98.47339      -57.25558
1503.50000        7.95312       98.12775      -57.32534
1504.00000        7.95006       98.09254      -57.65944
1504.50000        7.94699       98.53096      -57.99355
1505.00000        7.94373       97.70472      -58.55934
1505.50000        7.94066       97.28743      -59.52315
1506.00000        7.93760       96.97362      -58.15914
1506.50000        7.90007       97.44687      -57.01998
1507.00000        7.85424       97.82957      -57.38974
1507.50000        7.82305       97.80332      -58.19909
1508.00000        7.85656       97.77707      -58.75894
1508.50000        7.84221       97.94484      -58.14553
1509.00000        7.82766       98.89271      -57.53211
1509.50000        7.82934       99.50279      -58.30285
1510.00000        7.89499       99.71435      -58.83894
