~Version ---------------------------------------------------
VERS. 2.0 : CWLS LOG ASCII STANDARD - VERSION 2.0
WRAP. NO  : One line per depth step
DLM . SPACE : Column Data Section Delimiter
~Well ------------------------------------------------------
STRT.F         98.5 : START DEPTH
STOP.F       1003.5 : STOP DEPTH
STEP.F          0.5 : STEP
NULL.       -999.25 : NULL VALUE
COMP.                       WALSH & WATTS : COMPANY
WELL.                          SALMON D 8 : WELL
FLD .                          OLD NOCOMA : FIELD
CNTY.                            MONTAGUE : COUNTY
STAT.                               TEXAS : STATE
CTRY.                                 USA : COUNTRY
SEC .                                     : SECTION
TWP .                                     : TOWNSHIP
RGE .                                     : RANGE
LOC .                          OLD NOCOMA : LOCATION
EKB .F                          : ELEVATION KELLY BUSHING
EDF .F                      855 : ELEVATION DERRICK FLOOR
EGL .F                          : ELEVATION GROUND LEVEL
PDAT.                        RT : PERMANENT DATUM
EPD .                           : ELEVATION PERMANENT DATUM
APD .                         4 : ABOVE PERMANENT DATUM
LMF .                           : LOG MEASURED FROM
DMF .                           : DRILLING MEASURED FROM
API .            42337016420000 : API NUMBER
UWI .            42337016420000 : UWI NUMBER
DIGC.                     NthDS : DIGITIZING COMPANY
~Params ----------------------------------------------------
SRVC.              SCHLUMBERGER : LOGGING COMPANY
LOG .                        EL : LOG
DATE.                1948-12-15 : RUN DATE
RUN .                         1 : RUN NUMBER
TDD .F                          : TOTAL DEPTH DRILLER
TDL .F                          : TOTAL DEPTH LOGGER
BOTL.F                     1005 : BOTTOM LOGGED INTERVAL
TOPL.F                     1004 : TOP LOGGED INTERVAL
CSGS.IN                         : CASING SIZE
CSGD.F                          : CASING DRILLER
CSGL.F                          : CASING LOGGER
BS  .IN                       9 : BIT SIZE
MUD .                   AQUAGEL : MUD TYPE
MUDD.                      10.2 : MUD DENSITY
MUDV.                        40 : MUD VISCOSITY
PH  .                           : MUD PH
FL  .                           : FLUID LOSS
MUDS.                           : SOURCE OF SAMPLE
RM  .OHMM                    .8 : MUD RESISTIVITY
RMT .DEGF                    65 : RM TEMPERATURE
RMF .OHMM                       : MUD FILTRATE RESISTIVITY
RMFT.DEGF                       : RMF TEMPERATURE
RMC .OHMM                       : MUD CAKE RESISTIVITY
RMCT.DEGF                       : RMC TEMPERATURE
RMFS.                           : RMF SOURCE
RMCS.                           : RMC SOURCE
RMBH.OHMM                       : MUD RESISTIVITY AT BHT
BHT .DEGF                       : BOTTOM HOLE TEMPERATURE
TIMC.                           : TIME CIRCULATION STOPPED
TIML.                           : TIME LOGGER ON BOTTOM
TMAX.DEGF                       : MAXIMUM RECORDED TEMPERATURE
UNIT.                       201 : EQUIPMENT NUMBER
BASE.                           : BASE LOCATION
ENG .                    LITTLE : RECORDED BY
WIT .                 MR. WATTS : WITNESSED BY
~Curve Information -----------------------------------------
DEPT.F          :DEPTH
ILD.OHMM        :
LAT.OHMM        :
SN.OHMM         :
SP.MV           :
~ASCII ------------------------------------------------------
# ...
673.50000        3.92313        4.09091        4.90357      -50.79812
674.00000        4.04967        4.09091        4.83829      -50.47681
674.50000        4.13181        4.09091        4.77300      -48.94369
675.00000        4.03634        4.09091        4.72815      -47.41057
675.50000        3.94086        4.09091        4.68418      -45.87744
676.00000        3.84450        4.10781        4.63106      -44.28719
676.50000        3.73010        4.19229        4.58621      -43.37780
677.00000        3.63462        4.27767        4.54135      -42.46840
677.50000        3.66703        4.36215        4.49738      -41.11349
678.00000        3.70033        4.44664        4.45253      -39.75858
678.50000        3.73273        4.34437        4.40678      -39.56202
679.00000        3.76514        4.22075        4.36193      -40.25650
679.50000        3.79843        4.20830        4.31707      -41.39650
680.00000        3.83084        4.25454        4.27221      -42.71471
680.50000        4.04885        4.30168        4.22736      -43.63730
681.00000        4.26776        4.34792        4.20115      -42.97027
681.50000        4.52991        4.19763        4.24866      -42.41719
682.00000        4.74792        3.99753        4.41489      -42.99405
682.50000        4.96683        3.79743        4.73504      -44.40137
683.00000        5.18484        3.59733        5.05518      -45.80868
683.50000        5.51653        3.58844        5.09647      -47.21600
684.00000        5.92282        3.62757        4.95126      -48.62331
684.50000        6.02005        3.66759        4.85134      -49.34631
685.00000        5.61641        3.70672        4.92815      -50.07287
685.50000        5.28648        3.74585        5.00496      -49.54840
686.00000        5.28958        3.79298        5.02316      -48.19349
686.50000        5.29268        3.85168        4.87174      -46.39305
687.00000        5.01400        3.98864        4.64367      -44.59262
687.50000        4.78264        4.12470        4.45405      -44.62417
688.00000        4.55040        4.11759        4.26355      -45.19747
688.50000        4.47713        4.01354        4.13344      -46.03084
689.00000        4.44471        3.91037        4.09214      -46.72533
689.50000        4.41139        3.80632        4.05083      -46.81390
690.00000        4.37808        3.70227        4.00953      -46.15043
690.50000        4.34477        3.59911        3.96823      -44.96660
691.00000        4.31146        3.52441        3.92692      -43.78276
691.50000        4.27815        3.46838        3.86963      -42.59893
692.00000        4.24573        3.41324        3.78837      -41.41866
692.50000        4.21242        3.33053        3.70621      -40.28829
693.00000        4.18860        3.18557        3.60869      -39.37890
693.50000        4.23344        3.06373        3.52742      -39.28559
694.00000        4.27917        2.94279        3.44616      -40.64657
694.50000        4.32401        2.83962        3.36400      -42.26061
695.00000        4.36974        2.80761        3.28273      -44.17404
695.50000        4.34087        2.77559        3.22011      -46.52942
696.00000        4.31289        2.74447        3.23210      -48.10425
696.50000        4.28402        2.71245        3.24319      -47.44435
697.00000        4.25514        2.68043        3.25517      -45.64391
697.50000        4.22627        2.64931        3.26626      -43.84348
698.00000        4.19829        2.61729        3.27824      -42.43154
698.50000        4.16382        2.58528        3.29022      -41.27978
699.00000        4.13495        2.60751        3.30371      -40.50583
699.50000        4.11052        2.64219        3.31569      -40.29857
700.00000        3.69003        2.67777        2.92760      -40.92830
700.50000        3.66734        2.80850        2.93960      -40.72421
701.00000        3.64375        2.84318        3.10195      -41.50935
701.50000        3.62106        2.87875        3.26342      -42.54805
702.00000        3.59747        2.91344        3.37150      -43.58318
702.50000        3.57478        2.96057        3.57478      -44.62188
703.00000        3.57789        3.02371        3.15530      -45.34988
703.50000        3.58099        3.08686        3.04720      -45.61362
704.00000        3.58410        3.15089        3.00048      -45.87379
704.50000        3.58720        3.21403        3.20198      -46.13753
705.00000        3.59031        3.27806        3.43818      -47.16908
705.50000        3.41548        3.34120        3.72953      -48.71490
706.00000        3.19617        3.40524        4.02000      -50.25714
706.50000        3.15480        3.46838        4.31135      -50.66730
707.00000        3.15790        3.53152        4.35449      -49.37398
707.50000        3.16101        3.59555        4.39852      -47.23071
708.00000        3.18191        3.62579        4.24772      -45.08743
708.50000        3.20725        3.52530        4.04887      -42.94059
709.00000        3.23260        3.42391        3.85002      -40.79731
709.50000        3.25795        3.32253        3.65029      -39.53613
710.00000        3.28329        3.22203        3.45144      -38.93920
710.50000        3.30864        3.12065        3.25259      -39.00295
711.00000        3.33399        3.01927        3.08577      -39.06670
711.50000        3.35933        2.91877        3.04795      -39.12688
712.00000        3.33842        2.81739        3.01102      -38.98697
712.50000        3.30594        2.76937        2.97410      -37.97935
713.00000        3.27346        2.80138        2.93628      -37.54312
713.50000        3.24098        2.83340        2.91002      -37.97114
714.00000        3.20850        2.86452        2.88733      -38.39916
714.50000        3.26943        2.89654        2.86463      -38.82717
715.00000        3.35349        2.92856        2.91133      -39.79088
715.50000        3.43756        2.96057        3.06212      -41.55811
716.00000        3.52073        2.99170        3.21380      -43.32534
716.50000        3.60480        3.02371        3.36548      -45.09257
717.00000        3.68886        3.11265        3.48246      -46.85980
717.50000        3.75691        3.20158        3.46333      -47.19854
718.00000        3.76002        3.29051        3.44419      -45.57309
718.50000        3.76312        3.37945        3.42505      -43.94765
719.00000        3.78758        3.46838        3.43350      -45.48989
719.50000        3.89656        3.55731        3.55404      -47.62853
720.00000        4.00553        3.48617        3.67369      -50.65641
720.50000        4.11451        3.41413        3.79423      -53.68429
721.00000        4.22348        3.34298        3.86762      -56.71216
721.50000        4.13762        3.27184        3.84670      -56.09738
722.00000        4.05176        3.19980        3.73148      -54.71121
722.50000        4.21678        3.12866        3.61626      -53.30718
723.00000        4.38181        3.05662        3.50016      -52.62097
723.50000        4.26837        2.98547        3.38494      -50.95624
724.00000        4.08642        2.91433        3.26972      -48.64155
724.50000        3.95608        2.84229        3.17051      -46.33042
725.00000        3.90403        2.77115        3.13981      -43.70860
725.50000        3.70429        2.78893        3.10822      -43.30809
726.00000        3.46719        2.82806        3.07752      -42.82534
726.50000        3.30304        2.86808        3.04593      -42.75695
727.00000        3.42447        2.90810        3.01523      -43.18497
727.50000        3.54590        2.94723        3.04324      -42.43805
728.00000        3.64420        2.98725        3.07126      -42.52323
728.50000        3.64730        3.02727        3.09838      -44.29046
729.00000        3.63084        3.06640        3.18601      -46.18268
729.50000        3.52540        3.10642        3.36349      -48.58202
730.00000        3.46445        3.14644        3.54096      -50.97779
730.50000        3.40261        3.18557        3.71755      -53.37713
