~Version ---------------------------------------------------
VERS. 2.0 : CWLS LOG ASCII STANDARD - VERSION 2.0
WRAP. NO  : One line per depth step
DLM . SPACE : Column Data Section Delimiter
~Well ------------------------------------------------------
STRT.F          866 : START DEPTH
STOP.F       1785.0 : STOP DEPTH
STEP.F          0.5 : STEP
NULL.       -999.25 : NULL VALUE
COMP.                 WALSH & WATTS, INC, : COMPANY
WELL.                         SALMON E 41 : WELL
FLD .                        NORTH NOCONA : FIELD
CNTY.                            MONTAGUE : COUNTY
STAT.                               TEXAS : STATE
CTRY.                                 USA : COUNTRY
SEC .                                     : SECTION
TWP .                                     : TOWNSHIP
RGE .                                     : RANGE
LOC . 300' N OF NO. 40
150' W OF EL & 385' E OF NO. 87
F. ROBERTSON SURVEY : LOCATION
EKB .F                          : ELEVATION KELLY BUSHING
EDF .F                          : ELEVATION DERRICK FLOOR
EGL .F                      878 : ELEVATION GROUND LEVEL
PDAT.              GROUND LEVEL : PERMANENT DATUM
EPD .                       878 : ELEVATION PERMANENT DATUM
APD .                           : ABOVE PERMANENT DATUM
LMF .                        KB : LOG MEASURED FROM
DMF .                        KB : DRILLING MEASURED FROM
API .            42337037790000 : API NUMBER
UWI .            42337037790000 : UWI NUMBER
DIGC.                     NthDS : DIGITIZING COMPANY
~Params ----------------------------------------------------
SRVC.                LANE WELLS : LOGGING COMPANY
LOG .                        AC : LOG
DATE.                1965-12-01 : RUN DATE
RUN .                         1 : RUN NUMBER
TDD .F                     1790 : TOTAL DEPTH DRILLER
TDL .F                     1791 : TOTAL DEPTH LOGGER
BOTL.F                     1784 : BOTTOM LOGGED INTERVAL
TOPL.F                      880 : TOP LOGGED INTERVAL
CSGS.IN                         : CASING SIZE
CSGD.F                          : CASING DRILLER
CSGL.F                          : CASING LOGGER
BS  .IN                       9 : BIT SIZE
MUD .                       GEL : MUD TYPE
MUDD.                        10 : MUD DENSITY
MUDV.                        80 : MUD VISCOSITY
PH  .                       9.0 : MUD PH
FL  .                       6.8 : FLUID LOSS
MUDS.                       PIT : SOURCE OF SAMPLE
RM  .OHMM                  1.95 : MUD RESISTIVITY
RMT .DEGF                    74 : RM TEMPERATURE
RMF .OHMM                   1.5 : MUD FILTRATE RESISTIVITY
RMFT.DEGF                    74 : RMF TEMPERATURE
RMC .OHMM                   2.3 : MUD CAKE RESISTIVITY
RMCT.DEGF                    74 : RMC TEMPERATURE
RMFS.                  MEASURED : RMF SOURCE
RMCS.                           : RMC SOURCE
RMBH.OHMM                   1.5 : MUD RESISTIVITY AT BHT
BHT .DEGF                    97 : BOTTOM HOLE TEMPERATURE
TIMC.                           : TIME CIRCULATION STOPPED
TIML.                           : TIME LOGGER ON BOTTOM
TMAX.DEGF                    97 : MAXIMUM RECORDED TEMPERATURE
UNIT.                    L-5172 : EQUIPMENT NUMBER
BASE.                      W.F. : BASE LOCATION
ENG .             ADAMS & BAKER : RECORDED BY
WIT .                   MR. NIX : WITNESSED BY
~Curve Information -----------------------------------------
DEPT.F          :DEPTH
CALS.IN         :
DT.US/F         :
SP.MV           :
~ASCII ------------------------------------------------------
# ...
1012.00000        8.73054      123.33222      -44.31140
1012.50000        8.66008      115.42754      -42.51500
1013.00000        8.98603      112.35451      -40.71859
1013.50000        9.31198      115.84220      -39.22158
1014.00000        9.54032      112.30801      -38.32338
1014.50000        9.37824      109.17223      -34.43117
1015.00000        9.29341      111.36511      -33.83236
1015.50000        9.26008      113.60778      -31.73656
1016.00000        9.22695      111.56761      -30.23955
1016.50000        9.19361      106.44678      -29.94015
1017.00000        9.16028      103.40363      -30.83835
1017.50000        9.12714      110.15358      -32.93416
1018.00000        9.03134      113.90521      -33.53296
1018.50000        8.89421      116.44669      -34.73057
1019.00000        8.96307      119.04793      -35.02997
1019.50000        9.07784      115.89521      -35.02997
1020.00000        9.19261      115.50942      -34.73057
1020.50000        9.33034      118.11265      -34.43117
1021.00000        9.21716      117.36165      -34.43117
1021.50000        9.04691      111.12794      -34.43117
1022.00000        8.87665      100.95037      -34.73057
1022.50000        8.82774       98.16020      -35.02997
1023.00000        8.96068       99.73854      -34.73057
1023.50000        9.02595      101.31687      -35.02997
1024.00000        9.04591      106.11664      -35.02997
1024.50000        9.06587      110.60034      -35.32937
1025.00000        9.11657      110.80119      -35.32937
1025.50000        9.18782      107.06780      -34.73057
1026.00000        9.25928      106.16308      -33.23356
1026.50000        9.12255      108.55516      -32.63476
1027.00000        8.93413      111.59464      -32.03596
1027.50000        9.01836      110.37120      -31.73656
1028.00000        9.22914      104.37687      -32.03596
1028.50000        9.31337      105.47613      -32.03596
1029.00000        9.16088      108.71514      -32.93416
1029.50000        8.90699      111.41399      -32.93416
1030.00000        8.80100      112.16265      -32.33536
1030.50000        8.98403      114.48301      -31.73656
1031.00000        9.20858      117.19580      -31.73656
1031.50000        9.25349      111.96242      -32.63476
1032.00000        9.21716      103.60954      -35.62877
1032.50000        9.12655       98.17696      -37.12578
1033.00000        9.03573      102.09194      -41.61679
1033.50000        8.94511      106.79575      -42.81440
1034.00000        8.85429      110.53277      -43.41320
1034.50000        8.91138      112.12804      -43.41320
1035.00000        8.93812      102.79210      -43.11380
1035.50000        8.94471       92.73371      -42.81440
1036.00000        8.95150       89.33299      -42.81440
1036.50000        8.93074       90.87448      -43.41320
1037.00000        8.89202       92.85752      -44.31140
1037.50000        8.85309       95.07331      -44.91021
1038.00000        8.81437       96.80104      -44.61080
1038.50000        8.92315       97.79870      -43.41320
1039.00000        9.03213       99.39397      -43.11380
1039.50000        9.08283       96.46337      -43.11380
1040.00000        9.11916       94.50388      -43.41320
1040.50000        9.06267       96.43580      -44.61080
1041.00000        8.97405       95.92849      -44.91021
1041.50000        8.88543       95.08652      -44.91021
1042.00000        8.79661       99.82453      -45.20961
1042.50000        8.70798      103.58911      -45.50901
1043.00000        8.70100      107.40847      -45.50901
1043.50000        8.81677      111.21189      -47.00601
1044.00000        8.93253      110.00837      -45.50901
1044.50000        9.04830      107.56979      -44.91021
1045.00000        9.16407      109.39647      -44.01200
1045.50000        9.20499      113.49272      -43.71260
1046.00000        9.13373      114.00930      -44.31140
1046.50000        9.06247      103.74010      -44.91021
1047.00000        9.11377       92.63590      -46.40721
1047.50000        9.18962       88.36666      -48.80242
1048.00000        9.17964       97.13354      -49.40122
1048.50000        9.14970      105.35825      -50.59883
1049.00000        8.97804      118.37410      -52.09583
1049.50000        8.73952      118.17456      -53.89224
1050.00000        8.65210      112.48271      -53.89224
1050.50000        8.89000      114.04666      -53.70002
1051.00000        9.14000      113.68242      -51.30002
1051.50000        9.34880      111.69006      -49.80002
1052.00000        9.39240      111.39262      -49.20002
1052.50000        9.43620      114.88378      -47.40003
1053.00000        9.48000      114.01306      -46.50003
1053.50000        9.36340      109.05462      -46.50003
1054.00000        9.24660      101.70337      -46.50003
1054.50000        9.23420       94.35212      -48.00003
1055.00000        9.28160       86.97595      -49.80002
1055.50000        9.28920       91.06532      -51.90002
1056.00000        9.29840       95.72597      -52.80002
1056.50000        9.14000      104.06556      -53.70002
1057.00000        8.94000      111.90798      -53.10002
1057.50000        8.88000      104.23271      -52.20002
1058.00000        8.91700       98.45141      -50.40002
1058.50000        9.10160       98.85186      -49.50002
1059.00000        9.28620      105.73317      -48.30003
1059.50000        9.27000      106.66104      -47.40003
1060.00000        9.12000      108.40845      -46.80003
1060.50000        9.04500      113.74706      -46.50003
1061.00000        8.97000      113.06776      -45.90003
1061.50000        8.92860      107.40743      -46.50003
1062.00000        9.00000      104.22266      -46.50003
1062.50000        9.20000      105.65800      -46.50003
1063.00000        9.40000      104.84909      -46.50003
1063.50000        9.34500      100.36423      -46.80003
1064.00000        9.12000      101.13856      -48.00003
1064.50000        9.05580      106.44959      -49.20002
1065.00000        8.99140      108.61175      -49.80002
1065.50000        8.95640      108.60642      -50.70002
1066.00000        9.03880      106.80350      -51.00002
1066.50000        9.12120      104.68652      -51.30002
1067.00000        9.22000      101.95140      -51.90002
1067.50000        9.20580      105.46250      -51.90002
1068.00000        9.09340      111.31357      -51.90002
1068.50000        8.91560      110.49071      -51.90002
1069.00000        8.90000      108.70772      -51.60002
1069.50000        9.19500      104.23283      -51.60002
1070.00000        9.11100       99.78785      -49.80002
1070.50000        8.93820      102.48174      -50.10002
1071.00000        8.85000       99.64891      -51.30002
1071.50000        8.98000       92.30133      -52.20002
1072.00000        8.93000       88.11257      -52.50002
1072.50000        8.87000       91.02249      -53.40002
1073.00000        8.82000       91.62267      -54.60002
1073.50000        8.77000       92.77088      -55.80002
1074.00000        8.72000       94.98289      -56.10002
1074.50000        8.67000       97.82899      -56.70002
1075.00000        8.63200       98.79873      -60.30002
1075.50000        8.61200       97.25902      -62.10002
1076.00000        8.56800       95.72030      -64.71902
1076.50000        8.48800       95.62226      -69.02102
1077.00000        8.44000       97.46139      -73.32002
1077.50000        8.44000       98.83624      -76.50002
1078.00000        8.54000       98.85784      -78.00002
1078.50000        8.57580       99.99607      -79.20002
1079.00000        8.61180      100.94588      -81.90002
1079.50000        8.64760      101.52280      -83.10002
1080.00000        8.68360      102.09973      -84.30002
1080.50000        8.71940      101.41843      -84.90002
1081.00000        8.75540      102.25557      -85.50002
1081.50000        8.79120      104.31305      -85.80002
1082.00000        8.80560      102.91890      -84.90002
1082.50000        8.73340       99.82984      -84.30002
1083.00000        8.66120       96.00998      -82.20002
