~Version ---------------------------------------------------
VERS. 2.0 : CWLS LOG ASCII STANDARD - VERSION 2.0
WRAP. NO  : One line per depth step
DLM . SPACE : Column Data Section Delimiter
~Well ------------------------------------------------------
STRT.F          866 : START DEPTH
STOP.F       1785.0 : STOP DEPTH
STEP.F          0.5 : STEP
NULL.       -999.25 : NULL VALUE
COMP.                 WALSH & WATTS, INC, : COMPANY
WELL.                         SALMON E 41 : WELL
FLD .                        NORTH NOCONA : FIELD
CNTY.                            MONTAGUE : COUNTY
STAT.                               TEXAS : STATE
CTRY.                                 USA : COUNTRY
SEC .                                     : SECTION
TWP .                                     : TOWNSHIP
RGE .                                     : RANGE
LOC . 300' N OF NO. 40
150' W OF EL & 385' E OF NO. 87
F. ROBERTSON SURVEY : LOCATION
EKB .F                          : ELEVATION KELLY BUSHING
EDF .F                          : ELEVATION DERRICK FLOOR
EGL .F                      878 : ELEVATION GROUND LEVEL
PDAT.              GROUND LEVEL : PERMANENT DATUM
EPD .                       878 : ELEVATION PERMANENT DATUM
APD .                           : ABOVE PERMANENT DATUM
LMF .                        KB : LOG MEASURED FROM
DMF .                        KB : DRILLING MEASURED FROM
API .            42337037790000 : API NUMBER
UWI .            42337037790000 : UWI NUMBER
DIGC.                     NthDS : DIGITIZING COMPANY
~Params ----------------------------------------------------
SRVC.                LANE WELLS : LOGGING COMPANY
LOG .                        AC : LOG
DATE.                1965-12-01 : RUN DATE
RUN .                         1 : RUN NUMBER
TDD .F                     1790 : TOTAL DEPTH DRILLER
TDL .F                     1791 : TOTAL DEPTH LOGGER
BOTL.F                     1784 : BOTTOM LOGGED INTERVAL
TOPL.F                      880 : TOP LOGGED INTERVAL
CSGS.IN                         : CASING SIZE
CSGD.F                          : CASING DRILLER
CSGL.F                          : CASING LOGGER
BS  .IN                       9 : BIT SIZE
MUD .                       GEL : MUD TYPE
MUDD.                        10 : MUD DENSITY
MUDV.                        80 : MUD VISCOSITY
PH  .                       9.0 : MUD PH
FL  .                       6.8 : FLUID LOSS
MUDS.                       PIT : SOURCE OF SAMPLE
RM  .OHMM                  1.95 : MUD RESISTIVITY
RMT .DEGF                    74 : RM TEMPERATURE
RMF .OHMM                   1.5 : MUD FILTRATE RESISTIVITY
RMFT.DEGF                    74 : RMF TEMPERATURE
RMC .OHMM                   2.3 : MUD CAKE RESISTIVITY
RMCT.DEGF                    74 : RMC TEMPERATURE
RMFS.                  MEASURED : RMF SOURCE
RMCS.                           : RMC SOURCE
RMBH.OHMM                   1.5 : MUD RESISTIVITY AT BHT
BHT .DEGF                    97 : BOTTOM HOLE TEMPERATURE
TIMC.                           : TIME CIRCULATION STOPPED
TIML.                           : TIME LOGGER ON BOTTOM
TMAX.DEGF                    97 : MAXIMUM RECORDED TEMPERATURE
UNIT.                    L-5172 : EQUIPMENT NUMBER
BASE.                      W.F. : BASE LOCATION
ENG .             ADAMS & BAKER : RECORDED BY
WIT .                   MR. NIX : WITNESSED BY
~Curve Information -----------------------------------------
DEPT.F          :DEPTH
CALS.IN         :
DT.US/F         :
SP.MV           :
~ASCII ------------------------------------------------------
# ...
1441.00000        9.12570       95.61508      -44.82074
1441.50000        9.15737       96.86174      -45.71716
1442.00000        9.18904       98.10841      -46.31477
1442.50000        9.22072       97.76145      -46.91238
1443.00000        9.25239       97.51410      -46.31477
1443.50000        9.28406       99.00977      -44.82074
1444.00000        9.31574       98.15485      -42.13150
1444.50000        9.35378       96.71229      -40.63748
1445.00000        9.35637       95.70100      -40.03987
1445.50000        9.33924       94.79728      -40.93628
1446.00000        9.32211       95.30025      -41.83270
1446.50000        9.30498       96.38058      -41.83270
1447.00000        9.28805       96.43203      -42.43031
1447.50000        9.27092       94.40880      -43.62552
1448.00000        9.25378       92.05289      -44.52194
1448.50000        9.22789       92.48582      -44.52194
1449.00000        9.19582       94.44662      -44.52194
1449.50000        9.16374       93.61859      -44.52194
1450.00000        9.13167       96.24246      -45.11955
1450.50000        9.08580       97.67551      -45.00003
1451.00000        9.06360       95.20103      -45.30003
1451.50000        9.08120       91.86473      -45.30003
1452.00000        9.09880       88.98369      -45.60003
1452.50000        9.11640       85.29649      -46.20003
1453.00000        9.10220       81.11327      -47.10003
1453.50000        9.08000       81.56223      -47.70003
1454.00000        9.05400       86.53403      -49.66502
1454.50000        9.02780       88.00684      -52.11902
1455.00000        9.00180       85.07909      -54.00002
1455.50000        8.97560       83.40778      -57.60002
1456.00000        8.98800       84.90080      -56.70002
1456.50000        9.03460       85.21756      -54.90002
1457.00000        9.08140       90.34145      -51.00002
1457.50000        9.11500       95.95936      -50.10002
1458.00000        9.14000       94.48587      -48.60002
1458.50000        9.16500       89.73009      -47.40003
1459.00000        9.24660       89.68204      -45.90003
1459.50000        9.39000       93.28307      -45.30003
1460.00000        9.33700       98.23432      -45.60003
1460.50000        9.12920       98.72305      -46.80003
1461.00000        8.92160       96.61039      -47.10003
1461.50000        8.85140       93.81583      -46.20003
1462.00000        8.96000       94.02126      -45.60003
1462.50000        9.16000       95.04377      -44.10003
1463.00000        9.18000       96.06530      -43.20003
1463.50000        8.96580       97.08682      -44.40003
1464.00000        8.87760       97.10437      -45.30003
1464.50000        8.87340       95.96289      -46.20003
1465.00000        8.86940       94.82140      -47.40003
1465.50000        8.86540       95.27036      -47.40003
1466.00000        8.86120       93.42245      -48.00003
1466.50000        8.85720       91.54638      -48.00003
1467.00000        8.85220       90.25578      -48.30003
1467.50000        8.84820       92.01985      -48.60002
1468.00000        8.84400       93.78292      -48.60002
1468.50000        8.84000       94.99927      -48.30003
1469.00000        8.83680       95.10827      -48.90002
1469.50000        8.83380       94.48865      -49.50002
1470.00000        8.83060       94.63941      -49.50002
1470.50000        8.82760       95.30407      -49.20002
1471.00000        8.82440       94.84151      -48.90002
1471.50000        8.82120       94.24674      -48.90002
1472.00000        8.82540       94.46012      -48.60002
1472.50000        8.83640       95.09827      -48.00003
1473.00000        8.84540       95.63073      -47.70003
1473.50000        8.85460       94.88288      -46.80003
1474.00000        8.89740       93.28315      -46.05003
1474.50000        8.99120       91.23014      -45.11403
1475.00000        9.08500       89.06281      -44.17503
1475.50000        9.16340       88.31396      -43.23903
1476.00000        9.18000       89.85238      -42.30003
1476.50000        9.07100       91.13235      -43.44003
1477.00000        8.96180       91.11313      -44.13903
1477.50000        8.93520       90.68834      -44.85003
1478.00000        8.92820       90.37388      -45.30003
1478.50000        8.92240       90.05943      -45.30003
1479.00000        8.96280       89.76983      -45.30003
1479.50000        9.03420       89.02529      -45.30003
1480.00000        9.10580       88.06571      -45.60003
1480.50000        9.10100       87.10712      -46.80003
1481.00000        9.07720       86.33641      -47.40003
1481.50000        9.05340       85.69194      -48.90002
1482.00000        9.02960       85.95701      -49.50002
1482.50000        9.01620       86.82843      -49.50002
1483.00000        9.01000       87.59250      -48.90002
1483.50000        9.00260       87.92516      -48.60002
1484.00000        9.03740       88.25782      -48.00003
1484.50000        9.10000       88.38571      -47.19903
1485.00000        9.36260       87.50764      -46.36803
1485.50000        9.49540       85.89399      -46.11603
1486.00000        9.43380       86.14415      -46.01103
1486.50000        9.37240       86.78230      -45.90603
1487.00000        9.31080       87.14180      -45.80103
1487.50000        9.24920       90.12554      -45.69903
1488.00000        9.20340       89.90353      -45.59403
1488.50000        9.22000       90.62585      -45.48903
1489.00000        9.39600       92.11855      -45.36303
1489.50000        9.35720       89.71464      -45.31803
1490.00000        9.50000       89.68647      -45.36003
1490.50000        9.27780       91.30342      -45.40203
1491.00000        9.14660       92.32395      -45.44703
1491.50000        9.38000       91.38656      -45.48903
1492.00000        9.51200       90.71724      -45.53103
1492.50000        9.42300       90.04792      -45.57303
1493.00000        9.23080       89.21359      -45.48603
1493.50000        9.03840       88.13075      -45.20103
1494.00000        9.46400       87.43260      -44.91303
1494.50000        9.45780       88.27520      -44.57103
1495.00000        9.36700       89.11879      -44.40003
1495.50000        9.40240       88.48724      -44.40003
1496.00000        9.43760       88.63601      -44.61903
1496.50000        9.47300       89.22513      -45.71403
1497.00000        9.46860       89.81425      -46.81203
1497.50000        9.45420       90.40237      -47.90703
1498.00000        9.44000       90.49680      -49.00502
1498.50000        9.49000       90.06306      -50.10002
1499.00000        9.54000       90.06471      -49.20002
1499.50000        9.57160       90.06635      -48.60002
1500.00000        9.53000       89.09837      -48.00003
1500.50000        9.50000       87.92805      -47.10003
1501.00000        9.45840       86.75873      -46.80003
1501.50000        9.41660       88.38164      -45.90003
1502.00000        9.40000       90.70237      -44.70003
1502.50000        9.50000       90.90282      -44.40003
1503.00000        9.58180       89.55557      -43.50003
1503.50000        9.53640       89.09201      -42.60003
1504.00000        9.50000       89.84117      -42.00003
1504.50000        9.50000       90.92763      -41.70003
1505.00000        9.50000       92.41138      -42.30003
1505.50000        9.50000       94.03926      -42.60003
1506.00000        9.50000       92.30633      -42.90003
1506.50000        9.47860       88.33186      -44.10003
1507.00000        9.45720       89.76292      -44.70003
1507.50000        9.43820       92.80829      -46.80003
1508.00000        9.43360       90.99782      -47.70003
1508.50000        9.42900       88.97264      -48.30003
1509.00000        9.42460       86.94845      -48.60002
1509.50000        9.42000       88.35864      -48.30003
1510.00000        9.39620       89.76784      -47.70003
1510.50000        9.37240       91.45967      -46.80003
1511.00000        9.34860       92.18398      -46.50003
1511.50000        9.32480       92.45103      -45.90003
1512.00000        9.35760       92.71709      -45.30003
