~Version ---------------------------------------------------
VERS. 2.0 : CWLS LOG ASCII STANDARD - VERSION 2.0
WRAP. NO  : One line per depth step
DLM . SPACE : Column Data Section Delimiter
~Well ------------------------------------------------------
STRT.F          100 : START DEPTH
STOP.F       2271.5 : STOP DEPTH
STEP.F          0.5 : STEP
NULL.       -999.25 : NULL VALUE
COMP.                       WALSH & WATTS : COMPANY
WELL.                        SALMON E 24  : WELL
FLD .                               NORTH : FIELD
CNTY.                            MONTAGUE : COUNTY
STAT.                               TEXAS : STATE
CTRY.                                 USA : COUNTRY
SEC .                                     : SECTION
TWP .                                     : TOWNSHIP
RGE .                                     : RANGE
LOC .                 SW CORNER OF LEAGUE : LOCATION
EKB .F                          : ELEVATION KELLY BUSHING
EDF .F                          : ELEVATION DERRICK FLOOR
EGL .F                      850 : ELEVATION GROUND LEVEL
PDAT.                        GL : PERMANENT DATUM
EPD .                       850 : ELEVATION PERMANENT DATUM
APD .                         5 : ABOVE PERMANENT DATUM
LMF .                        RT : LOG MEASURED FROM
DMF .                        RT : DRILLING MEASURED FROM
API .            42337038630000 : API NUMBER
UWI .                           : UWI NUMBER
DIGC.                     NthDS : DIGITIZING COMPANY
~Params ----------------------------------------------------
SRVC.               HALLIBURTON : LOGGING COMPANY
LOG .                        EL : LOG
DATE.                1950-09-25 : RUN DATE
RUN .                         1 : RUN NUMBER
TDD .F                     2272 : TOTAL DEPTH DRILLER
TDL .F                     2272 : TOTAL DEPTH LOGGER
BOTL.F                     2272 : BOTTOM LOGGED INTERVAL
TOPL.F                          : TOP LOGGED INTERVAL
CSGS.IN                         : CASING SIZE
CSGD.F                          : CASING DRILLER
CSGL.F                          : CASING LOGGER
BS  .IN                       9 : BIT SIZE
MUD .        WATER BASE AQUAGEL : MUD TYPE
MUDD.                       9.8 : MUD DENSITY
MUDV.                        39 : MUD VISCOSITY
PH  .                           : MUD PH
FL  .                           : FLUID LOSS
MUDS.                           : SOURCE OF SAMPLE
RM  .OHMM                   2.3 : MUD RESISTIVITY
RMT .DEGF                    70 : RM TEMPERATURE
RMF .OHMM                       : MUD FILTRATE RESISTIVITY
RMFT.DEGF                       : RMF TEMPERATURE
RMC .OHMM                       : MUD CAKE RESISTIVITY
RMCT.DEGF                       : RMC TEMPERATURE
RMFS.                           : RMF SOURCE
RMCS.                           : RMC SOURCE
RMBH.OHMM                       : MUD RESISTIVITY AT BHT
BHT .DEGF                       : BOTTOM HOLE TEMPERATURE
TIMC.                           : TIME CIRCULATION STOPPED
TIML.                           : TIME LOGGER ON BOTTOM
TMAX.DEGF                       : MAXIMUM RECORDED TEMPERATURE
UNIT.                           : EQUIPMENT NUMBER
BASE.                           : BASE LOCATION
ENG .                  HARRISON : RECORDED BY
WIT .                    DAWSON : WITNESSED BY
~Curve Information -----------------------------------------
DEPT.F          :DEPTH
ILD.OHMM        :
SN.OHMM         :
SP.MV           :
~ASCII ------------------------------------------------------
# ...
1477.00000        2.62346        3.25784      -23.83292
1477.50000        2.62564        3.26503      -24.49125
1478.00000        2.62783        3.27350      -24.81501
1478.50000        2.63045        3.28069      -24.80421
1479.00000        2.63263        3.28788      -25.12797
1479.50000        2.63482        3.29508      -24.78260
1480.00000        2.64201        3.30144      -24.10267
1480.50000        2.65255        3.30946      -24.09186
1481.00000        2.66308        3.31666      -24.08106
1481.50000        2.67361        3.32469      -23.73569
1482.00000        2.68414        3.33271      -23.39032
1482.50000        2.69384        3.34074      -23.71409
1483.00000        2.70437        3.34794      -23.70328
1483.50000        2.71491        3.35596      -23.69032
1484.00000        2.72544        3.36399      -23.34495
1484.50000        2.73597        3.37202      -22.99958
1485.00000        2.74650        3.38005      -22.98878
1485.50000        2.75703        3.38724      -22.97798
1486.00000        2.76757        3.39527      -22.63261
1486.50000        2.77810        3.40330      -21.95268
1487.00000        2.78863        3.41133      -21.27274
1487.50000        2.79833        3.41852      -20.92737
1488.00000        2.80886        3.42866      -20.91657
1488.50000        2.82150        3.43752      -20.90577
1489.00000        2.83203        3.44555      -21.22953
1489.50000        2.84257        3.45441      -21.55329
1490.00000        2.84809        3.46244      -21.54249
1490.50000        2.85028        3.47130      -21.86625
1491.00000        2.85246        3.48016      -22.52458
1491.50000        2.85465        3.48819      -23.18291
1492.00000        2.83847        3.49706      -23.17211
1492.50000        2.74800        3.50508      -23.16130
1493.00000        2.65753        3.51395      -23.15050
1493.50000        2.56623        3.52198      -23.47426
1494.00000        2.53169        3.53084      -23.79803
1494.50000        2.53387        3.55139      -24.12179
1495.00000        2.53606        3.57945      -24.11099
1495.50000        2.53824        3.60751      -24.10018
1496.00000        2.54043        3.63641      -24.08938
1496.50000        2.54261        3.62774      -24.07858
1497.00000        2.53144        3.58819      -23.39865
1497.50000        2.51193        3.54864      -23.38784
1498.00000        2.49241        3.50118      -23.71160
1498.50000        2.47206        3.46580      -23.70080
1499.00000        2.35114        3.44962      -24.69370
1499.50000        2.23396        3.43261      -26.35572
1500.00000        2.14648        3.44530      -27.09711
1500.50000        2.03014        3.42912      -28.42457
1501.00000        1.91296        3.36035      -29.08290
1501.50000        1.88092        3.30912      -29.06994
1502.00000        1.97827        3.25705      -28.72457
1502.50000        2.07561        3.20498      -28.37920
1503.00000        2.17212        3.09865      -28.03383
1503.50000        2.26946        3.08414      -27.35390
1504.00000        2.29752        3.06963      -26.67396
1504.50000        2.32642        3.05512      -25.99403
1505.00000        2.35448        3.04061      -26.31779
1505.50000        2.37252        3.02443      -27.31069
1506.00000        2.38890        3.00241      -28.30358
1506.50000        2.40527        2.97956      -28.29278
1507.00000        2.42081        2.95753      -28.28198
1507.50000        2.43719        2.93468      -28.27117
1508.00000        2.45357        2.91266      -28.59494
1508.50000        2.43488        2.89064      -28.91870
1509.00000        2.40785        2.86110      -28.57333
1509.50000        2.38082        2.82155      -27.89340
1510.00000        2.35379        2.78200      -27.88259
1510.50000        2.32760        2.74245      -28.20636
1511.00000        2.30057        2.70290      -28.19555
1511.50000        2.27354        2.66335      -28.85388
1512.00000        2.24651        2.66554      -28.84308
1512.50000        2.22532        2.73032      -28.16314
1513.00000        2.22751        2.79511      -27.14865
1513.50000        2.22969        2.85990      -26.46655
1514.00000        2.23188        2.90382      -26.45575
1514.50000        2.23406        2.91602      -26.11038
1515.00000        2.23625        2.92823      -25.43045
1515.50000        2.23843        2.94043      -24.75051
1516.00000        2.24062        2.95346      -24.73971
1516.50000        2.24281        2.96567      -25.06347
1517.00000        2.24499        2.97787      -25.72180
1517.50000        2.24718        2.99007      -26.04556
1518.00000        2.24936        3.00060      -26.36933
1518.50000        2.25155        3.00279      -26.35852
1519.00000        2.25373        3.00497      -26.68229
1519.50000        2.25592        3.00716      -27.34061
1520.00000        2.25810        3.00934      -27.99894
1520.50000        2.26029        3.01781      -27.65357
1521.00000        2.26247        3.03585      -26.97364
1521.50000        2.26466        3.05306      -26.62827
1522.00000        2.29316        3.07111      -26.28290
1522.50000        2.42389        3.08832      -26.60667
1523.00000        2.68901        3.10636      -26.59586
1523.50000        2.81974        3.06848      -26.91963
1524.00000        2.95047        3.02977      -27.57795
1524.50000        2.97937        2.99189      -27.56715
1525.00000        2.85634        2.95317      -27.55635
1525.50000        2.59226        2.91529      -27.54555
1526.00000        2.11782        2.87741      -27.86715
1526.50000        2.12001        2.86457      -27.18721
1527.00000        2.12219        2.85757      -26.84185
1527.50000        2.12438        2.85141      -26.49648
1528.00000        2.12656        2.84441      -26.15111
1528.50000        2.12875        2.83825      -25.47118
1529.00000        2.13093        2.83209      -25.12581
1529.50000        2.13312        2.82509      -24.44587
1530.00000        2.13530        2.81893      -24.10051
1530.50000        2.11745        2.81194      -24.08970
1531.00000        2.09543        2.81412      -23.07520
1531.50000        2.07341        2.84970      -22.06070
1532.00000        2.10231        2.88443      -21.38077
1532.50000        2.20883        2.92001      -21.03540
1533.00000        2.31536        2.95558      -20.69003
1533.50000        2.32839        2.99032      -20.67923
1534.00000        2.34143        3.02589      -21.00299
1534.50000        2.35363        3.06147      -21.32676
1535.00000        2.36667        3.09621      -21.98508
1535.50000        2.37971        3.13178      -22.64341
1536.00000        2.39274        3.16736      -22.96718
1536.50000        2.40578        3.20209      -22.95637
1537.00000        2.42549        3.23767      -22.94557
1537.50000        2.47442        3.25321      -22.93261
1538.00000        2.52252        3.25539      -22.92180
1538.50000        2.57145        3.25758      -22.91100
1539.00000        2.61954        3.25976      -23.23476
1539.50000        2.66847        3.26195      -22.88940
1540.00000        2.67065        3.26414      -22.54403
1540.50000        2.66199        3.26632      -22.53322
1541.00000        2.65249        3.26851      -22.52242
1541.50000        2.64382        3.27069      -23.18075
1542.00000        2.63432        3.27288      -23.83908
1542.50000        2.47875        3.27506      -24.49741
1543.00000        2.51348        3.27725      -24.82117
1543.50000        2.50649        3.27943      -24.81037
1544.00000        2.47278        3.28162      -24.79956
1544.50000        2.43991        3.28380      -24.78876
1545.00000        2.40620        3.28599      -24.77796
1545.50000        2.37249        3.28861      -24.76715
1546.00000        2.33879        3.29080      -24.42179
1546.50000        2.30508        3.29298      -23.74185
1547.00000        2.33358        3.29517      -23.06192
1547.50000        2.38668        3.29735      -22.71655
1548.00000        2.43978        3.29954      -22.70575
