~Version ---------------------------------------------------
VERS. 2.0 : CWLS LOG ASCII STANDARD - VERSION 2.0
WRAP. NO  : One line per depth step
DLM . SPACE : Column Data Section Delimiter
~Well ------------------------------------------------------
STRT.F          100 : START DEPTH
STOP.F       1218.0 : STOP DEPTH
STEP.F          0.5 : STEP
NULL.       -999.25 : NULL VALUE
COMP.                       WALSH & WATTS : COMPANY
WELL.                          SALMON A 6 : WELL
FLD .                          OLD NOCONA : FIELD
CNTY.                            MONTAGUE : COUNTY
STAT.                               TEXAS : STATE
CTRY.                                 USA : COUNTRY
SEC .                                     : SECTION
TWP .                                     : TOWNSHIP
RGE .                                     : RANGE
LOC .                                     : LOCATION
EKB .F                          : ELEVATION KELLY BUSHING
EDF .F                      884 : ELEVATION DERRICK FLOOR
EGL .F                      878 : ELEVATION GROUND LEVEL
PDAT.                           : PERMANENT DATUM
EPD .                           : ELEVATION PERMANENT DATUM
APD .                       5.5 : ABOVE PERMANENT DATUM
LMF .                       KDB : LOG MEASURED FROM
DMF .                       KDB : DRILLING MEASURED FROM
API .            42337039770000 : API NUMBER
UWI .                           : UWI NUMBER
DIGC.                     NthDS : DIGITIZING COMPANY
~Params ----------------------------------------------------
SRVC.     THE ELGEN CORPORATION : LOGGING COMPANY
LOG .                        EL : LOG
DATE.                1954-12-19 : RUN DATE
RUN .                         1 : RUN NUMBER
TDD .F                     1217 : TOTAL DEPTH DRILLER
TDL .F                     1219 : TOTAL DEPTH LOGGER
BOTL.F                     1218 : BOTTOM LOGGED INTERVAL
TOPL.F                      100 : TOP LOGGED INTERVAL
CSGS.IN                         : CASING SIZE
CSGD.F                          : CASING DRILLER
CSGL.F                          : CASING LOGGER
BS  .IN                    8.75 : BIT SIZE
MUD .                       GEL : MUD TYPE
MUDD.                        10 : MUD DENSITY
MUDV.                        60 : MUD VISCOSITY
PH  .                           : MUD PH
FL  .                           : FLUID LOSS
MUDS.                           : SOURCE OF SAMPLE
RM  .OHMM                   2.4 : MUD RESISTIVITY
RMT .DEGF                    58 : RM TEMPERATURE
RMF .OHMM                       : MUD FILTRATE RESISTIVITY
RMFT.DEGF                       : RMF TEMPERATURE
RMC .OHMM                       : MUD CAKE RESISTIVITY
RMCT.DEGF                       : RMC TEMPERATURE
RMFS.                           : RMF SOURCE
RMCS.                           : RMC SOURCE
RMBH.OHMM                       : MUD RESISTIVITY AT BHT
BHT .DEGF                       : BOTTOM HOLE TEMPERATURE
TIMC.                           : TIME CIRCULATION STOPPED
TIML.                           : TIME LOGGER ON BOTTOM
TMAX.DEGF                       : MAXIMUM RECORDED TEMPERATURE
UNIT.                           : EQUIPMENT NUMBER
BASE.                           : BASE LOCATION
ENG .                 STONE-302 : RECORDED BY
WIT .                      TODD : WITNESSED BY
~Curve Information -----------------------------------------
DEPT.F          :DEPTH
LAT.OHMM        :
LN.OHMM         :
SN.OHMM         :
SP.MV           :
~ASCII ------------------------------------------------------
# ...
617.50000        6.53277        5.80013        7.41285      -52.20745
618.00000        6.53715        5.87868        7.43511      -50.80143
618.50000        6.54063        5.95722        7.46721      -49.75000
619.00000        6.54411        5.95326        7.49931      -50.11698
619.50000        6.54759        5.94930        7.53052      -50.12936
620.00000        6.55107        5.86284        7.56262      -50.49881
620.50000        6.55544        5.85888        7.70205      -51.22039
621.00000        6.55892        5.93742        7.84237      -52.65118
621.50000        6.56240        5.93346        7.98180      -53.37276
622.00000        6.81273        5.92950        8.12212      -53.73974
622.50000        7.06217        6.00805        8.26154      -54.10672
623.00000        7.31250        6.08580        8.40186      -54.82830
623.50000        7.56283        6.24685        8.54129      -55.19528
624.00000        7.45720        6.24289        8.68161      -55.91686
624.50000        7.26212        6.40394        8.57419      -56.63844
625.00000        7.06794        6.56498        8.46587      -57.00542
625.50000        6.87287        6.56102        8.35845      -57.37240
626.00000        6.67869        6.47456        8.25102      -56.67557
626.50000        6.69648        6.38810        8.14360      -55.97875
627.00000        6.85737        6.21913        8.03528      -54.92732
627.50000        7.01826        5.96765        7.92786      -55.29430
628.00000        7.17916        5.55117        8.34007      -56.37048
628.50000        7.33915        5.13469        8.75139      -58.51294
629.00000        7.50005        5.04822        9.16361      -60.65293
629.50000        7.66094        4.96176        9.57582      -62.79291
630.00000        8.17333        4.95701        9.98714      -64.22370
630.50000        8.91915        5.11806       10.39936      -65.29988
631.00000        9.66586        5.11410       10.39390      -66.02146
631.50000       10.41258        5.27515       10.12012      -66.74304
632.00000       10.81853        5.51870        9.66746      -67.11002
632.50000        9.86323        5.92726        9.21480      -67.12240
633.00000        8.92850        6.25332        8.76214      -66.07097
633.50000        8.00718        6.49687        8.30949      -65.01955
634.00000        7.08587        6.57542        7.85683      -65.74113
634.50000        6.16455        6.57146        7.67070      -67.17191
635.00000        5.56521        6.48499        7.55075      -70.37570
635.50000        5.44795        6.48103        7.43081      -73.22736
636.00000        5.33069        6.39457        7.31086      -73.94894
636.50000        5.21343        6.47311        7.19092      -73.96132
637.00000        5.07271        6.38665        7.07097      -72.90990
637.50000        4.95545        6.30018        6.95103      -71.50387
638.00000        4.87665        6.21372        6.83108      -70.80704
638.50000        4.95078        6.04475        6.73439      -69.75562
639.00000        5.02492        5.87578        6.72893      -69.41340
639.50000        5.09995        5.54101        6.72346      -68.36197
640.00000        5.17409        5.37204        6.71800      -66.95594
640.50000        5.24822        5.20307        6.71253      -64.84071
641.00000        5.56384        5.03410        6.64357      -62.01628
641.50000        5.94495        4.86514        6.53167      -58.83725
642.00000        6.42067        4.77867        6.41888      -56.01282
642.50000        6.89728        4.69221        6.30699      -53.89759
643.00000        7.37300        4.68825        6.25680      -53.20076
643.50000        7.76107        4.60178        6.29874      -53.21314
644.00000        7.79317        4.59782        6.33979      -53.58012
644.50000        7.82616        4.59386        6.38173      -52.88330
645.00000        7.85916        4.67241        6.51400      -52.54107
645.50000        7.89215        4.75095        6.70798      -51.84425
646.00000        7.92515        4.82949        6.90107      -52.56583
646.50000        7.95814        4.99054        7.09416      -53.64201
647.00000        7.97414        5.23330        7.08870      -55.42740
647.50000        7.92396        5.39435        7.08323      -57.92198
648.00000        7.87378        5.55540        7.07777      -60.77365
648.50000        7.82359        5.79896        7.07231      -62.55903
649.00000        7.69739        5.87750        7.06058      -63.63521
649.50000        7.26709        5.95604        7.02203      -64.35679
650.00000        6.83679        6.02282        6.98347      -65.23898
650.50000        6.79370        5.93636        6.98282      -66.32091
651.00000        6.67233        5.76739        6.97554      -65.62036
651.50000        6.24512        5.68093        6.94011      -64.91981
652.00000        6.25841        5.51196        6.89705      -64.57576
652.50000        6.48863        5.42549        6.87503      -65.65770
653.00000        6.71884        5.25652        6.87268      -66.02664
653.50000        6.94905        5.17006        6.87034      -66.75208
654.00000        7.17927        5.16610        6.86800      -66.40802
654.50000        7.18855        4.91463        6.84062      -64.99448
655.00000        7.14328        4.91067        6.71484      -63.58093
655.50000        7.09800        4.82420        6.58996      -61.09790
656.00000        7.05183        4.73774        6.46419      -59.68435
656.50000        6.99715        4.73378        6.31290      -58.98380
657.00000        6.95187        4.72902        6.18712      -58.63975
657.50000        6.92449        4.64256        6.13559      -57.93920
658.00000        6.90157        4.63860        6.13325      -58.30814
658.50000        6.87866        4.71714        6.13090      -59.39007
659.00000        6.85664        4.79569        6.12856      -60.82851
659.50000        6.75501        4.79173        6.16110      -61.91044
660.00000        6.53711        4.87027        6.03444      -62.63588
660.50000        6.31921        4.86631        6.15284      -63.36132
661.00000        6.05701        4.86235        6.29404      -64.79976
661.50000        5.83911        4.85839        6.41245      -65.88169
662.00000        5.62031        4.77193        6.52996      -66.60713
662.50000        5.64659        4.60296        6.64837      -65.55009
663.00000        5.73370        4.35149        6.70953      -61.99755
663.50000        5.82080        3.93500        6.77159      -58.08853
664.00000        5.90790        3.60103        6.81218      -56.67498
664.50000        5.99500        3.43206        6.76870      -56.68743
665.00000        6.40589        3.34559        6.72610      -58.48236
665.50000        6.99610        3.34163        6.99209      -60.99028
666.00000        7.48838        3.17266        7.31128      -63.85471
666.50000        8.13898        3.16870        7.57727      -67.07563
667.00000        9.42196        3.08224        7.78960      -68.51406
667.50000       10.70582        3.07749        7.78726      -66.38752
668.00000       11.98879        3.32104        7.78492      -64.26098
668.50000       12.16534        3.64710        7.78257      -64.62992
669.00000       10.69343        3.89065        7.74088      -67.49435
669.50000        9.22152        3.96920        7.63836      -71.78476
670.00000        8.00453        4.04774        7.53673      -75.36218
670.50000        7.76737        4.37380        7.41496      -76.08762
671.00000        7.56915        4.61735        7.31334      -73.60458
671.50000        7.26448        4.86090        7.21171      -71.12155
672.00000        6.53138        5.18696        7.11009      -70.42099
672.50000        5.79828        5.59552        6.97090      -70.07694
673.00000        5.06608        5.67407        6.77714      -69.37639
673.50000        4.33298        5.58760        6.58339      -68.31934
674.00000        3.45361        5.50114        6.41468      -66.54930
674.50000        3.04967        5.41467        6.46733      -65.49225
