~Version ---------------------------------------------------
VERS. 2.0 : CWLS LOG ASCII STANDARD - VERSION 2.0
WRAP. NO  : One line per depth step
DLM . SPACE : Column Data Section Delimiter
~Well ------------------------------------------------------
STRT.F          100 : START DEPTH
STOP.F       1218.0 : STOP DEPTH
STEP.F          0.5 : STEP
NULL.       -999.25 : NULL VALUE
COMP.                       WALSH & WATTS : COMPANY
WELL.                          SALMON A 6 : WELL
FLD .                          OLD NOCONA : FIELD
CNTY.                            MONTAGUE : COUNTY
STAT.                               TEXAS : STATE
CTRY.                                 USA : COUNTRY
SEC .                                     : SECTION
TWP .                                     : TOWNSHIP
RGE .                                     : RANGE
LOC .                                     : LOCATION
EKB .F                          : ELEVATION KELLY BUSHING
EDF .F                      884 : ELEVATION DERRICK FLOOR
EGL .F                      878 : ELEVATION GROUND LEVEL
PDAT.                           : PERMANENT DATUM
EPD .                           : ELEVATION PERMANENT DATUM
APD .                       5.5 : ABOVE PERMANENT DATUM
LMF .                       KDB : LOG MEASURED FROM
DMF .                       KDB : DRILLING MEASURED FROM
API .            42337039770000 : API NUMBER
UWI .                           : UWI NUMBER
DIGC.                     NthDS : DIGITIZING COMPANY
~Params ----------------------------------------------------
SRVC.     THE ELGEN CORPORATION : LOGGING COMPANY
LOG .                        EL : LOG
DATE.                1954-12-19 : RUN DATE
RUN .                         1 : RUN NUMBER
TDD .F                     1217 : TOTAL DEPTH DRILLER
TDL .F                     1219 : TOTAL DEPTH LOGGER
BOTL.F                     1218 : BOTTOM LOGGED INTERVAL
TOPL.F                      100 : TOP LOGGED INTERVAL
CSGS.IN                         : CASING SIZE
CSGD.F                          : CASING DRILLER
CSGL.F                          : CASING LOGGER
BS  .IN                    8.75 : BIT SIZE
MUD .                       GEL : MUD TYPE
MUDD.                        10 : MUD DENSITY
MUDV.                        60 : MUD VISCOSITY
PH  .                           : MUD PH
FL  .                           : FLUID LOSS
MUDS.                           : SOURCE OF SAMPLE
RM  .OHMM                   2.4 : MUD RESISTIVITY
RMT .DEGF                    58 : RM TEMPERATURE
RMF .OHMM                       : MUD FILTRATE RESISTIVITY
RMFT.DEGF                       : RMF TEMPERATURE
RMC .OHMM                       : MUD CAKE RESISTIVITY
RMCT.DEGF                       : RMC TEMPERATURE
RMFS.                           : RMF SOURCE
RMCS.                           : RMC SOURCE
RMBH.OHMM                       : MUD RESISTIVITY AT BHT
BHT .DEGF                       : BOTTOM HOLE TEMPERATURE
TIMC.                           : TIME CIRCULATION STOPPED
TIML.                           : TIME LOGGER ON BOTTOM
TMAX.DEGF                       : MAXIMUM RECORDED TEMPERATURE
UNIT.                           : EQUIPMENT NUMBER
BASE.                           : BASE LOCATION
ENG .                 STONE-302 : RECORDED BY
WIT .                      TODD : WITNESSED BY
~Curve Information -----------------------------------------
DEPT.F          :DEPTH
LAT.OHMM        :
LN.OHMM         :
SN.OHMM         :
SP.MV           :
~ASCII ------------------------------------------------------
# ...
847.50000        7.71810       26.17522       37.47561     -118.64190
848.00000        8.32386       27.07955       38.51301     -118.65421
848.50000        8.96920       28.23139       39.55042     -118.66652
849.00000        9.61453       29.54824       40.47991     -118.67883
849.50000       10.13115       30.86509       41.09365     -118.33842
850.00000       11.11127       31.93110       42.64729     -117.81261
850.50000       11.67979       33.24869       44.18357     -118.17765
851.00000       11.95584       33.49369       45.71986     -119.95358
851.50000       11.97788       33.24365       47.25615     -122.43497
852.00000       11.83087       32.74609       48.79333     -124.21091
852.50000       11.68386       31.91850       49.66239     -125.28140
853.00000       11.53685       30.51336       49.53058     -125.99916
853.50000       11.36044       28.44767       47.83354     -126.36420
854.00000       11.79927       25.96995       46.13650     -126.02379
854.50000       12.26751       23.73975       44.25700     -125.68337
855.00000       12.85214       21.34454       41.12185     -126.04841
855.50000       13.43766       18.04125       38.50892     -125.35527
856.00000       14.02228       15.15099       35.89599     -124.66214
856.50000       14.60780       12.75578       34.25262     -124.32419
857.00000       15.19243       10.52558       32.57090     -124.68922
857.50000       15.77795        8.70791       31.16991     -125.05426
858.00000       16.30623        7.30227       29.16251     -124.71385
858.50000       16.74953        6.55719       27.00395     -124.37344
859.00000       17.19284        6.05963       22.94307     -124.38575
859.50000       17.63615        5.56207       18.94558     -124.75079
860.00000       18.07945        5.06451       14.94898     -124.41037
860.50000       17.95212        4.56695       12.95511     -123.71724
861.00000       17.44555        4.23440       11.29474     -122.31865
861.50000       15.53475        3.98436        9.63348     -121.27279
862.00000       13.24303        3.73432        8.65376     -120.57965
862.50000       11.33223        3.48428        7.84488     -119.53379
863.00000        9.79529        3.23424        7.39556     -119.19338
863.50000        8.81736        3.06671        7.03657     -119.55841
864.00000        7.84033        2.89918        6.67758     -119.21800
864.50000        6.86330        2.81415        6.31770     -119.23031
865.00000        6.56781        2.72912        5.88727     -119.24263
865.50000        6.21431        2.56108        5.52739     -119.25494
866.00000        5.91882        2.47606        5.16840     -119.97270
866.50000        5.62423        2.39103        4.80942     -121.04319
867.00000        5.32875        2.30600        4.45043     -122.11368
867.50000        5.03327        2.30348        4.09055     -122.83144
868.00000        4.73868        2.21846        3.73156     -123.19648
868.50000        4.44319        2.13343        3.37257     -123.20879
869.00000        4.21211        2.13091        3.01358     -122.86838
869.50000        4.02217        2.12839        2.65370     -121.47225
870.00000        3.83312        2.04336        2.44051     -120.42639
870.50000        3.64407        2.04084        2.44465     -119.02780
871.00000        3.45413        2.03832        2.44880     -118.33466
871.50000        3.26508        1.95330        2.45295     -118.34698
872.00000        3.07603        2.03328        2.45709     -118.71201
872.50000        2.88609        2.03076        2.46124     -119.42978
873.00000        2.77575        2.02824        2.46539     -119.44209
873.50000        2.78258        2.02572        2.46954     -119.45440
874.00000        2.78941        2.02320        2.47368     -119.81944
874.50000        2.79624        2.02068        2.47783     -120.18448
875.00000        2.80397        2.01816        2.48287     -120.90224
875.50000        2.81080        2.01564        2.57288     -121.26728
876.00000        2.81763        2.01312        2.79258     -121.27959
876.50000        2.82446        2.01060        3.01229     -120.93918
877.00000        2.86528        1.92507        3.23199     -119.54059
877.50000        3.04026        2.00506        3.52682     -118.14200
878.00000        3.21524        2.00254        3.84044     -116.74342
878.50000        3.41437        2.08253        4.15495     -115.34483
879.00000        3.70831        2.16251        4.46857     -112.88807
879.50000        4.00225        2.24250        4.78218     -109.37313
880.00000        4.29708        2.40499        5.09669     -105.50547
880.50000        4.59102        2.48498        5.41031     -103.04870
881.00000        4.88496        2.64747        5.71767     -104.47192
881.50000        5.07157        2.80997        6.00177     -108.36420
882.00000        4.82886        2.88995        6.28497     -112.60922
882.50000        4.58525        2.96994        6.54313     -115.44333
883.00000        4.34164        2.88491        6.76284     -117.92718
883.50000        4.09803        2.88239        6.98254     -118.64494
884.00000        3.85443        2.71486        7.58416     -118.65726
884.50000        3.99363        2.62983        8.43979     -118.31684
885.00000        4.38685        2.54481        9.29632     -117.27098
885.50000        4.78096        2.45978       10.70829     -115.87239
886.00000        5.17418        2.45726       12.12115     -114.12108
886.50000        5.56740        2.45474       13.53311     -112.72249
887.00000        5.96152        2.53472       14.71074     -112.73481
887.50000        6.35474        2.53220       15.37217     -113.45257
888.00000        6.67909        2.61219       14.81831     -114.17033
888.50000        6.89879        2.69218       14.09887     -115.94627
889.00000        6.72137        2.85467       12.32760     -117.72221
889.50000        5.94648        2.93466       10.55632     -119.49814
890.00000        5.01786        3.01464        8.78415     -120.92136
890.50000        4.24386        3.01162        7.01287     -121.28639
891.00000        3.84910        2.92659        6.24525     -121.29871
891.50000        3.45344        2.92407        5.83080     -121.31102
892.00000        3.05867        2.92155        5.74462     -121.67606
892.50000        2.66301        2.83653        5.87666     -121.68837
893.00000        2.34875        2.75150        6.00961     -122.40613
893.50000        2.35647        2.66647        6.14166     -122.77117
894.00000        2.36420        2.58145        6.27371     -123.13621
894.50000        2.37192        2.57893        6.21614     -122.79826
895.00000        2.37965        2.49390        6.15857     -122.10512
895.50000        2.38737        2.49138        6.10100     -121.37671
896.00000        2.39599        2.48886        6.04343     -120.41903
896.50000        2.40371        2.48634        5.98587     -119.46135
897.00000        2.39981        2.48382        6.02847     -118.50367
897.50000        2.38786        2.48130        6.07019     -117.93398
898.00000        2.37680        2.47878        6.11279     -117.94630
898.50000        2.36485        2.55877        6.15540     -117.95861
899.00000        2.35379        2.55625        6.19801     -117.97092
899.50000        2.34273        2.55373        6.23078     -117.98323
900.00000        2.33335        2.88773        6.22765     -115.92228
900.50000        2.45371        2.88521        6.35957     -115.40733
901.00000        2.44330        2.80019        6.35723     -114.61118
901.50000        2.43153        2.79767        6.35488     -113.92048
902.00000        2.42201        2.71214        6.58461     -113.22978
902.50000        2.41160        2.62711        6.96936     -112.53908
903.00000        2.53918        2.62459        7.35410     -111.14540
903.50000        2.87285        2.62207        7.73885     -109.04876
904.00000        3.20653        2.61955        7.79428     -106.24915
904.50000        3.54020        2.61703        7.16470     -102.74657
