~Version ---------------------------------------------------
VERS. 2.0 : CWLS LOG ASCII STANDARD - VERSION 2.0
WRAP. NO  : One line per depth step
DLM . SPACE : Column Data Section Delimiter
~Well ------------------------------------------------------
STRT.F          100 : START DEPTH
STOP.F       1218.0 : STOP DEPTH
STEP.F          0.5 : STEP
NULL.       -999.25 : NULL VALUE
COMP.                       WALSH & WATTS : COMPANY
WELL.                          SALMON A 6 : WELL
FLD .                          OLD NOCONA : FIELD
CNTY.                            MONTAGUE : COUNTY
STAT.                               TEXAS : STATE
CTRY.                                 USA : COUNTRY
SEC .                                     : SECTION
TWP .                                     : TOWNSHIP
RGE .                                     : RANGE
LOC .                                     : LOCATION
EKB .F                          : ELEVATION KELLY BUSHING
EDF .F                      884 : ELEVATION DERRICK FLOOR
EGL .F                      878 : ELEVATION GROUND LEVEL
PDAT.                           : PERMANENT DATUM
EPD .                           : ELEVATION PERMANENT DATUM
APD .                       5.5 : ABOVE PERMANENT DATUM
LMF .                       KDB : LOG MEASURED FROM
DMF .                       KDB : DRILLING MEASURED FROM
API .            42337039770000 : API NUMBER
UWI .                           : UWI NUMBER
DIGC.                     NthDS : DIGITIZING COMPANY
~Params ----------------------------------------------------
SRVC.     THE ELGEN CORPORATION : LOGGING COMPANY
LOG .                        EL : LOG
DATE.                1954-12-19 : RUN DATE
RUN .                         1 : RUN NUMBER
TDD .F                     1217 : TOTAL DEPTH DRILLER
TDL .F                     1219 : TOTAL DEPTH LOGGER
BOTL.F                     1218 : BOTTOM LOGGED INTERVAL
TOPL.F                      100 : TOP LOGGED INTERVAL
CSGS.IN                         : CASING SIZE
CSGD.F                          : CASING DRILLER
CSGL.F                          : CASING LOGGER
BS  .IN                    8.75 : BIT SIZE
MUD .                       GEL : MUD TYPE
MUDD.                        10 : MUD DENSITY
MUDV.                        60 : MUD VISCOSITY
PH  .                           : MUD PH
FL  .                           : FLUID LOSS
MUDS.                           : SOURCE OF SAMPLE
RM  .OHMM                   2.4 : MUD RESISTIVITY
RMT .DEGF                    58 : RM TEMPERATURE
RMF .OHMM                       : MUD FILTRATE RESISTIVITY
RMFT.DEGF                       : RMF TEMPERATURE
RMC .OHMM                       : MUD CAKE RESISTIVITY
RMCT.DEGF                       : RMC TEMPERATURE
RMFS.                           : RMF SOURCE
RMCS.                           : RMC SOURCE
RMBH.OHMM                       : MUD RESISTIVITY AT BHT
BHT .DEGF                       : BOTTOM HOLE TEMPERATURE
TIMC.                           : TIME CIRCULATION STOPPED
TIML.                           : TIME LOGGER ON BOTTOM
TMAX.DEGF                       : MAXIMUM RECORDED TEMPERATURE
UNIT.                           : EQUIPMENT NUMBER
BASE.                           : BASE LOCATION
ENG .                 STONE-302 : RECORDED BY
WIT .                      TODD : WITNESSED BY
~Curve Information -----------------------------------------
DEPT.F          :DEPTH
LAT.OHMM        :
LN.OHMM         :
SN.OHMM         :
SP.MV           :
~ASCII ------------------------------------------------------
# ...
445.00000       10.33064        7.52357        9.85663      -52.65021
445.50000       10.45788        7.52465        9.78853      -52.65021
446.00000       10.12545        7.52573        9.72043      -52.65021
446.50000        9.67742        7.52681        9.65322      -53.00357
447.00000        9.22939        7.52789        9.58512      -53.35692
447.50000        9.20161        7.44646        9.51702      -54.06364
448.00000        9.27778        7.36503        9.44892      -55.47706
448.50000        9.35484        7.36611        9.56810      -57.59720
449.00000        9.43190        7.36719        9.96595      -60.07070
449.50000        9.50806        7.36827       10.36469      -61.83749
450.00000        9.58512        7.34323       10.76254      -65.01770
450.50000        9.67742        7.42574       11.24014      -67.37592
451.00000        9.37097        7.50825       11.55914      -69.14896
451.50000        9.06451        7.67327       11.55914      -70.56740
452.00000        8.75806        7.75577       11.55914      -71.98584
452.50000        8.44713        7.75577       11.55914      -74.11350
453.00000        8.11828        7.75577       11.55914      -75.17733
453.50000        7.78942        7.67327       11.55914      -75.17733
454.00000        7.46147        7.50825       11.51792      -75.17733
454.50000        7.13261        7.42574       11.46684      -74.82272
455.00000        6.80376        7.26072       11.41577      -74.11350
455.50000        6.57348        7.17822       11.35394      -73.75889
456.00000        6.65502        7.01320       11.30286      -73.40428
456.50000        6.73656        6.84818       11.25179      -73.04967
457.00000        6.81810        6.76568       11.20071      -73.04967
457.50000        6.89964        6.68317       10.98566      -72.34045
458.00000        7.17383        6.68317       10.77061      -71.98584
458.50000        7.44892        6.76568       10.55555      -71.27662
459.00000        7.72312        6.76568       10.34050      -70.21279
459.50000        7.99821        6.84818       10.12545      -69.85818
460.00000        8.27240        6.93069       10.61828      -70.21279
460.50000        8.60215        6.93069       11.20967      -71.63123
461.00000        8.39874        6.76568       11.70251      -72.34045
461.50000        8.19444        6.76568       12.24372      -72.69506
462.00000        7.99104        6.68317       12.97670      -73.40428
462.50000        7.78763        6.60066       13.70967      -74.82272
463.00000        7.96416        6.60066       14.44265      -75.88655
463.50000        8.39337        6.60066       15.17562      -76.24116
464.00000        8.82258        6.68317       15.18817      -75.88655
464.50000        9.25179        6.84818       14.88172      -75.53194
465.00000        9.68100        7.01320       14.02329      -74.82272
465.50000        9.87903        7.17822       12.99283      -74.46811
466.00000        9.67742        7.34323       12.13441      -73.04967
466.50000        9.00537        7.42574       11.27509      -71.63123
467.00000        8.33333        7.42574       10.87007      -70.21279
467.50000        7.66129        7.26072       10.76613      -69.50357
468.00000        7.31362        7.17822       10.66308      -68.43975
468.50000        7.45072        7.01320       10.75269      -68.08514
469.00000        7.58871        6.93069       10.84229      -68.08514
469.50000        7.78853        6.84818       10.93190      -67.37592
470.00000        8.00358        6.76568       10.53942      -67.02131
470.50000        8.26165        6.76568       10.06899      -66.31209
471.00000        8.47670        6.68317        9.67742      -65.24826
471.50000        8.69175        6.68317        9.28494      -63.12060
472.00000        8.69175        6.68317        9.04122      -60.99294
472.50000        8.69175        6.84818        9.01971      -58.51067
473.00000        8.68100        6.93069        8.99731      -56.73762
473.50000        8.62993        7.09571        8.97580      -56.02840
474.00000        8.57796        7.17822        8.95430      -55.31918
474.50000        8.52598        7.34323        8.93190      -54.60996
475.00000        8.47491        7.42574        8.91039      -53.54613
475.50000        8.35215        7.59076        8.88441      -52.12769
476.00000        7.99731        7.67327        8.89785      -50.70925
476.50000        7.64247        7.75577        8.96595      -50.00003
477.00000        7.28763        7.75577        9.03405      -49.29081
477.50000        6.93369        7.67327        9.10215      -49.29081
478.00000        6.78584        7.59076        9.16935      -50.00003
478.50000        6.95072        7.59076        9.23745      -50.35464
479.00000        7.11469        7.59076        9.30555      -51.06386
479.50000        7.27867        7.59076        9.54928      -52.12769
480.00000        7.44355        7.59076        9.83781      -52.83691
480.50000        7.64068        7.67327       10.18279      -54.25535
481.00000        7.76434        7.75577       10.47132      -56.38301
481.50000        7.86201        7.92079       10.75896      -57.80145
482.00000        7.95968        7.92079       10.93190      -58.86528
482.50000        7.99193        8.00330       10.93190      -58.86528
483.00000        8.07527        8.00330       10.93190      -58.86528
483.50000        8.15950        8.00330       10.93190      -59.21989
484.00000        8.24373        7.83828       10.93190      -59.21989
484.50000        8.32796        7.83828       10.93190      -59.21989
485.00000        8.41129        7.67327       10.79749      -59.21989
485.50000        8.51254        7.67327       10.52867      -58.86528
486.00000        8.59677        7.59076       10.30466      -57.80145
486.50000        8.68011        7.59076       10.08064      -55.67379
487.00000        8.76433        7.59076        9.85663      -53.90074
487.50000        8.88889        7.67327        9.63261      -53.19152
488.00000        9.02330        7.67327        9.72939      -53.19152
488.50000        9.15770        7.75577        9.90591      -53.90074
489.00000        9.29211        7.75577       10.08244      -54.96457
489.50000        9.33064        7.75577       10.25806      -54.96457
490.00000        9.34408        7.75577       10.43459      -54.96457
490.50000        9.36111        7.75577       10.64695      -55.31918
491.00000        9.37545        7.75577       10.69713      -55.31918
491.50000        9.38889        7.67327       10.56003      -55.67379
492.00000        9.40322        7.59076       10.42204      -55.67379
492.50000        9.45071        7.42574       10.28405      -56.38301
493.00000        9.51971        7.34323       10.14606      -55.31918
493.50000        9.58960        7.17822       10.00806      -53.19152
494.00000        9.65950        7.01320        9.87007      -51.77308
494.50000        9.72939        6.84818        9.73297      -50.00003
495.00000        9.79928        6.76568        9.49373      -49.29081
495.50000        9.88261        6.60066        9.12545      -48.93620
496.00000        9.95251        6.35313        8.81899      -48.22698
496.50000       10.02150        6.35313        8.51254      -47.87237
497.00000       10.16039        6.27063        8.39606      -47.87237
497.50000       10.31631        6.18812        8.27867      -47.87237
498.00000       10.47222        6.18812        8.16218      -47.87237
498.50000       10.62813        6.18812        8.04480      -47.87237
499.00000       10.68459        6.27063        8.06183      -47.87237
499.50000       10.34408        6.27063        8.27867      -48.22698
500.00000       10.00358        6.35313        8.49641      -48.58159
500.50000        9.75933        6.35050        8.69471      -49.19789
501.00000        9.41058        6.34798        8.90525      -49.91091
501.50000        9.06184        6.18044        9.11669      -50.62392
502.00000        9.11502        6.01291        9.32722      -51.69344
