~Version ---------------------------------------------------
VERS. 2.0 : CWLS LOG ASCII STANDARD - VERSION 2.0
WRAP. NO  : One line per depth step
DLM . SPACE : Column Data Section Delimiter
~Well ------------------------------------------------------
STRT.F          100 : START DEPTH
STOP.F       2271.5 : STOP DEPTH
STEP.F          0.5 : STEP
NULL.       -999.25 : NULL VALUE
COMP.                       WALSH & WATTS : COMPANY
WELL.                        SALMON E 24  : WELL
FLD .                               NORTH : FIELD
CNTY.                            MONTAGUE : COUNTY
STAT.                               TEXAS : STATE
CTRY.                                 USA : COUNTRY
SEC .                                     : SECTION
TWP .                                     : TOWNSHIP
RGE .                                     : RANGE
LOC .                 SW CORNER OF LEAGUE : LOCATION
EKB .F                          : ELEVATION KELLY BUSHING
EDF .F                          : ELEVATION DERRICK FLOOR
EGL .F                      850 : ELEVATION GROUND LEVEL
PDAT.                        GL : PERMANENT DATUM
EPD .                       850 : ELEVATION PERMANENT DATUM
APD .                         5 : ABOVE PERMANENT DATUM
LMF .                        RT : LOG MEASURED FROM
DMF .                        RT : DRILLING MEASURED FROM
API .            42337038630000 : API NUMBER
UWI .                           : UWI NUMBER
DIGC.                     NthDS : DIGITIZING COMPANY
~Params ----------------------------------------------------
SRVC.               HALLIBURTON : LOGGING COMPANY
LOG .                        EL : LOG
DATE.                1950-09-25 : RUN DATE
RUN .                         1 : RUN NUMBER
TDD .F                     2272 : TOTAL DEPTH DRILLER
TDL .F                     2272 : TOTAL DEPTH LOGGER
BOTL.F                     2272 : BOTTOM LOGGED INTERVAL
TOPL.F                          : TOP LOGGED INTERVAL
CSGS.IN                         : CASING SIZE
CSGD.F                          : CASING DRILLER
CSGL.F                          : CASING LOGGER
BS  .IN                       9 : BIT SIZE
MUD .        WATER BASE AQUAGEL : MUD TYPE
MUDD.                       9.8 : MUD DENSITY
MUDV.                        39 : MUD VISCOSITY
PH  .                           : MUD PH
FL  .                           : FLUID LOSS
MUDS.                           : SOURCE OF SAMPLE
RM  .OHMM                   2.3 : MUD RESISTIVITY
RMT .DEGF                    70 : RM TEMPERATURE
RMF .OHMM                       : MUD FILTRATE RESISTIVITY
RMFT.DEGF                       : RMF TEMPERATURE
RMC .OHMM                       : MUD CAKE RESISTIVITY
RMCT.DEGF                       : RMC TEMPERATURE
RMFS.                           : RMF SOURCE
RMCS.                           : RMC SOURCE
RMBH.OHMM                       : MUD RESISTIVITY AT BHT
BHT .DEGF                       : BOTTOM HOLE TEMPERATURE
TIMC.                           : TIME CIRCULATION STOPPED
TIML.                           : TIME LOGGER ON BOTTOM
TMAX.DEGF                       : MAXIMUM RECORDED TEMPERATURE
UNIT.                           : EQUIPMENT NUMBER
BASE.                           : BASE LOCATION
ENG .                  HARRISON : RECORDED BY
WIT .                    DAWSON : WITNESSED BY
~Curve Information -----------------------------------------
DEPT.F          :DEPTH
ILD.OHMM        :
SN.OHMM         :
SP.MV           :
~ASCII ------------------------------------------------------
# ...
830.00000        1.30393        4.67953      -28.47116
830.50000        1.21691        4.71772      -30.80820
831.00000        1.14908        4.90532      -32.81066
831.50000        1.08042        4.88424      -33.47484
832.00000        1.01260        4.55181      -32.46616
832.50000        1.21021        4.26946      -30.45377
833.00000        1.40866        4.10397      -29.44509
833.50000        1.60628        4.25150      -29.44013
834.00000        1.80389        4.60772      -30.10431
834.50000        2.00151        4.73438      -30.76849
835.00000        2.19996        4.70579      -30.09438
835.50000        2.39758        4.34999      -28.41656
836.00000        2.59519        4.04593      -25.81868
836.50000        2.79364        3.75524      -24.05622
837.00000        2.99126        3.72581      -24.76724
837.50000        3.03195        3.76233      -24.79908
838.00000        3.03340        3.74292      -24.37590
838.50000        3.03486        3.64003      -24.03637
839.00000        3.16516        3.53327      -23.02769
839.50000        3.32688        3.51469      -22.35359
840.00000        3.45021        3.49695      -22.34862
840.50000        3.41660        3.47837      -23.01280
841.00000        3.38300        3.45980      -23.67698
841.50000        3.24423        3.37778      -24.34116
842.00000        3.07874        3.46271      -25.00534
842.50000        2.91325        3.63111      -26.33866
843.00000        2.74777        3.71604      -26.66826
843.50000        2.49296        4.03302      -27.66701
844.00000        2.38340        4.40509      -28.66576
844.50000        2.38486        4.68034      -29.32994
845.00000        2.23022        4.34791      -28.99041
845.50000        2.05389        3.97374      -27.98173
846.00000        1.84666        3.97520      -27.64220
846.50000        1.90905        4.06013      -27.97180
847.00000        2.03906        4.22853      -27.63128
847.50000        2.17324        4.22998      -26.28803
848.00000        2.32327        4.14797      -25.27935
848.50000        2.47414        4.14972      -25.27439
849.00000        2.58107        4.06770      -25.60400
849.50000        2.60840        4.23610      -26.93732
850.00000        2.73901        4.59125      -29.10652
850.50000        2.80807        5.09354      -31.10898
851.00000        2.94058        5.17846      -31.10402
851.50000        3.07226        4.76256      -29.76077
852.00000        3.11127        3.97938      -27.07924
852.50000        2.77884        3.66365      -25.40142
853.00000        2.56327        3.62337      -25.06189
853.50000        2.81515        3.59978      -25.72607
854.00000        3.02862        3.60124      -26.39024
854.50000        3.09018        3.60270      -27.38899
855.00000        2.81701        3.60415      -27.71860
855.50000        2.49961        3.60561      -27.37907
856.00000        2.24063        3.60707      -26.70496
856.50000        2.26379        3.85894      -26.70000
857.00000        2.35790        4.02734      -27.69875
857.50000        2.50627        4.11227      -28.36293
858.00000        2.65547        4.11373      -29.02710
858.50000        2.80384        4.03171      -29.69128
859.00000        2.74687        3.86622      -29.35175
859.50000        2.55216        3.70074      -27.67393
860.00000        2.35663        3.61872      -26.99982
860.50000        2.20700        3.78712      -27.99857
861.00000        2.23684        4.03899      -30.00104
861.50000        2.26667        4.20740      -31.33436
862.00000        2.29651        4.29232      -32.33311
862.50000        2.32635        4.12684      -31.32443
863.00000        2.35619        3.79441      -30.31575
863.50000        2.38602        3.62892      -30.31079
864.00000        2.41586        3.79732      -30.30583
864.50000        2.44653        4.04919      -30.30086
865.00000        2.48722        4.21759      -29.96133
865.50000        2.54544        4.30252      -29.95637
866.00000        2.60449        4.38745      -30.95511
866.50000        2.66271        4.55585      -31.40517
867.00000        2.72093        4.55731      -31.85857
867.50000        2.86178        4.55877      -32.32535
868.00000        3.00180        4.47675      -32.60812
868.50000        3.14266        4.31126      -32.60315
869.00000        3.10238        4.25179      -32.59819
869.50000        3.06210        4.29164      -32.59422
870.00000        3.32482        4.31563      -32.25369
870.50000        3.56584        4.31709      -32.24873
871.00000        3.77598        4.31884      -33.58205
871.50000        3.76020        4.32030      -35.91908
872.00000        3.53879        4.82258      -39.25983
872.50000        3.37914        5.49182      -43.93886
873.00000        3.22033        6.41147      -49.95617
873.50000        3.20760        7.24764      -56.30805
874.00000        2.99203        7.66646      -64.33279
874.50000        2.57613        7.75139      -67.33996
875.00000        2.16022        7.91979      -70.68071
875.50000        1.80943        7.92124      -71.67946
876.00000        1.55546        7.92270      -72.67821
876.50000        1.30233        7.75721      -73.34238
877.00000        1.04836        7.75867      -74.00656
877.50000        0.92044        7.76013      -74.33617
878.00000        0.82340        7.76158      -74.66578
878.50000        0.72719        7.67957      -74.66081
879.00000        0.66938        7.59755      -74.65585
879.50000        0.67084        7.51554      -74.65089
880.00000        0.67230        7.26658      -74.31135
880.50000        0.67376        6.93415      -73.63725
881.00000        0.67521        6.68519      -72.96314
881.50000        0.67667        6.43623      -71.95447
882.00000        0.67813        6.27074      -70.61122
882.50000        0.75304        6.52262      -68.93340
883.00000        0.87720        6.85796      -67.59015
883.50000        1.00136        7.10983      -66.91505
884.00000        1.13721        7.27824      -67.24466
884.50000        1.31729        7.19622      -67.90983
885.00000        1.30122        7.11421      -68.90858
885.50000        1.23673        6.86525      -70.24190
886.00000        1.17141        6.78323      -71.24065
886.50000        1.10693        6.78469      -72.23940
887.00000        1.04161        6.86962      -72.56901
887.50000        0.97712        6.70413      -72.89862
888.00000        0.91180        6.62211      -72.55908
888.50000        0.84731        6.62357      -72.55412
889.00000        0.78199        6.70850      -72.21458
889.50000        0.79180        6.79343      -71.54048
890.00000        0.80244        6.87836      -70.53180
890.50000        0.81224        6.96329      -69.18856
891.00000        0.82288        7.13169      -67.84531
891.50000        0.83268        7.30009      -66.16650
892.00000        0.84332        7.55196      -66.16153
892.50000        0.85313        7.72065      -67.16128
893.00000        0.86293        7.80558      -68.82917
893.50000        0.87357        7.89051      -69.49335
894.00000        0.88003        7.97544      -70.15752
894.50000        0.88149        8.06037      -70.82170
895.00000        0.88295        8.22877      -71.48588
895.50000        0.88440        8.56411      -71.81549
896.00000        0.88586        8.73251      -71.81052
896.50000        0.88732        8.65050      -71.80556
897.00000        0.88878        8.65196      -71.46603
897.50000        0.91194        8.56994      -70.79192
898.00000        0.96681        8.48793      -70.11782
898.50000        1.02253        8.40591      -69.77828
899.00000        1.08855        8.40737      -69.10418
899.50000        1.14426        8.40882      -68.76464
900.00000        1.21982        8.43096      -67.24860
900.50000        1.24465        8.43241      -66.90807
901.00000        1.22440        8.43387      -66.90311
901.50000        1.20415        8.68574      -67.90186
902.00000        1.18391        8.93762      -68.90061
902.50000        1.18453        9.10602      -69.89936
