~Version ---------------------------------------------------
VERS. 2.0 : CWLS LOG ASCII STANDARD - VERSION 2.0
WRAP. NO  : One line per depth step
DLM . SPACE : Column Data Section Delimiter
~Well ------------------------------------------------------
STRT.F          500 : START DEPTH
STOP.F       2022.5 : STOP DEPTH
STEP.F          0.5 : STEP
NULL.       -999.25 : NULL VALUE
COMP.                 WALSH & WATTS, INC. : COMPANY
WELL.                          HYNDS A 10 : WELL
FLD .                           N. NOCONA : FIELD
CNTY.                            MONTAGUE : COUNTY
STAT.                               TEXAS : STATE
CTRY.                                 USA : COUNTRY
SEC .                                     : SECTION
TWP .                                     : TOWNSHIP
RGE .                                     : RANGE
LOC .  244' SE OF NO. 5A J.J. WALL SURVEY : LOCATION
EKB .F                    903.5 : ELEVATION KELLY BUSHING
EDF .F                          : ELEVATION DERRICK FLOOR
EGL .F                      897 : ELEVATION GROUND LEVEL
PDAT.                        GL : PERMANENT DATUM
EPD .                           : ELEVATION PERMANENT DATUM
APD .                         6 : ABOVE PERMANENT DATUM
LMF .                           : LOG MEASURED FROM
DMF .                           : DRILLING MEASURED FROM
API .            42337037830000 : API NUMBER
UWI .            42337037830000 : UWI NUMBER
DIGC.                     NthDS : DIGITIZING COMPANY
~Params ----------------------------------------------------
SRVC.                LANE WELLS : LOGGING COMPANY
LOG .                       GRN : LOG
DATE.                1957-11-30 : RUN DATE
RUN .                         1 : RUN NUMBER
TDD .F                     2039 : TOTAL DEPTH DRILLER
TDL .F                     2015 : TOTAL DEPTH LOGGER
BOTL.F                     2023 : BOTTOM LOGGED INTERVAL
TOPL.F                      500 : TOP LOGGED INTERVAL
CSGS.IN                     5.5 : CASING SIZE
CSGD.F                     2038 : CASING DRILLER
CSGL.F                          : CASING LOGGER
BS  .IN                    8.75 : BIT SIZE
MUD .                     WATER : MUD TYPE
MUDD.                           : MUD DENSITY
MUDV.                           : MUD VISCOSITY
PH  .                           : MUD PH
FL  .                           : FLUID LOSS
MUDS.                           : SOURCE OF SAMPLE
RM  .OHMM                       : MUD RESISTIVITY
RMT .DEGF                       : RM TEMPERATURE
RMF .OHMM                       : MUD FILTRATE RESISTIVITY
RMFT.DEGF                       : RMF TEMPERATURE
RMC .OHMM                       : MUD CAKE RESISTIVITY
RMCT.DEGF                       : RMC TEMPERATURE
RMFS.                           : RMF SOURCE
RMCS.                           : RMC SOURCE
RMBH.OHMM                       : MUD RESISTIVITY AT BHT
BHT .DEGF                       : BOTTOM HOLE TEMPERATURE
TIMC.                           : TIME CIRCULATION STOPPED
TIML.                           : TIME LOGGER ON BOTTOM
TMAX.DEGF                       : MAXIMUM RECORDED TEMPERATURE
UNIT.                           : EQUIPMENT NUMBER
BASE.                           : BASE LOCATION
ENG .                   ROBERTS : RECORDED BY
WIT .                       NIX : WITNESSED BY
~Curve Information -----------------------------------------
DEPT.F          :DEPTH
GRN.GAPI        :
NEUT.API        :
~ASCII ------------------------------------------------------
# ...
1490.00000       33.07291     2169.16391
1490.50000       33.93273     2168.71418
1491.00000       34.79255     2150.03026
1491.50000       33.70842     2131.34633
1492.00000       34.32412     2133.34705
1492.50000       32.98701     2121.92437
1493.00000       33.07829     2116.05123
1493.50000       32.89833     2059.27383
1494.00000       34.37568     2076.66190
1494.50000       35.99680     2110.23013
1495.00000       36.42715     2121.83443
1495.50000       36.88009     2139.83512
1496.00000       35.28331     2145.22321
1496.50000       33.17478     2124.17893
1497.00000       31.85847     2142.37782
1497.50000       30.49406     2170.39650
1498.00000       30.79058     2155.60446
1498.50000       31.58711     2146.93507
1499.00000       32.34295     2161.69252
1499.50000       33.63224     2143.29688
1500.00000       33.32744     2153.39239
1500.50000       33.84809     2173.73697
1501.00000       35.25362     2194.08154
1501.50000       34.53507     2200.85148
1502.00000       35.21056     2155.13284
1502.50000       34.17725     2144.25576
1503.00000       32.84179     2134.82664
1503.50000       31.75093     2174.62819
1504.00000       32.33632     2214.42974
1504.50000       32.92172     2235.28111
1505.00000       31.59974     2236.99781
1505.50000       29.19413     2256.36502
1506.00000       26.78763     2237.34315
1506.50000       24.38202     2236.87329
1507.00000       21.73811     2238.93736
1507.50000       19.09419     2258.70275
1508.00000       16.44938     2279.80751
1508.50000       14.71823     2287.48243
1509.00000       15.12377     2262.57822
1509.50000       16.87822     2279.75539
1510.00000       18.63268     2324.98679
1510.50000       18.17221     2297.82015
1511.00000       16.76391     2321.98372
1511.50000       15.35560     2358.99795
1512.00000       14.07229     2362.01782
1512.50000       13.75498     2359.28552
1513.00000       14.70369     2315.82932
1513.50000       18.41408     2337.16937
1514.00000       21.95540     2331.63164
1514.50000       25.38521     2307.97630
1515.00000       25.71611     2279.41600
1515.50000       26.73586     2250.85569
1516.00000       26.36172     2241.51707
1516.50000       22.24119     2258.15125
1517.00000       18.23307     2288.90304
1517.50000       14.22405     2278.11646
1518.00000       12.96862     2283.97795
1518.50000       13.71948     2247.58056
1519.00000       15.15919     2246.83920
1519.50000       16.88684     2300.86697
1520.00000       17.59364     2377.12094
1520.50000       17.20062     2379.23931
1521.00000       19.51532     2335.62021
1521.50000       22.57373     2292.00111
1522.00000       24.94869     2303.74842
1522.50000       23.96035     2294.13830
1523.00000       21.63478     2303.58698
1523.50000       18.65633     2343.64192
1524.00000       19.01691     2379.15389
1524.50000       19.19763     2381.67045
1525.00000       18.23536     2364.79895
1525.50000       16.69396     2384.16615
1526.00000       15.08602     2414.91795
1526.50000       15.33435     2385.16308
1527.00000       16.08432     2411.26330
1527.50000       16.50514     2473.38155
1528.00000       16.11662     2530.68533
1528.50000       15.46730     2507.86257
1529.00000       15.74964     2528.24335
1529.50000       16.01399     2530.32552
1530.00000       15.61917     2510.70637
1530.50000       15.03550     2539.77491
1531.00000       15.88169     2568.84345
1531.50000       15.69011     2592.55454
1532.00000       16.46165     2581.22497
1532.50000       18.08032     2487.86494
1533.00000       21.00401     2427.93818
1533.50000       23.44012     2424.91628
1534.00000       24.86454     2398.90801
1534.50000       25.51019     2369.64183
1535.00000       25.69091     2340.39374
1535.50000       23.34016     2381.10027
1536.00000       20.98851     2446.49453
1536.50000       19.07481     2518.04263
1537.00000       17.81668     2555.70844
1537.50000       17.48211     2492.79526
1538.00000       20.13854     2397.29948
1538.50000       23.89839     2407.23684
1539.00000       24.41634     2419.29184
1539.50000       25.09184     2416.25185
1540.00000       27.85798     2384.56033
1540.50000       28.65830     2367.94570
1541.00000       28.76978     2405.34002
1541.50000       26.12946     2450.57142
1542.00000       22.99634     2515.04261
1542.50000       19.53498     2557.32380
1543.00000       18.35329     2590.48283
1543.50000       17.97196     2620.63734
1544.00000       16.62390     2588.04084
1544.50000       15.83790     2591.64337
1545.00000       17.30009     2539.13394
1545.50000       17.61570     2552.03961
1546.00000       17.16692     2550.41138
1546.50000       19.43846     2510.48458
1547.00000       21.19309     2501.05546
1547.50000       22.20565     2466.64902
1548.00000       21.07522     2430.07063
1548.50000       19.04101     2425.99896
1549.00000       17.00681     2449.09467
1549.50000       14.97260     2459.33971
1550.00000       14.86501     2392.90323
1550.50000       14.99200     2375.40173
1551.00000       14.23611     2378.44317
1551.50000       14.83157     2403.63842
1552.00000       14.66576     2428.81557
1552.50000       15.74050     2408.50864
1553.00000       16.80713     2419.35097
1553.50000       20.87735     2383.13457
1554.00000       24.78182     2343.69646
1554.50000       28.92699     2304.25835
1555.00000       31.81073     2272.07814
1555.50000       31.72150     2277.72244
1556.00000       29.41697     2341.41535
1556.50000       27.11243     2382.82776
1557.00000       24.80880     2399.29904
1557.50000       23.95471     2344.98313
1558.00000       25.82494     2372.71231
1558.50000       27.83031     2420.96633
1559.00000       27.94378     2398.32457
1559.50000       25.12483     2408.26192
1560.00000       21.02661     2460.00915
1560.50000       18.39685     2462.52571
1561.00000       16.41573     2411.82970
1561.50000       19.97515     2420.86208
1562.00000       23.53457     2350.25314
1562.50000       28.33993     2236.20884
1563.00000       32.24529     2263.34073
1563.50000       32.23101     2262.11069
1564.00000       30.65530     2253.22455
1564.50000       31.16698     2232.51944
1565.00000       29.28766     2333.85933
1565.50000       26.25520     2411.27167
1566.00000       23.22364     2476.81073
1566.50000       20.79478     2469.55355
1567.00000       18.76862     2483.41850
1567.50000       17.94066     2452.50526
1568.00000       17.40008     2409.04906
1568.50000       18.65500     2399.92415
1569.00000       19.91082     2405.20993
1569.50000       20.40447     2387.50934
1570.00000       19.75489     2359.51012
1570.50000       18.80441     2344.52445
1571.00000       17.65482     2357.17673
1571.50000       18.50614     2360.32677
1572.00000       19.18898     2325.64883
1572.50000       19.31867     2329.97534
1573.00000       22.29251     2360.72714
1573.50000       21.35644     2391.47893
1574.00000       21.62757     2355.26253
1574.50000       21.48429     2379.67950
1575.00000       20.65903     2404.54548
1575.50000       22.31232     2384.16615
1576.00000       24.37714     2313.56068
1576.50000       26.44287     2324.85550
1577.00000       26.12842     2329.81550
1577.50000       25.94009     2302.19636
1578.00000       26.44546     2304.89392
1578.50000       27.64723     2287.53721
1579.00000       29.36611     2262.97690
1579.50000       31.21381     2273.02285
1580.00000       32.66513     2261.96478
1580.50000       32.01284     2227.24716
1581.00000       31.91641     2267.04871
1581.50000       29.96502     2295.62857
1582.00000       27.71364     2287.55691
1582.50000       27.25324     2298.85173
1583.00000       27.98564     2299.61264
1583.50000       26.47119     2339.66758
1584.00000       24.95674     2386.09356
1584.50000       23.64590     2434.11229
1585.00000       22.38551     2464.37540
1585.50000       23.03519     2441.37164
1586.00000       24.23695     2408.23216
1586.50000       23.84773     2379.70805
1587.00000       25.45220     2353.29812
1587.50000       25.80171     2347.54320
