~Version ---------------------------------------------------
VERS. 2.0 : CWLS LOG ASCII STANDARD - VERSION 2.0
WRAP. NO  : One line per depth step
DLM . SPACE : Column Data Section Delimiter
~Well ------------------------------------------------------
STRT.F          500 : START DEPTH
STOP.F       2022.5 : STOP DEPTH
STEP.F          0.5 : STEP
NULL.       -999.25 : NULL VALUE
COMP.                 WALSH & WATTS, INC. : COMPANY
WELL.                          HYNDS A 10 : WELL
FLD .                           N. NOCONA : FIELD
CNTY.                            MONTAGUE : COUNTY
STAT.                               TEXAS : STATE
CTRY.                                 USA : COUNTRY
SEC .                                     : SECTION
TWP .                                     : TOWNSHIP
RGE .                                     : RANGE
LOC .  244' SE OF NO. 5A J.J. WALL SURVEY : LOCATION
EKB .F                    903.5 : ELEVATION KELLY BUSHING
EDF .F                          : ELEVATION DERRICK FLOOR
EGL .F                      897 : ELEVATION GROUND LEVEL
PDAT.                        GL : PERMANENT DATUM
EPD .                           : ELEVATION PERMANENT DATUM
APD .                         6 : ABOVE PERMANENT DATUM
LMF .                           : LOG MEASURED FROM
DMF .                           : DRILLING MEASURED FROM
API .            42337037830000 : API NUMBER
UWI .            42337037830000 : UWI NUMBER
DIGC.                     NthDS : DIGITIZING COMPANY
~Params ----------------------------------------------------
SRVC.                LANE WELLS : LOGGING COMPANY
LOG .                       GRN : LOG
DATE.                1957-11-30 : RUN DATE
RUN .                         1 : RUN NUMBER
TDD .F                     2039 : TOTAL DEPTH DRILLER
TDL .F                     2015 : TOTAL DEPTH LOGGER
BOTL.F                     2023 : BOTTOM LOGGED INTERVAL
TOPL.F                      500 : TOP LOGGED INTERVAL
CSGS.IN                     5.5 : CASING SIZE
CSGD.F                     2038 : CASING DRILLER
CSGL.F                          : CASING LOGGER
BS  .IN                    8.75 : BIT SIZE
MUD .                     WATER : MUD TYPE
MUDD.                           : MUD DENSITY
MUDV.                           : MUD VISCOSITY
PH  .                           : MUD PH
FL  .                           : FLUID LOSS
MUDS.                           : SOURCE OF SAMPLE
RM  .OHMM                       : MUD RESISTIVITY
RMT .DEGF                       : RM TEMPERATURE
RMF .OHMM                       : MUD FILTRATE RESISTIVITY
RMFT.DEGF                       : RMF TEMPERATURE
RMC .OHMM                       : MUD CAKE RESISTIVITY
RMCT.DEGF                       : RMC TEMPERATURE
RMFS.                           : RMF SOURCE
RMCS.                           : RMC SOURCE
RMBH.OHMM                       : MUD RESISTIVITY AT BHT
BHT .DEGF                       : BOTTOM HOLE TEMPERATURE
TIMC.                           : TIME CIRCULATION STOPPED
TIML.                           : TIME LOGGER ON BOTTOM
TMAX.DEGF                       : MAXIMUM RECORDED TEMPERATURE
UNIT.                           : EQUIPMENT NUMBER
BASE.                           : BASE LOCATION
ENG .                   ROBERTS : RECORDED BY
WIT .                       NIX : WITNESSED BY
~Curve Information -----------------------------------------
DEPT.F          :DEPTH
GRN.GAPI        :
NEUT.API        :
~ASCII ------------------------------------------------------
# ...
1098.00000       36.43760     2214.13567
1098.50000       37.76943     2191.99992
1099.00000       39.20795     2181.14020
1099.50000       39.78299     2176.92300
1100.00000       37.91048     2131.67414
1100.50000       36.98010     2145.78655
1101.00000       36.08589     2158.22777
1101.50000       37.04068     2176.31096
1102.00000       37.16093     2175.09938
1102.50000       35.06961     2157.32362
1103.00000       34.39421     2188.96918
1103.50000       34.78028     2192.13374
1104.00000       35.95930     2161.84441
1104.50000       34.92676     2167.86611
1105.00000       34.78028     2178.11927
1105.50000       33.83363     2193.03790
1106.00000       33.18263     2207.05236
1106.50000       30.65099     2219.71059
1107.00000       28.05876     2258.89684
1107.50000       26.00994     2286.02161
1108.00000       25.85895     2205.60571
1108.50000       28.32730     2073.59849
1109.00000       31.53706     2017.17897
1109.50000       34.93670     2037.84804
1110.00000       36.46383     2030.43394
1110.50000       36.36256     2014.71965
1111.00000       35.08137     2049.24045
1111.50000       35.35261     2074.14098
1112.00000       36.55786     2078.66178
1112.50000       37.21247     2110.30735
1113.00000       35.66274     2133.81548
1113.50000       36.24592     2113.38149
1114.00000       37.36346     2071.79017
1114.50000       38.75858     2054.06865
1115.00000       38.57775     2073.88782
1115.50000       38.11030     2114.95472
1116.00000       36.88968     2149.18618
1116.50000       37.79384     2122.06141
1117.00000       37.50451     2130.50626
1117.50000       37.55876     2122.06141
1118.00000       38.37251     2100.36160
1118.50000       38.04701     2118.89686
1119.00000       37.82368     2116.63646
1119.50000       38.02621     2097.10662
1120.00000       38.42675     2131.10300
1120.50000       38.30650     2133.63465
1121.00000       39.93760     2104.70156
1121.50000       41.41048     2113.01982
1122.00000       40.84538     2111.66358
1122.50000       40.30741     2128.08311
1123.00000       39.55695     2093.72507
1123.50000       38.60759     2051.53701
1124.00000       38.15551     2069.76486
1124.50000       38.25858     2094.10482
1125.00000       39.87341     2118.44478
1125.50000       38.89420     2092.09758
1126.00000       39.70252     2097.34171
1126.50000       40.95840     2109.40319
1127.00000       41.00994     2080.47010
1127.50000       39.46021     2084.08673
1128.00000       36.16636     2049.42128
1128.50000       35.41319     2040.32544
1129.00000       35.98553     2055.31639
1129.50000       36.70885     2101.35617
1130.00000       35.42766     2147.37787
1130.50000       34.99095     2157.77570
1131.00000       36.46021     2151.59125
1131.50000       37.92947     2160.03609
1132.00000       37.97468     2135.24405
1132.50000       36.57323     2108.75219
1133.00000       35.17178     2082.27842
1133.50000       36.78661     2098.19162
1134.00000       37.25135     2115.37064
1134.50000       38.47829     2119.65635
1135.00000       38.58950     2112.49541
1135.50000       38.78842     2141.95291
1136.00000       38.87883     2128.69794
1136.50000       36.98010     2089.51169
1137.00000       37.10668     2043.58041
1137.50000       36.65460     1987.52255
1138.00000       35.38245     1990.70519
1138.50000       35.78661     2082.76666
1139.00000       35.92495     2169.80101
1139.50000       34.26762     2221.88057
1140.00000       36.16636     2219.40317
1140.50000       34.44846     2229.96375
1141.00000       35.20162     2223.32723
1141.50000       34.35804     2209.76484
1142.00000       35.31826     2195.60571
1142.50000       35.83453     2214.88238
1143.00000       35.02350     2232.62198
1143.50000       34.16093     2260.09033
1144.00000       34.84629     2232.82089
1144.50000       35.31645     2237.79377
1145.00000       35.51084     2246.23862
1145.50000       36.07594     2204.33989
1146.00000       34.81012     2202.71240
1146.50000       35.63923     2183.54423
1147.00000       34.71970     2202.31457
1147.50000       35.10397     2221.10299
1148.00000       36.10578     2234.17713
1148.50000       35.89511     2256.78111
1149.00000       35.29204     2279.38509
1149.50000       34.65189     2264.91854
1150.00000       34.60668     2217.90227
1150.50000       35.89608     2234.06129
1151.00000       36.50003     2163.53783
1151.50000       36.01825     2172.38260
1152.00000       34.99471     2144.40426
1152.50000       36.35181     2164.25985
1153.00000       35.93676     2184.11545
1153.50000       36.20255     2157.03964
1154.00000       34.99004     2176.58837
1154.50000       33.59308     2196.15516
1155.00000       32.19703     2194.22375
1155.50000       32.09120     2216.15516
1156.00000       32.95464     2231.04685
1156.50000       33.69149     2209.07934
1157.00000       33.46632     2226.38981
1157.50000       36.36066     2243.68223
1158.00000       35.81904     2228.33927
1158.50000       34.23763     2219.49450
1159.00000       35.36869     2203.06851
1159.50000       34.82724     2189.13350
1160.00000       34.77640     2215.19848
1160.50000       35.64254     2216.15516
1161.00000       36.89386     2176.89523
1161.50000       36.36761     2144.40426
1162.00000       35.23828     2171.84108
1162.50000       36.31888     2201.62447
1163.00000       37.25194     2205.37898
1163.50000       35.01501     2248.50172
1164.00000       35.55838     2280.37897
1164.50000       34.50409     2272.56309
1165.00000       35.46970     2214.80136
1165.50000       36.64597     2217.96021
1166.00000       36.61067     2233.44757
1166.50000       37.76886     2202.16599
1167.00000       37.89631     2213.77248
1167.50000       36.46861     2220.45118
1168.00000       34.66116     2223.82663
1168.50000       36.04828     2210.83025
1169.00000       36.41714     2190.88440
1169.50000       35.27877     2198.77249
1170.00000       35.11689     2115.52340
1170.50000       34.80582     2059.56672
1171.00000       35.79222     2103.97105
1171.50000       36.34010     2169.85552
1172.00000       34.93953     2212.99631
1172.50000       32.68000     2182.90606
1173.00000       32.19263     2122.74361
1173.50000       33.49548     2154.33206
1174.00000       31.94680     2213.24902
1174.50000       31.68907     2259.92771
1175.00000       30.70351     2253.61002
1175.50000       29.47110     2222.47284
1176.00000       29.34087     2144.04325
1176.50000       30.86705     2133.57394
1177.00000       31.60300     2151.62448
1177.50000       31.95920     2155.23458
1178.00000       33.52788     2099.72918
1178.50000       35.09565     2088.44759
1179.00000       35.85601     2111.01076
1179.50000       37.19520     2133.57394
1180.00000       36.85249     2148.46563
1180.50000       36.55951     2169.47646
1181.00000       35.13181     2258.71833
1181.50000       29.68332     2355.59557
1182.00000       24.23574     2456.67859
1182.50000       18.78815     2493.68220
1183.00000       13.87402     2493.03238
1183.50000       13.68954     2422.12986
1184.00000       14.37576     2347.34648
1184.50000       14.22653     2316.24540
1185.00000       14.47695     2335.19846
1185.50000       15.12339     2335.73998
1186.00000       14.60798     2358.30315
1186.50000       13.44610     2381.58835
1187.00000       14.93250     2366.06489
1187.50000       15.43716     2378.61001
1188.00000       16.64598     2346.93131
1188.50000       18.98952     2282.03962
1189.00000       21.34662     2254.51255
1189.50000       23.75888     2290.61363
1190.00000       26.17113     2264.13349
1190.50000       28.22082     2234.65696
1191.00000       26.56437     2272.76165
1191.50000       23.40068     2308.66417
1192.00000       20.23700     2358.30315
1192.50000       19.39537     2365.52337
1193.00000       21.15754     2377.25622
1193.50000       22.91880     2348.37536
1194.00000       24.68096     2385.25261
1194.50000       23.85814     2416.19123
1195.00000       20.41146     2424.18762
1195.50000       18.28394     2388.68221
