~Version ---------------------------------------------------
VERS. 2.0 : CWLS LOG ASCII STANDARD - VERSION 2.0
WRAP. NO  : One line per depth step
DLM . SPACE : Column Data Section Delimiter
~Well ------------------------------------------------------
STRT.F          227 : START DEPTH
STOP.F       2033.0 : STOP DEPTH
STEP.F          0.5 : STEP
NULL.       -999.25 : NULL VALUE
COMP.                  WALSH & WATTS, INC : COMPANY
WELL.                          HYNDS A 10 : WELL
FLD .                           N. NOCONA : FIELD
CNTY.                            MONTAGUE : COUNTY
STAT.                               TEXAS : STATE
CTRY.                                 USA : COUNTRY
SEC .                                     : SECTION
TWP .                                     : TOWNSHIP
RGE .                                     : RANGE
LOC .  244' SE OF NO. 5A J.J. WALL SURVEY : LOCATION
EKB .F                    903.5 : ELEVATION KELLY BUSHING
EDF .F                          : ELEVATION DERRICK FLOOR
EGL .F                      897 : ELEVATION GROUND LEVEL
PDAT.                        GL : PERMANENT DATUM
EPD .                           : ELEVATION PERMANENT DATUM
APD .                         6 : ABOVE PERMANENT DATUM
LMF .                           : LOG MEASURED FROM
DMF .                           : DRILLING MEASURED FROM
API .            42337037830000 : API NUMBER
UWI .            42337037830000 : UWI NUMBER
DIGC.                     NthDS : DIGITIZING COMPANY
~Params ----------------------------------------------------
SRVC.              SCHLUMBERGER : LOGGING COMPANY
LOG .                       IEL : LOG
DATE.                1957-10-20 : RUN DATE
RUN .                         1 : RUN NUMBER
TDD .F                          : TOTAL DEPTH DRILLER
TDL .F                          : TOTAL DEPTH LOGGER
BOTL.F                     2039 : BOTTOM LOGGED INTERVAL
TOPL.F                          : TOP LOGGED INTERVAL
CSGS.IN                         : CASING SIZE
CSGD.F                      227 : CASING DRILLER
CSGL.F                      227 : CASING LOGGER
BS  .IN                    8.75 : BIT SIZE
MUD .                       GEL : MUD TYPE
MUDD.                       9.9 : MUD DENSITY
MUDV.                        50 : MUD VISCOSITY
PH  .                           : MUD PH
FL  .                           : FLUID LOSS
MUDS.                           : SOURCE OF SAMPLE
RM  .OHMM                   2.3 : MUD RESISTIVITY
RMT .DEGF                    60 : RM TEMPERATURE
RMF .OHMM                   .76 : MUD FILTRATE RESISTIVITY
RMFT.DEGF                    96 : RMF TEMPERATURE
RMC .OHMM                   1.7 : MUD CAKE RESISTIVITY
RMCT.DEGF                    96 : RMC TEMPERATURE
RMFS.                           : RMF SOURCE
RMCS.                           : RMC SOURCE
RMBH.OHMM                   1.4 : MUD RESISTIVITY AT BHT
BHT .DEGF                    96 : BOTTOM HOLE TEMPERATURE
TIMC.                           : TIME CIRCULATION STOPPED
TIML.                           : TIME LOGGER ON BOTTOM
TMAX.DEGF                       : MAXIMUM RECORDED TEMPERATURE
UNIT.                       785 : EQUIPMENT NUMBER
BASE.                        WF : BASE LOCATION
ENG .                     JONES : RECORDED BY
WIT .               BALCH & NIX : WITNESSED BY
~Curve Information -----------------------------------------
DEPT.F          :DEPTH
CILD.MMHO       :
ILD.OHMM        :
ROP.FT/HR       :
SN.OHMM         :
SP.MV           :
~ASCII ------------------------------------------------------
# ...
1974.00000       49.32214       39.58721        5.34735       46.88447      -58.68374
1974.50000       49.95550       36.23857        5.34972       44.95203      -59.34187
1975.00000       53.46130       32.50434        5.35192       42.48266      -58.19562
1975.50000       56.96710       29.05119        5.35466       37.98447      -53.30897
1976.00000       60.41937       26.74399        5.35685       33.48629      -46.27058
1976.50000       63.65755       24.40074        5.35923       29.34846      -38.95614
1977.00000       66.90465       22.05029        5.36142       26.65206      -31.22853
1977.50000       72.38190       17.51284        5.36380       23.95566      -24.21025
1978.00000       78.94747       15.89186        5.36600       23.29169      -20.03110
1978.50000       84.42472       14.96456        5.36837       23.13221      -18.38393
1979.00000       89.89305       14.71763        5.37057       23.25382      -17.36748
1979.50000       90.51749       14.85195        5.37349       23.55920      -17.18466
1980.00000       89.91981       15.08177        5.37568       23.48747      -17.73311
1980.50000       89.32213       15.20131        5.37806       22.69377      -18.02013
1981.00000       89.59867       15.00266        5.38025       19.58570      -18.54298
1981.50000       90.09823       14.74311        5.38263       18.72147      -18.64718
1982.00000       92.49787       14.06303        5.38483       18.10696      -18.64718
1982.50000       94.89751       13.44096        5.38720       18.16777      -18.92141
1983.00000       96.99385       13.05132        5.38940       18.33069      -20.23219
1983.50000       98.93855       12.97988        5.39214       18.38537      -22.30349
1984.00000       99.67004       13.09330        5.39305       18.10492      -22.79161
1984.50000       99.08128       13.21537        3.91097       17.19240      -22.48631
1985.00000       98.48360       13.13491        3.90768       15.86908      -22.30349
1985.50000       99.01883       12.68221        3.90420       14.09062      -20.84097
1986.00000      103.47913       11.64465        3.90091       12.67684      -17.38759
1986.50000      114.30875       10.25538        3.89762       11.74041      -14.44243
1987.00000      125.20973        8.86575        3.89433       10.56988      -16.48996
1987.50000      136.16423        8.03755        3.89104       10.18781      -23.98539
1988.00000      147.08306        7.34917        3.88702        9.74244      -32.58685
1988.50000      157.94835        6.66080        3.88373        9.31965      -39.10056
1989.00000      170.99920        6.10395        3.88026        8.80208      -42.35285
1989.50000      180.01793        5.80080        3.87696        8.69929      -43.73859
1990.00000      184.36227        5.72431        6.41865        9.21487      -45.20477
1990.50000      185.54871        5.84975        6.42285        9.91856      -46.86656
1991.00000      183.76459        6.08245        6.42724       10.74801      -48.20294
1991.50000      174.84398        6.68380        6.43163       11.52449      -49.31994
1992.00000      165.92337        7.28514        9.92687       12.26601      -49.65632
1992.50000      153.21151        8.29766        9.92687       12.82028      -49.77149
1993.00000      139.55406        9.41323        9.92687       13.22631      -49.88484
1993.50000      125.88770       10.52881        9.92687       13.63090      -50.53566
1994.00000      115.52195       11.67803        9.92687       14.03405      -51.41135
1994.50000      105.70929       12.55685        9.92687       14.43756      -52.42780
1995.00000       99.70572       13.43603        9.92687       14.83242      -52.74224
1995.50000       96.95817       14.04026        9.92687       15.19341      -52.59050
1996.00000       94.21955       14.46143        9.92687       15.73962      -52.25961
1996.50000       92.37298       14.81881        9.92687       16.25785      -51.73676
1997.00000       90.74943       14.92250        9.92687       16.16839      -51.21390
1997.50000       90.09823       15.06380        9.92687       15.80866      -50.76966
1998.00000       89.80385       15.44893        9.92687       15.57866      -50.37844
1998.50000       88.31411       15.90000        9.92687       15.41352      -49.98721
1999.00000       86.82436       16.35108        9.92687       15.31217      -50.04206
1999.50000       85.25434       16.83675        9.92687       15.52289      -50.20842
2000.00000       83.66647       17.36663        5.26508       16.18826      -50.54846
2000.50000       82.62042       17.99320       21.17647       17.05375      -50.36766
2001.00000       81.28352       18.83022       21.17647       19.26494      -49.72428
2001.50000       79.44752       22.24341       21.17647       20.20018      -48.34560
2002.00000       75.63290       26.45147       21.17647       23.75960      -46.96692
2002.50000       69.35839       30.66314       22.86764       27.31542      -45.05700
2003.00000       62.46891       35.53427       22.86764       30.87484      -43.01472
2003.50000       56.81829       41.39637       22.86764       35.14542      -43.01472
2004.00000       51.98763       47.87595       22.86764       38.70484      -43.09376
2004.50000       47.59369       50.97411       34.85293       42.26066      -43.01472
2005.00000       46.25679       54.00020       34.85293       45.67593      -42.55516
2005.50000       44.91989       57.00828       34.85293       48.51464      -41.62317
2006.00000       43.58299       60.87400       34.85293       51.35334      -40.57170
2006.50000       42.33522       66.75052       33.45587       54.18844      -39.52207
2007.00000       41.22114       73.96398       33.45587       57.59417      -39.21509
2007.50000       40.10706       76.13241       33.45587       60.43287      -38.89707
2008.00000       40.36552       74.67565       33.45587       62.81752      -38.52943
2008.50000       40.68638       73.21528       39.85293       65.08686      -38.08825
2009.00000       40.94485       71.46788       39.85293       67.35620      -37.77575
2009.50000       41.21223       70.27418       39.85293       69.62554      -37.54597
2010.00000       41.47069       69.21381       39.85293       71.89488      -37.58090
2010.50000       41.72916       68.70839       39.85293       74.16782      -37.68384
2011.00000       41.83611       68.19937       39.85293       76.88886      -37.85112
2011.50000       41.68460       67.84170       39.85293       78.79784      -38.01840
2012.00000       41.54199       67.70745       39.85293       79.25458      -37.97796
2012.50000       41.37265       67.57680       39.85293       79.71132      -37.86766
2013.00000       41.23005       68.17047       39.85293       80.16805      -37.56068
2013.50000       41.08745       69.90288       39.85293       80.56353      -37.36215
2014.00000       40.49030       74.73076       39.85293       80.70675      -37.59193
2014.50000       39.21579       80.67215       31.46690       80.85358      -38.01472
2015.00000       37.94128       87.80397       31.44705       81.49771      -38.56619
2015.50000       37.63825       90.00124       31.42793       82.66921      -39.06251
2016.00000       37.98585       86.58413       31.40882       83.64486      -39.52207
2016.50000       38.32453       82.59765       15.66176       84.62052      -39.98163
2017.00000       39.75055       77.74992       15.66176       85.59617      -40.07354
2017.50000       40.93593       72.90578       15.66176       86.74840      -39.87134
2018.00000       41.60438       74.24900       15.66176       88.01594      -38.86582
2018.50000       40.20510       82.42461       21.17647       89.28348      -37.85847
2019.00000       38.79690       91.91913       21.17647       90.55103      -36.85296
2019.50000       37.38870      101.41365       21.17647       91.83064      -35.84560
2020.00000       36.54200      104.49144       21.17647       92.79908      -35.31435
2020.50000       36.54200       99.31578       28.60293       93.76753      -34.78126
