~Version ---------------------------------------------------
VERS. 2.0 : CWLS LOG ASCII STANDARD - VERSION 2.0
WRAP. NO  : One line per depth step
DLM . SPACE : Column Data Section Delimiter
~Well ------------------------------------------------------
STRT.F          572 : START DEPTH
STOP.F       1770.0 : STOP DEPTH
STEP.F          0.5 : STEP
NULL.       -999.25 : NULL VALUE
COMP.         WALSH & WATTS, INCORPORATED : COMPANY
WELL.                         SALMON E 44 : WELL
FLD .                             REGULAR : FIELD
CNTY.                            MONTAGUE : COUNTY
STAT.                               TEXAS : STATE
CTRY.                                 USA : COUNTRY
SEC .                                     : SECTION
TWP .                                     : TOWNSHIP
RGE .                                     : RANGE
LOC . 300' WEST OF NO 23, 300' SOUTH OF D-9, F.ROBERTSON SURV. : LOCATION
EKB .F                      862 : ELEVATION KELLY BUSHING
EDF .F                          : ELEVATION DERRICK FLOOR
EGL .F                      856 : ELEVATION GROUND LEVEL
PDAT.                        GL : PERMANENT DATUM
EPD .                       856 : ELEVATION PERMANENT DATUM
APD .                         6 : ABOVE PERMANENT DATUM
LMF .                        KB : LOG MEASURED FROM
DMF .                        KB : DRILLING MEASURED FROM
API .            42337038720000 : API NUMBER
UWI .                           : UWI NUMBER
DIGC.                     NthDS : DIGITIZING COMPANY
~Params ----------------------------------------------------
SRVC.              SCHLUMBERGER : LOGGING COMPANY
LOG .                     SONIC : LOG
DATE.                1965-11-28 : RUN DATE
RUN .                         1 : RUN NUMBER
TDD .F                     1179 : TOTAL DEPTH DRILLER
TDL .F                     1179 : TOTAL DEPTH LOGGER
BOTL.F                     1170 : BOTTOM LOGGED INTERVAL
TOPL.F                      600 : TOP LOGGED INTERVAL
CSGS.IN                         : CASING SIZE
CSGD.F                          : CASING DRILLER
CSGL.F                          : CASING LOGGER
BS  .IN                   7.875 : BIT SIZE
MUD .                       GEL : MUD TYPE
MUDD.                        10 : MUD DENSITY
MUDV.                        98 : MUD VISCOSITY
PH  .                           : MUD PH
FL  .                           : FLUID LOSS
MUDS.                CIRCULATED : SOURCE OF SAMPLE
RM  .OHMM                   2.0 : MUD RESISTIVITY
RMT .DEGF                    81 : RM TEMPERATURE
RMF .OHMM                   1.5 : MUD FILTRATE RESISTIVITY
RMFT.DEGF                    81 : RMF TEMPERATURE
RMC .OHMM                       : MUD CAKE RESISTIVITY
RMCT.DEGF                       : RMC TEMPERATURE
RMFS.                         M : RMF SOURCE
RMCS.                           : RMC SOURCE
RMBH.OHMM                   1.6 : MUD RESISTIVITY AT BHT
BHT .DEGF                   100 : BOTTOM HOLE TEMPERATURE
TIMC.                           : TIME CIRCULATION STOPPED
TIML.                           : TIME LOGGER ON BOTTOM
TMAX.DEGF                   100 : MAXIMUM RECORDED TEMPERATURE
UNIT.                      4559 : EQUIPMENT NUMBER
BASE.                       WFS : BASE LOCATION
ENG .                      FINK : RECORDED BY
WIT .                       NIX : WITNESSED BY
~Curve Information -----------------------------------------
DEPT.F          :DEPTH
CALS.IN         :
DT.US/F         :
SP.MV           :
~ASCII ------------------------------------------------------
# ...
1582.00000        7.75471       67.55342      -72.19641
1582.50000        7.77912       71.57691      -71.88954
1583.00000        7.74345       75.06901      -71.57971
1583.50000        7.70798       74.27402      -71.27285
1584.00000        7.67943       71.50199      -69.67053
1584.50000        7.67913       69.59336      -67.30340
1585.00000        7.50256       66.89013      -65.08449
1585.50000        7.23758       67.60459      -62.86558
1586.00000        7.01021       70.59819      -61.28994
1586.50000        6.81111       70.89990      -60.14118
1587.00000        6.66971       67.16378      -59.04578
1587.50000        6.32910       68.91113      -57.96224
1588.00000        5.86379       79.29996      -56.87870
1588.50000        5.75124       87.46098      -57.06096
1589.00000        6.11518       86.66599      -57.56042
1589.50000        7.01745       79.51516      -56.08261
1590.00000        7.45846       75.37227      -55.75796
1590.50000        7.75461       78.39876      -55.02422
1591.00000        7.74107       87.47455      -52.65708
1591.50000        7.72774       90.60773      -51.25042
1592.00000        7.71420       89.92241      -54.16379
1592.50000        7.80165       87.84828      -55.38952
1593.00000        7.85946       86.63755      -51.79512
1593.50000        7.79850       89.53144      -50.84201
1594.00000        7.72522       91.57789      -53.15865
1594.50000        7.82137       90.90454      -53.20752
1595.00000        7.93432       88.02683      -52.53010
1595.50000        7.95675       87.69744      -51.63628
1596.00000        7.97938       93.94874      -49.88871
1596.50000        7.99727      100.46472      -48.14114
1597.00000        8.01220       99.23804      -48.96965
1597.50000        8.02712       98.95451      -49.81001
1598.00000        7.95272       97.75375      -50.84899
1598.50000        7.90796       96.12428      -52.47195
1599.00000        7.90767       94.49580      -54.09196
1599.50000        7.88959       93.11957      -54.09635
1600.00000        7.85713       92.39482      -57.73852
1600.50000        7.84791       86.03026      -61.87685
1601.00000        7.85258       84.87919      -65.78303
1601.50000        7.85724       86.78697      -67.43922
1602.00000        7.86284       87.96422      -63.78889
1602.50000        7.86751       86.97583      -60.14154
1603.00000        7.87217       87.12115      -62.52690
1603.50000        7.87684       86.49204      -67.29320
1604.00000        7.88151       85.86192      -72.05949
1604.50000        7.85244       85.23281      -71.21272
1605.00000        7.82576       88.09020      -71.12874
1605.50000        7.84193       89.80436      -71.44565
1606.00000        7.74243       88.63434      -71.76554
1606.50000        7.68063       89.08604      -72.08245
1607.00000        7.76962       92.17245      -65.70892
1607.50000        7.82091       91.73594      -60.26098
1608.00000        7.76759       91.13976      -60.44992
1608.50000        7.83356       94.48564      -60.49303
1609.00000        7.83585       96.36799      -60.49744
1609.50000        7.74309       93.31077      -65.71016
1610.00000        7.65847       89.25403      -70.92289
1610.50000        7.74627       84.78565      -73.49277
1611.00000        7.78566       89.20988      -68.47637
1611.50000        7.75243       91.08772      -72.42511
1612.00000        7.71900       90.22507      -72.85512
1612.50000        7.77168       89.04307      -67.96967
1613.00000        7.82417       90.66742      -62.78364
1613.50000        7.87685       93.47837      -60.96663
1614.00000        7.80215       93.56681      -63.99484
1614.50000        7.77302       89.67727      -69.89209
1615.00000        7.79912       88.46832      -70.62864
1615.50000        7.82541       89.40804      -67.69855
1616.00000        7.83087       91.71454      -64.72678
1616.50000        7.82284       92.59638      -67.70738
1617.00000        7.81461       92.98422      -65.37252
1617.50000        7.80658       91.23037      -64.59122
1618.00000        7.79835       89.35377      -67.27508
1618.50000        7.79031       89.00010      -70.99971
1619.00000        7.78208       89.50170      -68.74224
1619.50000        7.77405       90.66897      -67.13952
1620.00000        7.72872       93.26636      -62.15884
1620.50000        7.67420       94.49949      -63.37753
1621.00000        7.73700       94.05800      -65.86408
1621.50000        7.79980       94.22381      -63.51136
1622.00000        7.76260       93.50986      -64.18542
1622.50000        7.72857       93.12226      -66.42196
1623.00000        7.79177       93.80551      -64.09603
1623.50000        7.79148       93.65742      -63.93676
1624.00000        7.79118       92.68200      -65.45395
1624.50000        7.79089       92.33532      -63.83635
1625.00000        7.76579       92.32795      -63.61755
1625.50000        7.70340       92.82956      -63.08626
1626.00000        7.77016       92.61262      -63.53710
1626.50000        7.74725       93.23398      -61.74688
1627.00000        7.84888       95.23258      -59.39416
1627.50000        7.83291       95.51515      -59.65155
1628.00000        7.81694       92.74335      -63.82262
1628.50000        7.80097       91.14865      -66.62464
1629.00000        7.79671       90.59291      -66.82846
1629.50000        7.83888       91.25420      -64.84776
1630.00000        7.84712       90.71790      -63.78075
1630.50000        7.84682       89.82232      -65.49438
1631.00000        7.83938       89.42773      -67.44224
1631.50000        7.82103       89.36847      -66.15499
1632.00000        7.80268       90.36907      -64.34096
1632.50000        7.78433       91.59822      -63.81264
1633.00000        7.77585       93.19761      -62.96587
1633.50000        7.85154       94.94324      -61.16375
1634.00000        7.92407       93.71633      -59.36162
1634.50000        7.82457       93.07723      -59.53568
1635.00000        7.72507       94.50597      -61.14723
1635.50000        7.71485       94.67924      -63.31533
1636.00000        7.71654       92.48628      -65.79890
1636.50000        7.68450       92.06474      -65.58010
1637.00000        7.82587       94.62022      -61.90387
1637.50000        7.88232       95.26354      -58.37258
1638.00000        7.84235       93.42785      -61.35318
1638.50000        7.78590       92.53228      -62.66711
1639.00000        7.90128       93.69954      -60.52868
1639.50000        7.90093       94.86681      -58.55989
1640.00000        7.90063       94.85897      -58.98990
1640.50000        7.87058       95.74780      -58.25027
1641.00000        7.84548       96.15559      -57.71004
1641.50000        7.85769       96.24104      -57.21744
1642.00000        7.84648       96.04405      -55.80817
1642.50000        7.79202       92.50081      -59.07150
1643.00000        7.71236       91.68507      -60.35567
1643.50000        7.67377       93.88326      -60.84608
1644.00000        7.66237       95.19024      -60.95169
1644.50000        7.63013       94.52720      -61.05432
1645.00000        7.61991       94.71144      -60.52302
1645.50000        7.81797       94.89569      -59.03935
1646.00000        7.93276       96.09941      -57.55567
1646.50000        7.92254       97.43234      -56.41128
1647.00000        7.92760       99.99680      -56.62998
1647.50000        7.95568      104.22390      -58.05106
1648.00000        7.79944      107.58028      -59.76975
1648.50000        7.73684      105.42672      -60.98547
1649.00000        7.73655       98.24380      -60.18037
1649.50000        7.73625       94.95304      -59.27496
1650.00000        7.73306       95.31767      -58.56616
1650.50000        7.73276       95.46937      -58.42119
1651.00000        7.73247       96.16779      -57.67862
1651.50000        7.73217       96.86621      -56.91811
1652.00000        7.74283       96.11833      -56.64167
1652.50000        7.76963       94.99172      -56.36523
1653.00000        7.79643       94.20010      -55.90353
