~Version ---------------------------------------------------
VERS. 2.0 : CWLS LOG ASCII STANDARD - VERSION 2.0
WRAP. NO  : One line per depth step
DLM . SPACE : Column Data Section Delimiter
~Well ------------------------------------------------------
STRT.F        986.5 : START DEPTH
STOP.F       1761.0 : STOP DEPTH
STEP.F          0.5 : STEP
NULL.       -999.25 : NULL VALUE
COMP.                 WALSH & WATTS, INC. : COMPANY
WELL.                       SALMON D E 6D : WELL
FLD .                             REGULAR : FIELD
CNTY.                            MONTAGUE : COUNTY
STAT.                               TEXAS : STATE
CTRY.                                 USA : COUNTRY
SEC .                                     : SECTION
TWP .                                     : TOWNSHIP
RGE .                                     : RANGE
LOC .  460 FSL 755 FEL
F. ROBERTSON A-620 : LOCATION
EKB .F                      880 : ELEVATION KELLY BUSHING
EDF .F                      878 : ELEVATION DERRICK FLOOR
EGL .F                      874 : ELEVATION GROUND LEVEL
PDAT.                        GL : PERMANENT DATUM
EPD .                       874 : ELEVATION PERMANENT DATUM
APD .                           : ABOVE PERMANENT DATUM
LMF .                        KB : LOG MEASURED FROM
DMF .                        KB : DRILLING MEASURED FROM
API .            42337016430000 : API NUMBER
UWI .            42337016430000 : UWI NUMBER
DIGC.                     NthDS : DIGITIZING COMPANY
~Params ----------------------------------------------------
SRVC.              SCHLUMBERGER : LOGGING COMPANY
LOG .                      DIFL : LOG
DATE.                2005-08-03 : RUN DATE
RUN .                         1 : RUN NUMBER
TDD .F                     1750 : TOTAL DEPTH DRILLER
TDL .F                     1750 : TOTAL DEPTH LOGGER
BOTL.F                     1750 : BOTTOM LOGGED INTERVAL
TOPL.F                      980 : TOP LOGGED INTERVAL
CSGS.IN                       7 : CASING SIZE
CSGD.F                      980 : CASING DRILLER
CSGL.F                      980 : CASING LOGGER
BS  .IN                     6.5 : BIT SIZE
MUD .                       FGM : MUD TYPE
MUDD.                       0.2 : MUD DENSITY
MUDV.                        80 : MUD VISCOSITY
PH  .                        11 : MUD PH
FL  .                         7 : FLUID LOSS
MUDS.                       PIT : SOURCE OF SAMPLE
RM  .OHMM                  1.70 : MUD RESISTIVITY
RMT .DEGF                    70 : RM TEMPERATURE
RMF .OHMM                  1.33 : MUD FILTRATE RESISTIVITY
RMFT.DEGF                    70 : RMF TEMPERATURE
RMC .OHMM                  2.67 : MUD CAKE RESISTIVITY
RMCT.DEGF                    70 : RMC TEMPERATURE
RMFS.                      MEAS : RMF SOURCE
RMCS.                       CAL : RMC SOURCE
RMBH.OHMM                  1.41 : MUD RESISTIVITY AT BHT
BHT .DEGF                    98 : BOTTOM HOLE TEMPERATURE
TIMC.                     2100  : TIME CIRCULATION STOPPED
TIML.                     0300  : TIME LOGGER ON BOTTOM
TMAX.DEGF                    98 : MAXIMUM RECORDED TEMPERATURE
UNIT.                       303 : EQUIPMENT NUMBER
BASE.                  WITCHATA : BASE LOCATION
ENG .              DAVID PARKER : RECORDED BY
WIT .              MR. BURLESON : WITNESSED BY
~Curve Information -----------------------------------------
DEPT.F          :DEPTH
GRR.API         :
ILD.OHMM        :
ILM.OHMM        :
SFL.OHMM        :
SP.MV           :
~ASCII ------------------------------------------------------
# ...
1503.50000       67.78283        1.92114        1.87732        3.25090      -51.07424
1504.00000       72.56493        1.96503        1.84772        3.37151      -52.04199
1504.50000       79.67092        2.05683        1.83968        3.50856      -52.43832
1505.00000       82.74180        2.11354        1.91747        3.65151      -52.45237
1505.50000       84.39118        2.04387        1.99873        3.64807      -52.61128
1506.00000       84.38065        1.84977        1.92838        3.37651      -53.34161
1506.50000       83.40434        1.70215        1.87171        3.02472      -54.07596
1507.00000       78.77621        1.56631        1.72170        2.70934      -55.02358
1507.50000       70.16428        1.44131        1.58372        2.49335      -56.29716
1508.00000       64.11768        1.38011        1.45679        2.38879      -56.64520
1508.50000       59.09510        1.34698        1.40656        2.28860      -56.79083
1509.00000       61.15192        1.33249        1.35806        2.32538      -56.90950
1509.50000       66.70060        1.38653        1.36784        2.42147      -56.95171
1510.00000       74.43645        1.49204        1.41715        2.58849      -56.67603
1510.50000       85.15804        1.60558        1.46824        2.81571      -56.40437
1511.00000       91.79322        1.81907        1.52117        3.12944      -56.19307
1511.50000       94.25144        2.13311        1.79518        3.64812      -56.08237
1512.00000       91.13534        2.50138        2.11855        4.20707      -55.97167
1512.50000       79.29412        2.70943        2.29772        4.55531      -55.58331
1513.00000       76.53506        2.79908        2.49182        4.76812      -54.08834
1513.50000       82.59288        2.82758        2.65143        4.88650      -52.59337
1514.00000       91.21393        2.84085        2.74119        4.85225      -50.16080
1514.50000      106.83681        2.97357        2.83425        5.11043      -47.89321
1515.00000      115.35222        3.11248        2.93046        5.38185      -46.56725
1515.50000      118.48648        3.26782        3.02967        5.66821      -45.23727
1516.00000      120.43766        3.43821        3.13252        5.97201      -43.91131
1516.50000      117.65959        3.51481        3.26286        6.07976      -43.25334
1517.00000      118.74762        3.56767        3.43616        6.04885      -42.73219
1517.50000      119.83263        3.78639        3.61899        6.39780      -42.74623
1518.00000      122.58964        4.01852        3.79505        7.04925      -42.76028
1518.50000      125.76614        3.92497        3.95406        6.95604      -42.60129
1519.00000      123.94479        3.84530        4.02874        6.76658      -41.75419
1519.50000      121.13050        3.78501        3.97034        6.93843      -42.88290
1520.00000      118.46108        3.47781        3.91242        6.40002      -42.92512
1520.50000      115.88521        3.05201        3.66219        5.45402      -42.57297
1521.00000      114.93909        2.90063        3.38427        5.01090      -41.83855
1521.50000      115.07945        3.03614        3.40770        5.15288      -40.84658
1522.00000      117.39280        3.17798        3.50554        5.29839      -38.84861
1522.50000      121.58639        3.50513        3.60653        5.77681      -36.85063
1523.00000      124.76592        3.89786        3.71009        7.03469      -34.85266
1523.50000      126.26440        4.16671        3.81697        7.00538      -34.27517
1524.00000      127.76288        4.10744        3.86793        6.59434      -33.69768
1524.50000      128.95956        3.87893        3.91092        6.69537      -33.12019
1525.00000      127.13821        3.62247        3.95438        6.74172      -32.89682
1525.50000      123.50603        3.33985        3.84668        6.08801      -32.91087
1526.00000      118.96844        3.35832        3.74191        5.66246      -32.84443
1526.50000      114.24977        3.45092        3.63999        5.92699      -32.65728
1527.00000      112.57419        3.46073        3.59418        6.04562      -32.55060
1527.50000      112.89866        3.44982        3.58450        5.98996      -32.56465
1528.00000      114.86192        3.43893        3.57484        6.02198      -32.57870
1528.50000      116.82518        3.42777        3.56521        6.02574      -32.59274
1529.00000      117.99771        3.41696        3.55560        6.02224      -32.90055
1529.50000      118.28898        3.40586        3.54635        6.01933      -33.28078
1530.00000      115.66181        3.39512        3.53679        6.02254      -33.28678
1530.50000      112.79320        3.42336        3.52726        6.02574      -33.05134
1531.00000      112.52101        3.45184        3.52426        6.02895      -33.36719
1531.50000      113.23691        3.48087        3.54702        6.03160      -33.68304
1532.00000      117.89225        3.50983        3.56993        6.03481      -34.06206
1532.50000      122.87355        3.50554        3.59299        6.03802      -34.25718
1533.00000      125.58830        3.49060        3.61119        6.04123      -33.96943
1533.50000      127.30106        3.47830        3.60910        6.04444      -33.68167
1534.00000      129.01684        3.46605        3.60736        6.04766      -33.39391
1534.50000      130.72960        3.45353        3.60561        6.02747      -33.04177
1535.00000      129.54203        3.44136        3.60387        6.00125      -32.43612
1535.50000      123.82138        3.42924        3.57201        5.99171      -31.83448
1536.00000      117.39752        3.41685        3.54042        6.00764      -31.22883
1536.50000      111.98470        3.40481        3.50912        6.02305      -30.62317
1537.00000      110.13317        3.55009        3.47810        6.13398      -30.01752
1537.50000      110.12263        3.70190        3.52292        6.39630      -30.70358
1538.00000      108.19263        3.82863        3.62006        6.66921      -31.20856
1538.50000      105.57451        3.93893        3.71989        6.77639      -30.99726
1539.00000      104.80946        3.93703        3.79225        6.73820      -31.28092
1539.50000      105.30294        3.93512        3.84538        6.73930      -32.30098
1540.00000      108.25913        3.93322        3.89925        6.76533      -33.32103
1540.50000      111.38434        3.93132        3.95388        6.79706      -34.05538
1541.00000      112.71381        3.92942        4.00965        6.82394      -34.78571
1541.50000      113.30688        3.92753        4.06582        6.85092      -35.55628
1542.00000      110.02781        3.92563        4.11215        6.87738      -36.47574
1542.50000       98.09394        3.92373        4.11547        6.90457      -37.39519
1543.00000       89.89246        3.92184        4.11880        6.93123      -38.31465
1543.50000       82.75634        3.91994        4.12251        6.93684      -38.90816
1544.00000       83.69649        3.91805        4.12585        6.90858      -38.20593
1544.50000       90.60631        3.91578        4.12919        6.88107      -37.49967
1545.00000       96.13085        3.91389        4.13327        6.85304      -37.48555
1545.50000      101.65237        3.91199        4.14082        6.82575      -36.06301
1546.00000      108.75534        3.91805        4.15412        6.81176      -35.34066
1546.50000      117.62688        3.93645        4.16747        6.85259      -35.08509
1547.00000      121.38889        3.95457        4.18086        6.89303      -34.83355
1547.50000      123.04038        3.97314        4.19430        6.93435      -35.14135
1548.00000      119.40609        3.99143        4.20661        6.97592      -35.96302
1548.50000      116.37752        4.01017        4.21701        7.01774      -37.10782
1549.00000      111.58944        4.02602        4.22744        7.05981      -38.25263
1549.50000      101.79444        4.04157        4.23829        7.10147      -39.40145
1550.00000       99.17345        4.26021        4.46097        7.50093      -40.25937
