~Version ---------------------------------------------------
VERS. 2.0 : CWLS LOG ASCII STANDARD - VERSION 2.0
WRAP. NO  : One line per depth step
DLM . SPACE : Column Data Section Delimiter
~Well ------------------------------------------------------
STRT.F        986.5 : START DEPTH
STOP.F       1761.0 : STOP DEPTH
STEP.F          0.5 : STEP
NULL.       -999.25 : NULL VALUE
COMP.                 WALSH & WATTS, INC. : COMPANY
WELL.                       SALMON D E 6D : WELL
FLD .                             REGULAR : FIELD
CNTY.                            MONTAGUE : COUNTY
STAT.                               TEXAS : STATE
CTRY.                                 USA : COUNTRY
SEC .                                     : SECTION
TWP .                                     : TOWNSHIP
RGE .                                     : RANGE
LOC .  460 FSL 755 FEL
F. ROBERTSON A-620 : LOCATION
EKB .F                      880 : ELEVATION KELLY BUSHING
EDF .F                      878 : ELEVATION DERRICK FLOOR
EGL .F                      874 : ELEVATION GROUND LEVEL
PDAT.                        GL : PERMANENT DATUM
EPD .                       874 : ELEVATION PERMANENT DATUM
APD .                           : ABOVE PERMANENT DATUM
LMF .                        KB : LOG MEASURED FROM
DMF .                        KB : DRILLING MEASURED FROM
API .            42337016430000 : API NUMBER
UWI .            42337016430000 : UWI NUMBER
DIGC.                     NthDS : DIGITIZING COMPANY
~Params ----------------------------------------------------
SRVC.              SCHLUMBERGER : LOGGING COMPANY
LOG .                      DIFL : LOG
DATE.                2005-08-03 : RUN DATE
RUN .                         1 : RUN NUMBER
TDD .F                     1750 : TOTAL DEPTH DRILLER
TDL .F                     1750 : TOTAL DEPTH LOGGER
BOTL.F                     1750 : BOTTOM LOGGED INTERVAL
TOPL.F                      980 : TOP LOGGED INTERVAL
CSGS.IN                       7 : CASING SIZE
CSGD.F                      980 : CASING DRILLER
CSGL.F                      980 : CASING LOGGER
BS  .IN                     6.5 : BIT SIZE
MUD .                       FGM : MUD TYPE
MUDD.                       0.2 : MUD DENSITY
MUDV.                        80 : MUD VISCOSITY
PH  .                        11 : MUD PH
FL  .                         7 : FLUID LOSS
MUDS.                       PIT : SOURCE OF SAMPLE
RM  .OHMM                  1.70 : MUD RESISTIVITY
RMT .DEGF                    70 : RM TEMPERATURE
RMF .OHMM                  1.33 : MUD FILTRATE RESISTIVITY
RMFT.DEGF                    70 : RMF TEMPERATURE
RMC .OHMM                  2.67 : MUD CAKE RESISTIVITY
RMCT.DEGF                    70 : RMC TEMPERATURE
RMFS.                      MEAS : RMF SOURCE
RMCS.                       CAL : RMC SOURCE
RMBH.OHMM                  1.41 : MUD RESISTIVITY AT BHT
BHT .DEGF                    98 : BOTTOM HOLE TEMPERATURE
TIMC.                     2100  : TIME CIRCULATION STOPPED
TIML.                     0300  : TIME LOGGER ON BOTTOM
TMAX.DEGF                    98 : MAXIMUM RECORDED TEMPERATURE
UNIT.                       303 : EQUIPMENT NUMBER
BASE.                  WITCHATA : BASE LOCATION
ENG .              DAVID PARKER : RECORDED BY
WIT .              MR. BURLESON : WITNESSED BY
~Curve Information -----------------------------------------
DEPT.F          :DEPTH
GRR.API         :
ILD.OHMM        :
ILM.OHMM        :
SFL.OHMM        :
SP.MV           :
~ASCII ------------------------------------------------------
# ...
1362.50000      117.07402        3.60199        3.82288        6.24328      -23.32238
1363.00000      118.19751        3.57305        3.81006        6.20456      -22.99372
1363.50000      118.86738        3.54434        3.79692        6.22182      -23.24973
1364.00000      118.85683        3.53408        3.78418        6.23595      -23.50573
1364.50000      118.24145        3.55160        3.77114        6.25068      -23.76174
1365.00000      118.53330        3.56887        3.75849        6.26488      -24.01774
1365.50000      118.52275        3.58656        3.76286        6.27968      -24.12456
1366.00000      113.97601        3.60434        3.77140        6.29453      -23.63461
1366.50000      107.76601        3.62187        3.77996        6.30882      -23.70917
1367.00000      105.21822        3.63982        3.78890        6.32373      -24.16275
1367.50000      103.35992        3.61775        3.79750        6.32465      -24.70382
1368.00000      105.99547        3.59233        3.80613        6.26979      -25.15740
1368.50000      108.98484        3.56709        3.79826        6.21540      -25.52227
1369.00000      111.70809        3.54202        3.77558        6.16148      -25.53635
1369.50000      111.26811        3.51713        3.75667        6.10803      -25.55042
1370.00000      112.98432        3.49693        3.73785        6.09147      -24.98790
1370.50000      115.33258        3.49454        3.71913        6.09855      -24.77214
1371.00000      120.37230        3.49215        3.70050        6.10620      -24.78622
1371.50000      125.83540        3.48976        3.67857        6.11386      -24.80029
1372.00000      126.36919        3.47068        3.65205        6.12152      -24.81437
1372.50000      125.75381        3.44788        3.62571        6.08187      -25.66713
1373.00000      126.02449        3.42492        3.59924        6.03134      -27.07633
1373.50000      126.82138        3.40242        3.57263        5.98123      -28.48553
1374.00000      128.47409        3.37976        3.54360        5.93098      -28.78589
1374.50000      131.10963        3.35756        3.51513        5.88170      -29.09028
1375.00000      128.80680        3.32997        3.48656        5.81402      -29.40274
1375.50000      124.73787        3.29895        3.45823        5.74765      -29.75148
1376.00000      122.01770        3.26822        3.43045        5.68152      -30.10023
1376.50000      120.40739        3.25365        3.40257        5.64212      -30.45300
1377.00000      122.66492        3.26315        3.40025        5.61956      -30.70094
1377.50000      128.04637        3.27237        3.39792        5.59709      -30.88437
1378.00000      130.20411        3.30044        3.39559        5.65554      -30.80571
1378.50000      127.92546        3.33368        3.39327        5.73520      -29.70287
1379.00000      124.24967        3.36383        3.39753        5.81598      -28.74116
1379.50000      118.56678        3.38207        3.42762        5.89845      -28.00123
1380.00000      118.59856        3.40040        3.45767        5.95565      -26.14035
1380.50000      119.82487        3.41883        3.48830        5.97414      -24.00528
1381.00000      119.85665        3.43705        3.51921        5.99323      -21.87022
1381.50000      117.88042        3.45568        3.55038        6.02016      -19.66257
1382.00000      116.83259        3.47441        3.58184        6.04665      -17.43477
1382.50000      116.39261        3.49324        3.59992        6.07382      -15.20696
1383.00000      115.10285        3.48731        3.59746        6.07470      -12.85013
1383.50000      113.81309        3.46472        3.59500        6.03814       -9.96911
1384.00000      114.58881        3.44260        3.59254        6.00125       -7.08407
1384.50000      116.69816        3.42030        3.58644        5.96458       -4.19902
1385.00000      118.65328        3.39846        3.56683        5.91830       -0.58415
1385.50000      119.77979        3.37769        3.54699        5.87237        1.33087
1386.00000      117.58280        3.35737        3.52760        5.83542        5.14735
1386.50000      115.05315        3.33716        3.50799        5.80539        7.43160
1387.00000      113.90855        3.31738        3.48848        5.78111        7.41753
1387.50000      114.02500        3.29742        3.46941        5.75693        7.40345
1388.00000      113.64853        3.28453        3.45012        5.73233        7.38938
1388.50000      111.31243        3.27458        3.43569        5.71626        6.89145
1389.00000      108.97632        3.26630        3.42480        5.71235        4.90968
1389.50000      106.67348        3.25805        3.41362        5.70844        4.72625
1390.00000      106.59942        3.24982        3.40453        5.70453        4.54283
1390.50000      109.82770        3.28406        3.41541        5.70063        4.69810
1391.00000      113.01363        3.32939        3.42633        5.76707        4.88563
1391.50000      116.89209        3.37567        3.45381        5.85263        4.87156
1392.00000      119.11031        3.40463        3.48634        5.93945        5.20425
1392.50000      120.91423        3.42277        3.51885        5.96614        5.76677
1393.00000      119.49746        3.44069        3.55166        5.97748        6.32526
1393.50000      117.27929        3.45870        3.58478        5.98939        6.88779
1394.00000      115.97441        3.47681        3.61820        6.00133        7.28096
1394.50000      118.34082        3.49501        3.65194        6.01274        7.42414
1395.00000      117.59540        3.51330        3.67140        6.02473        7.56329
1395.50000      113.95379        3.53169        3.66889        6.03618        5.16217
1396.00000      110.16308        3.56858        3.66638        6.13138        5.14810
1396.50000      105.31394        3.61017        3.66387        6.24996        3.52116
1397.00000      104.94049        3.65225        3.66136        6.37025        1.89422
1397.50000      106.75347        3.59394        3.65886        6.25929        1.10597
1398.00000      106.21067        3.43873        3.65635        5.99727        0.62417
1398.50000      104.47334        3.29052        3.61561        5.74568        0.12572
1399.00000      102.73299        3.14841        3.53433        5.50516       -0.46092
1399.50000      101.37065        3.09044        3.40958        5.27421       -0.59193
1400.00000      102.10689        3.06938        3.31412        5.27325       -1.19890
1400.50000      104.43202        3.03286        3.18956        5.28299       -0.94436
1401.00000      110.09974        3.05642        3.14755        5.29274        1.56959
1401.50000      118.10608        3.09552        3.10609        5.30251        2.68341
1402.00000      121.60352        3.13512        3.06545        5.37035        4.54112
1402.50000      126.20113        3.26779        3.11785        5.52183        6.39482
1403.00000      124.08648        3.40576        3.23635        5.73539        7.13031
1403.50000      121.82153        3.52253        3.35132        5.95667        6.31473
1404.00000      117.45243        3.63626        3.45889        6.18705        5.77971
1404.50000      114.22258        3.68075        3.56990        6.28007        5.56533
1405.00000      112.29129        3.67466        3.68449        6.34286        3.40831
1405.50000      111.22872        3.64702        3.80240        6.28183        3.10575
1406.00000      111.86450        3.61959        3.81960        6.22139        1.96554
1406.50000      113.62751        3.61161        3.81083        6.17460        1.55075
1407.00000      115.58591        3.60364        3.80207        6.18144        1.76121
1407.50000      117.82987        3.59536        3.79334        6.18772        1.43460
1408.00000      117.83441        3.58743        3.78462        6.19401       -0.80954
1408.50000      117.27683        3.57952        3.78150        6.20087       -1.14016
1409.00000      117.04691        3.59539        3.77976        6.20889       -1.47077
