~Version ---------------------------------------------------
VERS. 2.0 : CWLS LOG ASCII STANDARD - VERSION 2.0
WRAP. NO  : One line per depth step
DLM . SPACE : Column Data Section Delimiter
~Well ------------------------------------------------------
STRT.F          572 : START DEPTH
STOP.F       1770.0 : STOP DEPTH
STEP.F          0.5 : STEP
NULL.       -999.25 : NULL VALUE
COMP.         WALSH & WATTS, INCORPORATED : COMPANY
WELL.                         SALMON E 44 : WELL
FLD .                             REGULAR : FIELD
CNTY.                            MONTAGUE : COUNTY
STAT.                               TEXAS : STATE
CTRY.                                 USA : COUNTRY
SEC .                                     : SECTION
TWP .                                     : TOWNSHIP
RGE .                                     : RANGE
LOC . 300' WEST OF NO 23, 300' SOUTH OF D-9, F.ROBERTSON SURV. : LOCATION
EKB .F                      862 : ELEVATION KELLY BUSHING
EDF .F                          : ELEVATION DERRICK FLOOR
EGL .F                      856 : ELEVATION GROUND LEVEL
PDAT.                        GL : PERMANENT DATUM
EPD .                       856 : ELEVATION PERMANENT DATUM
APD .                         6 : ABOVE PERMANENT DATUM
LMF .                        KB : LOG MEASURED FROM
DMF .                        KB : DRILLING MEASURED FROM
API .            42337038720000 : API NUMBER
UWI .                           : UWI NUMBER
DIGC.                     NthDS : DIGITIZING COMPANY
~Params ----------------------------------------------------
SRVC.              SCHLUMBERGER : LOGGING COMPANY
LOG .                     SONIC : LOG
DATE.                1965-11-28 : RUN DATE
RUN .                         1 : RUN NUMBER
TDD .F                     1179 : TOTAL DEPTH DRILLER
TDL .F                     1179 : TOTAL DEPTH LOGGER
BOTL.F                     1170 : BOTTOM LOGGED INTERVAL
TOPL.F                      600 : TOP LOGGED INTERVAL
CSGS.IN                         : CASING SIZE
CSGD.F                          : CASING DRILLER
CSGL.F                          : CASING LOGGER
BS  .IN                   7.875 : BIT SIZE
MUD .                       GEL : MUD TYPE
MUDD.                        10 : MUD DENSITY
MUDV.                        98 : MUD VISCOSITY
PH  .                           : MUD PH
FL  .                           : FLUID LOSS
MUDS.                CIRCULATED : SOURCE OF SAMPLE
RM  .OHMM                   2.0 : MUD RESISTIVITY
RMT .DEGF                    81 : RM TEMPERATURE
RMF .OHMM                   1.5 : MUD FILTRATE RESISTIVITY
RMFT.DEGF                    81 : RMF TEMPERATURE
RMC .OHMM                       : MUD CAKE RESISTIVITY
RMCT.DEGF                       : RMC TEMPERATURE
RMFS.                         M : RMF SOURCE
RMCS.                           : RMC SOURCE
RMBH.OHMM                   1.6 : MUD RESISTIVITY AT BHT
BHT .DEGF                   100 : BOTTOM HOLE TEMPERATURE
TIMC.                           : TIME CIRCULATION STOPPED
TIML.                           : TIME LOGGER ON BOTTOM
TMAX.DEGF                   100 : MAXIMUM RECORDED TEMPERATURE
UNIT.                      4559 : EQUIPMENT NUMBER
BASE.                       WFS : BASE LOCATION
ENG .                      FINK : RECORDED BY
WIT .                       NIX : WITNESSED BY
~Curve Information -----------------------------------------
DEPT.F          :DEPTH
CALS.IN         :
DT.US/F         :
SP.MV           :
~ASCII ------------------------------------------------------
# ...
864.00000        7.03085       88.15886     -120.33221
864.50000        6.44948       86.82983     -119.05477
865.00000        6.30968       85.03427     -116.96758
865.50000        6.50859       87.04585     -111.24395
866.00000        6.58797       92.09934     -109.80517
866.50000        6.60760       95.86414     -113.35938
867.00000        6.70690       98.06505     -117.46429
867.50000        7.03390       99.17654     -119.00756
868.00000        7.30392       98.88645     -119.38549
868.50000        7.32016       96.70528     -119.20168
869.00000        7.12405       94.48216     -118.27982
869.50000        6.94048       94.54871     -116.24642
870.00000        6.59896       96.13871     -114.38333
870.50000        5.98771       94.86462     -112.43657
871.00000        5.76729       95.48062     -105.66713
871.50000        5.76156       97.78889      -97.70248
872.00000        5.75668      103.21054      -88.94301
872.50000        5.75200      109.30997      -85.84586
873.00000        5.74713      114.48734      -82.30350
873.50000        6.04563      116.90503      -81.33682
874.00000        6.65629      118.72381      -82.28846
874.50000        7.20042      121.24886      -83.28791
875.00000        7.50470      121.98374      -84.28736
875.50000        7.62472      116.02640      -83.29678
876.00000        7.65770      106.98218      -81.80719
876.50000        7.67433       91.88858      -81.01471
877.00000        7.66627       85.03063      -80.52312
877.50000        7.65840       95.93272      -77.04052
878.00000        7.71627      115.97254      -71.56789
878.50000        7.74825      124.45308      -72.14901
879.00000        7.61110      130.16391      -78.24903
879.50000        7.23232      124.89187      -80.04629
880.00000        7.22898      117.13184      -79.88339
880.50000        7.38267      113.52112      -79.86989
881.00000        7.55946      115.96678      -80.43907
881.50000        7.55020      115.41396      -81.00824
882.00000        7.42740      115.91407      -81.57741
882.50000        7.30439      117.54503      -82.14957
883.00000        7.30151      118.93624      -82.71874
883.50000        7.37870      118.29950      -83.40234
884.00000        7.43379      119.10131      -83.97151
884.50000        7.53030      120.30271      -80.42915
885.00000        7.63240      118.80684      -77.34694
885.50000        7.63210      118.85941      -74.96095
886.00000        7.63181      127.16713      -73.82993
886.50000        7.67334      133.10073      -75.16105
887.00000        7.74277      131.95451      -76.28898
887.50000        7.71917      129.60950      -76.59222
888.00000        7.65487      123.91789      -77.28390
888.50000        7.66573      112.20738      -79.52936
889.00000        7.55029      101.42841      -77.79177
889.50000        7.55000       97.35216      -78.94062
890.00000        7.52042       98.58652      -81.63428
890.50000        7.49084       96.75799      -85.52404
891.00000        7.46126       97.59277      -85.93485
891.50000        7.53467       97.09589      -86.34864
892.00000        7.63816       96.26635      -83.77739
892.50000        7.58806      102.23991      -80.46212
893.00000        7.62761      108.69750      -75.79924
893.50000        7.82652      114.07966      -75.24192
894.00000        7.89096      109.86356      -80.02721
894.50000        7.81477      104.67144      -81.97387
895.00000        7.96063      105.77294      -78.33290
895.50000        7.90496      106.87444      -74.81145
896.00000        7.78514      102.53146      -77.80392
896.50000        7.83464       99.38727      -78.88404
897.00000        7.79451      100.95130      -76.10662
897.50000        7.74063      101.53033      -74.75448
898.00000        7.72161      101.46002      -76.81169
898.50000        7.70278      102.89419      -76.65566
899.00000        7.68376      105.89429      -76.08340
899.50000        7.79562      111.81990      -76.12369
900.00000        7.94712      118.78463      -76.76767
900.50000        8.02742      125.79264      -77.44930
901.00000        7.99940      123.47158      -77.04678
901.50000        8.06347      118.99218      -76.64722
902.00000        8.02515      113.51625      -73.89224
902.50000        8.00426      102.39650      -70.29963
903.00000        7.80015      106.49268      -67.61593
903.50000        7.93194      114.26662      -68.42825
904.00000        7.87877      111.50831      -69.24355
904.50000        7.95115      108.74900      -68.00935
905.00000        7.88808      115.12602      -69.32068
905.50000        7.81195      118.40149      -71.26765
906.00000        7.86274      118.51764      -71.73542
906.50000        7.84047      110.75143      -66.29530
907.00000        7.89681      111.65044      -61.64527
907.50000        7.71830      113.14705      -63.68223
908.00000        7.90157      109.82999      -64.00149
908.50000        7.92840      110.44314      -62.86234
909.00000        7.95504      113.50348      -61.72615
909.50000        7.83376      118.92088      -63.45035
910.00000        7.75307      125.61064      -67.08742
910.50000        7.83535      130.81788      -71.13438
911.00000        7.93400      124.54515      -71.38532
911.50000        7.76044      110.06091      -73.11249
912.00000        7.70570      104.80410      -75.19609
912.50000        7.59154      104.45811      -74.27080
913.00000        7.28788      100.22771      -69.32375
913.50000        7.02165       96.12181      -74.43704
914.00000        6.87779       97.14532      -90.00661
914.50000        6.99136      100.53433     -103.29710
915.00000        7.16433      102.31035     -109.79751
915.50000        7.24265       99.04607     -111.82171
916.00000        7.29741       92.67374     -111.00038
916.50000        7.26880       87.29793     -110.58895
917.00000        7.24019       90.28855     -111.80820
917.50000        7.21158       95.27169     -113.02745
918.00000        7.18316       99.65671     -112.04275
918.50000        7.25964      100.57265     -111.42637
919.00000        7.26252      102.10213     -112.29810
919.50000        7.20896      103.13062     -113.16983
920.00000        7.13084      102.12427     -113.13650
920.50000        7.05292      103.45455     -112.92705
921.00000        7.20530      105.54929     -112.72056
921.50000        7.45253      104.85469     -112.51111
922.00000        7.50907      103.26370     -110.39474
922.50000        7.50204      102.27030     -106.31500
923.00000        7.49521      101.27691     -101.09765
923.50000        7.51413      100.43291      -94.07140
924.00000        7.57146       99.81302      -86.65010
924.50000        7.62899       97.85848      -81.77433
925.00000        7.56097       94.78344      -78.59756
925.50000        7.49295       94.13865      -75.41782
926.00000        7.42494       94.08847      -82.50933
926.50000        7.38029       96.43965      -98.76415
927.00000        7.42152       99.20616     -109.94276
927.50000        7.38162       95.96180     -111.92835
928.00000        7.37222       95.25625     -110.94365
928.50000        7.48519       96.32558     -108.96776
929.00000        7.50747       95.53138     -106.44743
929.50000        7.52045       98.42240     -103.92709
930.00000        7.80391      108.60467      -87.84147
930.50000        8.23273      121.73511      -79.28167
931.00000        8.48312      115.81748      -71.26631
931.50000        8.21887      111.08258      -70.15686
932.00000        8.30353      116.06572      -68.30573
932.50000        7.97333      111.03851      -67.04776
933.00000        6.84671      106.45899      -66.86504
933.50000        5.82161      104.56322      -67.59123
934.00000        6.14468      103.62560      -68.54018
934.50000        6.69884      108.77905      -69.39112
935.00000        7.43801      115.18496      -70.17671
935.50000        8.01850      118.09291      -70.96230
936.00000        8.18316      117.38138      -71.74789
936.50000        8.21587      115.39198      -70.52260
