~Version ---------------------------------------------------
VERS. 2.0 : CWLS LOG ASCII STANDARD - VERSION 2.0
WRAP. NO  : One line per depth step
DLM . SPACE : Column Data Section Delimiter
~Well ------------------------------------------------------
STRT.F          230 : START DEPTH
STOP.F       1777.5 : STOP DEPTH
STEP.F          0.5 : STEP
NULL.       -999.25 : NULL VALUE
COMP.         WALSH & WATTS, INCORPORATED : COMPANY
WELL.                         SALMON E 44 : WELL
FLD .                             REGULAR : FIELD
CNTY.                            MONTAGUE : COUNTY
STAT.                               TEXAS : STATE
CTRY.                                 USA : COUNTRY
SEC .                                     : SECTION
TWP .                                     : TOWNSHIP
RGE .                                     : RANGE
LOC . 300' WEST OF NO 23, 300' SOUTH OF D-9, F.ROBERTSON SURV. : LOCATION
EKB .F                      862 : ELEVATION KELLY BUSHING
EDF .F                          : ELEVATION DERRICK FLOOR
EGL .F                      856 : ELEVATION GROUND LEVEL
PDAT.                        GL : PERMANENT DATUM
EPD .                       856 : ELEVATION PERMANENT DATUM
APD .                         6 : ABOVE PERMANENT DATUM
LMF .                        KB : LOG MEASURED FROM
DMF .                        KB : DRILLING MEASURED FROM
API .            42337038720000 : API NUMBER
UWI .                           : UWI NUMBER
DIGC.                     NthDS : DIGITIZING COMPANY
~Params ----------------------------------------------------
SRVC.              SCHLUMBERGER : LOGGING COMPANY
LOG .                       IEL : LOG
DATE.                1965-11-28 : RUN DATE
RUN .                         1 : RUN NUMBER
TDD .F                     1779 : TOTAL DEPTH DRILLER
TDL .F                     1779 : TOTAL DEPTH LOGGER
BOTL.F                     1778 : BOTTOM LOGGED INTERVAL
TOPL.F                          : TOP LOGGED INTERVAL
CSGS.IN                         : CASING SIZE
CSGD.F                          : CASING DRILLER
CSGL.F                          : CASING LOGGER
BS  .IN                   7.875 : BIT SIZE
MUD .                       GEL : MUD TYPE
MUDD.                        10 : MUD DENSITY
MUDV.                       9.8 : MUD VISCOSITY
PH  .                           : MUD PH
FL  .                           : FLUID LOSS
MUDS.                CIRCULATED : SOURCE OF SAMPLE
RM  .OHMM                   2.0 : MUD RESISTIVITY
RMT .DEGF                    81 : RM TEMPERATURE
RMF .OHMM                   1.5 : MUD FILTRATE RESISTIVITY
RMFT.DEGF                    81 : RMF TEMPERATURE
RMC .OHMM                       : MUD CAKE RESISTIVITY
RMCT.DEGF                       : RMC TEMPERATURE
RMFS.                         M : RMF SOURCE
RMCS.                           : RMC SOURCE
RMBH.OHMM                   1.6 : MUD RESISTIVITY AT BHT
BHT .DEGF                   100 : BOTTOM HOLE TEMPERATURE
TIMC.                           : TIME CIRCULATION STOPPED
TIML.                           : TIME LOGGER ON BOTTOM
TMAX.DEGF                   100 : MAXIMUM RECORDED TEMPERATURE
UNIT.                      4559 : EQUIPMENT NUMBER
BASE.                       WFS : BASE LOCATION
ENG .                      FINK : RECORDED BY
WIT .                       NIX : WITNESSED BY
~Curve Information -----------------------------------------
DEPT.F          :DEPTH
CILD.MMHO       :
ILD.OHMM        :
SN.OHMM         :
SP.MV           :
~ASCII ------------------------------------------------------
# ...
805.00000      307.73307        3.08442        3.63921      -63.90002
805.50000      309.25204        3.07575        3.61455      -63.04202
806.00000      310.52075        3.05549        3.66829      -62.18702
806.50000      311.78947        3.02723        3.69922      -61.62002
807.00000      313.05818        2.99896        3.63736      -62.22002
807.50000      314.32689        2.97070        3.57590      -62.66102
808.00000      317.05706        2.94244        3.51444      -62.47502
808.50000      320.15760        2.91418        3.45297      -62.25002
809.00000      322.41729        2.93711        3.45791      -62.52002
809.50000      321.32366        2.97285        3.50725      -64.80002
810.00000      317.87117        3.00859        3.58658      -67.80002
810.50000      313.21400        3.05139        3.74192      -70.05002
811.00000      308.56683        3.07273        3.71832      -68.64902
811.50000      307.31304        3.08446        3.69886      -66.27602
812.00000      308.33151        3.09620        3.67900      -63.90002
812.50000      311.98259        3.08154        3.64313      -63.90002
813.00000      317.39542        3.02727        3.54247      -64.01402
813.50000      322.79824        2.97301        3.50861      -64.59302
814.00000      324.89778        2.91875        3.44314      -65.16902
814.50000      327.00733        2.86448        3.36968      -65.06402
815.00000      332.16992        2.81022        3.38782      -64.50002
815.50000      339.38454        2.75556        3.46715      -65.66702
816.00000      346.59916        2.70130        3.47289      -66.67502
816.50000      347.93143        2.67703        3.42943      -67.05002
817.00000      337.93895        2.77157        3.38557      -65.86802
817.50000      324.61317        2.86611        3.47930      -64.20002
818.00000      313.27936        2.96064        3.60744      -62.53202
818.50000      309.96351        3.05518        3.73517      -61.29902
819.00000      306.64767        3.11918        3.53451      -61.80002
819.50000      302.56106        3.17212        3.29372      -62.70002
820.00000      297.50349        3.22545        3.57305      -64.20002
820.50000      291.26474        3.27839        4.19239      -65.70002
821.00000      285.02600        3.33173        4.37732      -67.20002
821.50000      286.40482        3.32226        4.29106      -67.63202
822.00000      287.79365        3.31320        4.12360      -67.80002
822.50000      289.17248        3.30374        3.98853      -67.42502
823.00000      290.55130        3.29427        3.86187      -67.20002
823.50000      288.32654        3.31361        3.73481      -67.20002
824.00000      283.69940        3.37615        3.60775      -67.20002
824.50000      279.07225        3.43868        3.68468      -67.20002
825.00000      276.15681        3.50122        3.76202      -66.55502
825.50000      274.46607        3.52576        3.83896      -64.61402
826.00000      275.19425        3.52509        3.86989      -63.00002
826.50000      280.21670        3.46403        3.83203      -63.33302
827.00000      285.23914        3.38777        3.79377      -63.90002
827.50000      290.26158        3.29617        3.74870      -65.40002
828.00000      296.70544        3.21991        3.66151      -67.35002
828.50000      304.10024        3.14405        3.58884      -69.60002
829.00000      311.49505        3.06778        3.51618      -70.20002
829.50000      318.88985        2.99152        3.44352      -69.63602
830.00000      323.49188        2.91526        3.38646      -68.98202
830.50000      327.40322        2.83900        3.31339      -68.32502
831.00000      327.42069        2.86193        3.08393      -67.56002
831.50000      327.44165        2.88487        3.06327      -66.36002
832.00000      329.96161        2.90741        3.09461      -65.40002
832.50000      332.48157        2.87634        3.12594      -65.40002
833.00000      336.28280        2.80888        3.15728      -65.40002
833.50000      345.19911        2.74182        3.18861      -66.90002
834.00000      354.91622        2.67435        3.51435      -71.40002
834.50000      365.85455        2.55249        3.91368      -76.50002
835.00000      379.42549        2.43103        4.52102      -81.96002
835.50000      403.52689        2.28503        5.17515      -84.93002
836.00000      432.45659        2.16317        5.43169      -86.58002
836.50000      457.17861        2.04131        4.94543      -87.39002
837.00000      484.36308        1.91985        4.34303      -84.84002
837.50000      528.14404        1.79798        3.90597      -82.70102
838.00000      576.24930        1.64452        3.46891      -84.52502
838.50000      634.32796        1.46986        3.55385      -86.93402
839.00000      690.07081        1.29560        3.48758      -89.10001
839.50000      775.17284        1.12094        3.32012      -90.60001
840.00000      862.28035        0.94627        3.15426      -92.10001
840.50000      931.03613        0.89121        2.99360      -94.69201
841.00000      999.45157        0.83575        2.83894      -97.55401
841.50000     1095.76048        0.78068        2.70907      -99.60001
842.00000     1142.62450        0.72562        2.57881     -100.95001
842.50000     1158.95167        0.71323        2.44895     -101.70001
843.00000     1151.67189        0.72536        2.42229     -100.57501
843.50000     1121.65952        0.73750        2.42149      -99.30001
844.00000     1091.64715        0.75004        2.23883      -97.80001
844.50000     1074.14721        0.76217        2.05657      -96.30001
845.00000     1059.21983        0.77431        1.99950      -95.19901
845.50000     1049.05718        0.77605        2.00884      -94.36801
846.00000     1049.34492        0.77058        2.15817      -96.60001
846.50000     1063.37632        0.76512        2.36151      -99.41401
847.00000     1086.10636        0.75966        2.60085     -102.18601
847.50000     1113.43097        0.75419        2.62858     -104.62501
848.00000     1136.08093        0.74873        2.51552     -105.75001
848.50000     1151.73394        0.74327        2.40246     -106.04101
849.00000     1142.87259        0.73820        2.30099     -105.77701
849.50000     1102.27970        0.74554        2.21673     -105.51301
850.00000     1037.03254        0.79120        2.11999     -105.00001
850.50000      989.79080        0.84973        2.03613     -102.98701
851.00000      952.87808        0.92014        1.95186     -101.13601
851.50000      905.57852        0.97867        2.01240      -99.28201
852.00000      853.61434        1.03721        2.20000      -97.67401
852.50000      801.66016        1.13254        2.35654      -97.05001
853.00000      745.85215        1.22788        2.39107      -96.42601
853.50000      687.48160        1.32322        2.42561      -94.70101
854.00000      644.78662        1.41855        2.46055      -92.70001
854.50000      607.84736        1.51389        2.63868      -91.95001
855.00000      578.21537        1.60923        2.91322      -91.35001
855.50000      548.59338        1.70456        2.98535      -90.97501
856.00000      519.59202        1.79990        3.05749      -90.60001
856.50000      494.61465        1.89523        3.33123      -88.80002
857.00000      484.06161        1.99057        3.65536      -87.00002
857.50000      479.74478        1.94631        3.97990      -87.90002
858.00000      485.51797        1.90244        4.26523      -90.99901
858.50000      494.29414        1.85818        4.52457      -94.10101
859.00000      508.75597        1.81392        4.62790      -97.20001
859.50000      527.00155        1.76726        4.48164      -97.80001
860.00000      545.25715        1.71659        4.29938      -97.11901
860.50000      564.93416        1.66593        4.18232      -96.43501
861.00000      584.97152        1.61527        4.10885      -96.73501
861.50000      604.38827        1.55447        4.12459      -97.28101
862.00000      624.67938        1.53221        4.44592      -98.40001
