~Version ---------------------------------------------------
VERS. 2.0 : CWLS LOG ASCII STANDARD - VERSION 2.0
WRAP. NO  : One line per depth step
DLM . SPACE : Column Data Section Delimiter
~Well ------------------------------------------------------
STRT.F          230 : START DEPTH
STOP.F       1777.5 : STOP DEPTH
STEP.F          0.5 : STEP
NULL.       -999.25 : NULL VALUE
COMP.         WALSH & WATTS, INCORPORATED : COMPANY
WELL.                         SALMON E 44 : WELL
FLD .                             REGULAR : FIELD
CNTY.                            MONTAGUE : COUNTY
STAT.                               TEXAS : STATE
CTRY.                                 USA : COUNTRY
SEC .                                     : SECTION
TWP .                                     : TOWNSHIP
RGE .                                     : RANGE
LOC . 300' WEST OF NO 23, 300' SOUTH OF D-9, F.ROBERTSON SURV. : LOCATION
EKB .F                      862 : ELEVATION KELLY BUSHING
EDF .F                          : ELEVATION DERRICK FLOOR
EGL .F                      856 : ELEVATION GROUND LEVEL
PDAT.                        GL : PERMANENT DATUM
EPD .                       856 : ELEVATION PERMANENT DATUM
APD .                         6 : ABOVE PERMANENT DATUM
LMF .                        KB : LOG MEASURED FROM
DMF .                        KB : DRILLING MEASURED FROM
API .            42337038720000 : API NUMBER
UWI .                           : UWI NUMBER
DIGC.                     NthDS : DIGITIZING COMPANY
~Params ----------------------------------------------------
SRVC.              SCHLUMBERGER : LOGGING COMPANY
LOG .                       IEL : LOG
DATE.                1965-11-28 : RUN DATE
RUN .                         1 : RUN NUMBER
TDD .F                     1779 : TOTAL DEPTH DRILLER
TDL .F                     1779 : TOTAL DEPTH LOGGER
BOTL.F                     1778 : BOTTOM LOGGED INTERVAL
TOPL.F                          : TOP LOGGED INTERVAL
CSGS.IN                         : CASING SIZE
CSGD.F                          : CASING DRILLER
CSGL.F                          : CASING LOGGER
BS  .IN                   7.875 : BIT SIZE
MUD .                       GEL : MUD TYPE
MUDD.                        10 : MUD DENSITY
MUDV.                       9.8 : MUD VISCOSITY
PH  .                           : MUD PH
FL  .                           : FLUID LOSS
MUDS.                CIRCULATED : SOURCE OF SAMPLE
RM  .OHMM                   2.0 : MUD RESISTIVITY
RMT .DEGF                    81 : RM TEMPERATURE
RMF .OHMM                   1.5 : MUD FILTRATE RESISTIVITY
RMFT.DEGF                    81 : RMF TEMPERATURE
RMC .OHMM                       : MUD CAKE RESISTIVITY
RMCT.DEGF                       : RMC TEMPERATURE
RMFS.                         M : RMF SOURCE
RMCS.                           : RMC SOURCE
RMBH.OHMM                   1.6 : MUD RESISTIVITY AT BHT
BHT .DEGF                   100 : BOTTOM HOLE TEMPERATURE
TIMC.                           : TIME CIRCULATION STOPPED
TIML.                           : TIME LOGGER ON BOTTOM
TMAX.DEGF                   100 : MAXIMUM RECORDED TEMPERATURE
UNIT.                      4559 : EQUIPMENT NUMBER
BASE.                       WFS : BASE LOCATION
ENG .                      FINK : RECORDED BY
WIT .                       NIX : WITNESSED BY
~Curve Information -----------------------------------------
DEPT.F          :DEPTH
CILD.MMHO       :
ILD.OHMM        :
SN.OHMM         :
SP.MV           :
~ASCII ------------------------------------------------------
# ...
632.50000      216.35918        4.55200        5.89200      -68.19302
633.00000      200.65103        4.84360        6.00200      -65.65502
633.50000      190.61851        5.17080        6.13400      -62.60702
634.00000      184.37976        5.34000        6.18000      -60.24602
634.50000      182.72557        5.44000        6.13000      -57.92702
635.00000      181.85216        5.36960        6.08000      -57.03002
635.50000      184.10185        5.29880        6.03000      -56.58002
636.00000      187.27245        5.22840        6.00000      -56.90102
636.50000      191.83444        5.11800        6.00000      -57.60002
637.00000      196.40644        4.98120        6.00000      -57.60002
637.50000      200.96842        4.84440        6.00000      -58.28702
638.00000      206.93530        4.70720        6.00000      -59.40002
638.50000      213.89967        4.57040        6.00000      -60.90002
639.00000      220.87406        4.43360        6.00000      -61.16402
639.50000      227.83843        4.29680        6.13320      -60.60002
640.00000      238.44643        4.16000        6.19440      -61.20002
640.50000      251.47683        3.94280        5.96560      -64.01402
641.00000      264.50723        3.72520        5.92000      -66.50102
641.50000      277.11722        3.50800        5.65320      -68.10002
642.00000      289.45693        3.24680        5.12000      -68.10002
642.50000      301.79665        3.10840        4.88680      -68.10002
643.00000      310.57282        3.02280        5.07120      -70.75502
643.50000      316.24592        2.93720        5.36000      -73.40702
644.00000      317.46807        2.93760        5.24880      -75.50102
644.50000      314.88296        2.96000        5.11680      -76.08002
645.00000      308.69426        3.09560        5.00920      -73.98002
645.50000      297.70079        3.23160        4.90160      -71.88602
646.00000      286.82744        3.36720        4.83440      -69.82502
646.50000      276.45458        3.50280        4.74920      -67.56002
647.00000      266.07172        3.63840        4.62200      -65.16002
647.50000      259.53267        3.72000        4.50680      -63.07502
648.00000      259.30990        3.72000        4.62000      -62.70002
648.50000      261.60964        3.72000        4.85320      -62.70002
649.00000      260.41591        3.72000        5.08680      -62.34002
649.50000      253.99698        3.81600        5.32000      -62.10002
650.00000      240.52826        3.93600        5.27560      -63.18902
650.50000      232.12737        4.11000        5.36000      -64.95002
651.00000      225.25799        4.20560        5.87000      -67.20002
651.50000      226.22641        4.22000        6.71280      -69.45002
652.00000      227.19483        4.23440        7.60360      -71.70002
652.50000      228.17325        4.21000        8.38840      -69.86402
653.00000      229.14167        4.16000        8.84000      -68.18402
653.50000      235.35530        4.08000        8.02400      -66.50402
654.00000      251.06185        3.88000        6.88400      -64.82402
654.50000      270.24837        3.60800        6.02240      -63.14402
655.00000      291.64709        3.28800        5.57760      -62.04002
655.50000      309.25204        3.05720        5.30400      -63.97502
656.00000      321.16133        2.91400        5.40280      -69.00002
656.50000      323.55115        2.88320        5.67440      -75.30002
657.00000      319.56465        2.85240        5.94560      -78.12002
657.50000      311.00359        2.98240        6.06000      -78.72002
658.00000      296.43657        3.16000        6.12000      -78.93302
658.50000      275.40661        3.42680        6.27800      -77.60102
659.00000      259.99875        3.69320        6.43560      -75.94202
659.50000      244.58089        3.90400        6.59360      -73.80002
660.00000      236.26007        4.07720        6.67200      -71.65802
660.50000      227.92924        4.25080        6.40720      -69.06902
661.00000      221.14996        4.37040        6.04360      -66.18602
661.50000      215.39169        4.45400        5.68000      -63.30002
662.00000      209.63342        4.53800        5.59680      -61.58102
662.50000      207.97923        4.62200        5.51320      -61.98002
663.00000      206.33505        4.70600        5.51760      -62.46002
663.50000      204.68086        4.78960        5.58040      -62.97902
664.00000      200.07373        4.86400        5.64360      -63.68102
664.50000      195.47662        4.93600        5.71880      -64.38002
665.00000      192.72133        4.95120        5.78160      -65.33402
665.50000      192.73881        4.93640        5.84440      -66.66602
666.00000      195.76275        4.92160        5.90760      -67.20002
666.50000      198.28271        4.90680        5.68720      -67.01402
667.00000      198.56044        4.89200        5.39640      -66.09302
667.50000      198.28762        4.87600        5.44000      -65.16902
668.00000      198.01481        4.85600        5.77320      -63.69302
668.50000      199.28352        4.82360        6.08000      -61.84502
669.00000      202.87454        4.74120        5.91400      -59.56802
669.50000      206.46556        4.65880        5.88320      -57.39902
670.00000      210.24678        4.57640        5.85240      -55.50002
670.50000      214.15812        4.48000        5.72000      -54.50102
671.00000      218.85373        4.38000        5.52000      -55.50002
671.50000      223.35565        4.26000        5.32000      -56.92502
672.00000      230.25997        4.16000        5.32000      -58.98902
672.50000      238.66578        4.06000        5.32000      -59.40002
673.00000      248.06257        3.89240        5.14000      -59.40002
673.50000      257.46937        3.70760        4.84000      -59.40002
674.00000      265.71502        3.55000        4.49000      -59.40002
674.50000      272.23895        3.50000        4.33800      -59.96402
675.00000      277.87201        3.45000        4.48360      -60.90002
675.50000      281.32638        3.40000        4.57080      -59.30102
676.00000      284.20670        3.36000        4.42560      -57.69902
676.50000      285.89583        3.36000        4.28000      -56.10002
677.00000      286.91430        3.36000        4.33440      -57.60002
677.50000      285.26011        3.36000        4.38920      -58.99502
678.00000      278.95129        3.41520        4.48280      -60.22802
678.50000      272.65248        3.48480        4.58680      -61.46402
679.00000      266.34367        3.56760        4.71120      -62.70002
679.50000      260.46528        3.63680        4.81480      -63.40802
680.00000      256.26856        3.70600        4.91840      -64.11602
680.50000      252.07184        3.82000        4.98000      -64.82402
681.00000      247.87513        3.92440        5.22840      -65.53202
681.50000      245.96417        3.94520        5.80000      -66.38402
682.00000      246.98264        3.96640        6.10280      -67.09202
682.50000      248.00110        3.98720        6.16000      -67.80002
683.00000      249.01957        3.96880        5.96800      -66.30002
683.50000      250.03803        3.89120        5.60800      -61.91402
684.00000      255.13055        3.81320        5.27000      -57.53102
684.50000      262.92575        3.73560        5.02000      -54.30002
685.00000      269.84007        3.62400        4.77000      -52.80002
685.50000      275.80345        3.50400        4.52000      -51.96002
686.00000      281.28635        3.36000        4.37600      -51.56102
686.50000      286.58256        3.31560        4.28000      -51.15902
687.00000      289.93334        3.27120        4.28000      -50.51402
687.50000      292.62347        3.22680        4.24000      -49.70702
688.00000      291.75006        3.22680        4.14000      -48.96002
688.50000      287.32311        3.29320        4.12000      -49.26002
689.00000      282.16544        3.36000        4.12000      -49.56002
689.50000      275.92669        3.44280        4.12000      -49.75802
