~Version ---------------------------------------------------
VERS. 2.0 : CWLS LOG ASCII STANDARD - VERSION 2.0
WRAP. NO  : One line per depth step
DLM . SPACE : Column Data Section Delimiter
~Well ------------------------------------------------------
STRT.F          800 : START DEPTH
STOP.F       1756.5 : STOP DEPTH
STEP.F          0.5 : STEP
NULL.       -999.25 : NULL VALUE
COMP.                 WALSH & WATTS, INC. : COMPANY
WELL.                       SALMON D E 6D : WELL
FLD .                             REGULAR : FIELD
CNTY.                            MONTAGUE : COUNTY
STAT.                               TEXAS : STATE
CTRY.                                 USA : COUNTRY
SEC .                                     : SECTION
TWP .                                     : TOWNSHIP
RGE .                                     : RANGE
LOC .  460 FSL 755 FEL
F. ROBERTSON A-620 : LOCATION
EKB .F                      880 : ELEVATION KELLY BUSHING
EDF .F                      878 : ELEVATION DERRICK FLOOR
EGL .F                      874 : ELEVATION GROUND LEVEL
PDAT.                        GL : PERMANENT DATUM
EPD .                       874 : ELEVATION PERMANENT DATUM
APD .                           : ABOVE PERMANENT DATUM
LMF .                        KB : LOG MEASURED FROM
DMF .                        KB : DRILLING MEASURED FROM
API .            42337016430000 : API NUMBER
UWI .            42337016430000 : UWI NUMBER
DIGC.                     NthDS : DIGITIZING COMPANY
~Params ----------------------------------------------------
SRVC.              SCHLUMBERGER : LOGGING COMPANY
LOG .                   CNFD/ML : LOG
DATE.                2005-08-03 : RUN DATE
RUN .                         1 : RUN NUMBER
TDD .F                     1750 : TOTAL DEPTH DRILLER
TDL .F                     1750 : TOTAL DEPTH LOGGER
BOTL.F                     1750 : BOTTOM LOGGED INTERVAL
TOPL.F                      980 : TOP LOGGED INTERVAL
CSGS.IN                       7 : CASING SIZE
CSGD.F                      880 : CASING DRILLER
CSGL.F                      880 : CASING LOGGER
BS  .IN                     6.5 : BIT SIZE
MUD .                       FGM : MUD TYPE
MUDD.                       0.2 : MUD DENSITY
MUDV.                        80 : MUD VISCOSITY
PH  .                        11 : MUD PH
FL  .                         7 : FLUID LOSS
MUDS.                       PIT : SOURCE OF SAMPLE
RM  .OHMM                  1.70 : MUD RESISTIVITY
RMT .DEGF                    70 : RM TEMPERATURE
RMF .OHMM                  1.33 : MUD FILTRATE RESISTIVITY
RMFT.DEGF                    70 : RMF TEMPERATURE
RMC .OHMM                  2.67 : MUD CAKE RESISTIVITY
RMCT.DEGF                    70 : RMC TEMPERATURE
RMFS.                      MEAS : RMF SOURCE
RMCS.                       CAL : RMC SOURCE
RMBH.OHMM                  1.47 : MUD RESISTIVITY AT BHT
BHT .DEGF                    98 : BOTTOM HOLE TEMPERATURE
TIMC.                     2100  : TIME CIRCULATION STOPPED
TIML.                     0300  : TIME LOGGER ON BOTTOM
TMAX.DEGF                    98 : MAXIMUM RECORDED TEMPERATURE
UNIT.                       303 : EQUIPMENT NUMBER
BASE.                   WICHITA : BASE LOCATION
ENG .              DAVID PARKER : RECORDED BY
WIT .              MR. BURLESON : WITNESSED BY
~Curve Information -----------------------------------------
DEPT.F          :DEPTH
CALD.IN         :
DPHI.%          :
GRD.GAPI        :
MINV.OHMM       :
MNOR.OHMM       :
NPHI.%          :
~ASCII ------------------------------------------------------
# ...
1680.00000        5.47913       13.70291       99.70156        4.81559        5.79935       18.02307
1680.50000        5.46533       13.81831      100.58879        5.11536        6.13968       18.49065
1681.00000        5.45172       14.03682       99.17767        5.50407        6.47924       18.95862
1681.50000        5.43812       13.71080       97.76654        5.89278        7.03724       18.91934
1682.00000        5.45449       11.93957       97.47738        6.78311        8.46587       18.24550
1682.50000        5.47811       11.74958       98.67912        7.02125        8.36699       17.57166
1683.00000        5.50193       13.28084       99.88087        6.82486        8.06684       16.71936
1683.50000        5.52575       14.75657       97.75604        6.41783        7.46555       16.50161
1684.00000        5.54936       14.92352       93.11052        5.87037        6.86426       16.42267
1684.50000        5.57318       14.78509       90.42018        6.19666        7.36687       16.39330
1685.00000        5.51350       14.87669       88.86087        7.10572        8.14564       16.41827
1685.50000        5.45382       15.12296       86.33081        7.78542        9.75683       16.41152
1686.00000        5.39414       15.33354       86.52551        7.71385       12.61545       16.39683
1686.50000        5.36987       16.45114      103.15201        8.29759       13.75855       16.40752
1687.00000        5.40134       17.42637      101.63202        8.20651       12.76719       16.52133
1687.50000        5.45413       18.01173       93.75973        7.66451       11.77583       16.35910
1688.00000        5.50672       17.51636       96.47354        7.12330       10.26335       15.98945
1688.50000        5.53959       16.39794      103.01896        6.92690        7.96994       15.52700
1689.00000        5.49259       14.80042      108.65570        6.41845        7.31249       15.17322
1689.50000        5.44558       13.15491      119.25348        5.83199        6.71120       15.25689
1690.00000        5.41548       12.64645      132.91472        5.24552        6.10991       15.59438
1690.50000        5.39685       12.42632      147.12032        5.48834        6.20997       16.08654
1691.00000        5.40356       12.50959      152.57597        5.91372        6.77889       17.03281
1691.50000        5.44871       13.16635      157.60629        6.38590        7.34781       17.99296
1692.00000        5.49385       13.92225      162.63963        5.78617        7.34645       18.53431
1692.50000        5.53920       13.93849      165.00870        5.90183        6.89963       19.26887
1693.00000        5.58435       13.13774      167.37474        6.01749        6.89514       19.80069
1693.50000        5.60756       12.42424      168.92426        5.72358        6.45300       19.78521
1694.00000        5.63058       12.79901      167.18653        5.81973        7.05469       19.44848
1694.50000        5.65379       13.24041      167.10301        5.95099        7.08999       19.18909
1695.00000        5.65226       13.23841      167.43077        5.38793        6.94821       19.04875
1695.50000        5.63423       13.17931      165.30595        4.80147        6.62777       18.94991
1696.00000        5.61620       12.62445      161.84142        4.72755        6.30733       18.78332
1696.50000        5.59817       12.46619      156.70757        5.22782        6.05477       18.44342
1697.00000        5.58014       12.59348      150.46385        4.99242        5.81936       18.56119
1697.50000        5.59973       12.84776      144.71112        5.32574        6.92190       18.80548
1698.00000        5.61932       13.57789      135.88175        5.65827        6.82302       19.05810
1698.50000        5.59646       13.35181      127.05541        5.85507        6.56967       19.27344
1699.00000        5.57903       13.24431      123.25823        5.50732        6.21413       19.30555
1699.50000        5.58314       13.25501      122.16767        5.33667        6.03880       19.14729
1700.00000        5.56268       13.43785      118.04487        4.93345        6.11536       19.00083
1700.50000        5.56679       13.53749      115.63721        4.82677        6.01102       18.85376
1701.00000        5.57110       13.64163      113.79364        5.27399        5.85753       18.62983
1701.50000        5.57521       13.66454      113.14157        4.91349        5.67256       18.38292
1702.00000        5.57932       13.85268      111.40989        4.72489        5.51829       18.18236
1702.50000        5.58343       14.06222      112.25781        4.82261        5.48261       18.09552
1703.00000        5.58844       14.01658      112.23175        5.06933        5.62323       18.18778
1703.50000        5.60505       15.28933      110.85086        5.29655        5.77399       18.28003
1704.00000        5.62468       16.53420      109.31878        5.44576        6.00979       18.39883
1704.50000        5.61811       15.60380      107.56592        5.59418        6.30801       18.53586
1705.00000        5.60044       13.56398      105.81307        5.94076        6.60700       18.67289
1705.50000        5.56423       12.81188      102.23061        6.41996        7.78910       18.75523
1706.00000        5.52822       11.99638       96.61894        6.89838        8.16455       18.51823
1706.50000        5.49200       12.61522       91.22803        7.17553        8.28333       17.82556
1707.00000        5.49954       15.94422       84.66519        6.87616        8.14388       16.93478
1707.50000        5.51796       17.00168       80.70169        5.64608        6.97231       15.23175
1708.00000        5.53639       16.50039       75.77952        5.48869        6.06911       14.61159
1708.50000        5.51691       16.10489       73.55490        5.76038        6.24172       14.14358
1709.00000        5.46325       15.98675       74.55403        6.03206        6.13582       13.54007
1709.50000        5.41877       15.42722       76.81422        6.64389        5.51035       13.36765
1710.00000        5.38236       15.08481       78.46959        5.84730        4.55383       13.62394
1710.50000        5.35159       15.29554       77.63003        5.26317        4.97842       13.70232
1711.00000        5.35167       15.18413       78.60496        5.82585        5.40224       13.54139
1711.50000        5.37231       14.76645       77.53859        5.21130        5.12783       13.18868
1712.00000        5.39315       16.04237       76.01860        5.85199        4.63888       12.83558
1712.50000        5.41379       16.42783       74.49861        5.83503        3.69277       12.35450
1713.00000        5.41024       16.29661       74.62073        5.98579        2.18263       11.85202
1713.50000        5.40044       16.19154       81.30828        5.80656        1.61957       11.83294
1714.00000        5.38499       16.01397       85.05938        5.62811        1.75317       12.13083
1714.50000        5.36591       15.79677       91.70460        5.96767        1.12458       12.95174
1715.00000        5.34290       16.31259      100.76914        6.09347        1.49066       14.07392
1715.50000        5.32362       15.52087      105.39724        6.01409        1.72334       14.56993
1716.00000        5.30455       14.79532      110.43059        5.62266        1.33191       16.64093
1716.50000        5.29878       14.78931      109.51542        5.75158        1.64233       17.52048
1717.00000        5.31337       14.68305      109.88553        5.46391        2.68089       17.93209
1717.50000        5.32797       13.89133      110.25563        5.59283        3.18116       18.26762
1718.00000        5.34256       13.70187      109.18926        5.51630        3.54724       18.39197
1718.50000        5.36945       14.29693      107.59366        5.84962        3.91332       18.51671
1719.00000        5.41469       14.53539      106.63918        5.45819        4.26848       18.55721
1719.50000        5.45992       13.88235      108.62116        5.66825        4.60804       18.40935
