~Version ---------------------------------------------------
VERS. 2.0 : CWLS LOG ASCII STANDARD - VERSION 2.0
WRAP. NO  : One line per depth step
DLM . SPACE : Column Data Section Delimiter
~Well ------------------------------------------------------
STRT.F          227 : START DEPTH
STOP.F       2033.0 : STOP DEPTH
STEP.F          0.5 : STEP
NULL.       -999.25 : NULL VALUE
COMP.                  WALSH & WATTS, INC : COMPANY
WELL.                          HYNDS A 10 : WELL
FLD .                           N. NOCONA : FIELD
CNTY.                            MONTAGUE : COUNTY
STAT.                               TEXAS : STATE
CTRY.                                 USA : COUNTRY
SEC .                                     : SECTION
TWP .                                     : TOWNSHIP
RGE .                                     : RANGE
LOC .  244' SE OF NO. 5A J.J. WALL SURVEY : LOCATION
EKB .F                    903.5 : ELEVATION KELLY BUSHING
EDF .F                          : ELEVATION DERRICK FLOOR
EGL .F                      897 : ELEVATION GROUND LEVEL
PDAT.                        GL : PERMANENT DATUM
EPD .                           : ELEVATION PERMANENT DATUM
APD .                         6 : ABOVE PERMANENT DATUM
LMF .                           : LOG MEASURED FROM
DMF .                           : DRILLING MEASURED FROM
API .            42337037830000 : API NUMBER
UWI .            42337037830000 : UWI NUMBER
DIGC.                     NthDS : DIGITIZING COMPANY
~Params ----------------------------------------------------
SRVC.              SCHLUMBERGER : LOGGING COMPANY
LOG .                       IEL : LOG
DATE.                1957-10-20 : RUN DATE
RUN .                         1 : RUN NUMBER
TDD .F                          : TOTAL DEPTH DRILLER
TDL .F                          : TOTAL DEPTH LOGGER
BOTL.F                     2039 : BOTTOM LOGGED INTERVAL
TOPL.F                          : TOP LOGGED INTERVAL
CSGS.IN                         : CASING SIZE
CSGD.F                      227 : CASING DRILLER
CSGL.F                      227 : CASING LOGGER
BS  .IN                    8.75 : BIT SIZE
MUD .                       GEL : MUD TYPE
MUDD.                       9.9 : MUD DENSITY
MUDV.                        50 : MUD VISCOSITY
PH  .                           : MUD PH
FL  .                           : FLUID LOSS
MUDS.                           : SOURCE OF SAMPLE
RM  .OHMM                   2.3 : MUD RESISTIVITY
RMT .DEGF                    60 : RM TEMPERATURE
RMF .OHMM                   .76 : MUD FILTRATE RESISTIVITY
RMFT.DEGF                    96 : RMF TEMPERATURE
RMC .OHMM                   1.7 : MUD CAKE RESISTIVITY
RMCT.DEGF                    96 : RMC TEMPERATURE
RMFS.                           : RMF SOURCE
RMCS.                           : RMC SOURCE
RMBH.OHMM                   1.4 : MUD RESISTIVITY AT BHT
BHT .DEGF                    96 : BOTTOM HOLE TEMPERATURE
TIMC.                           : TIME CIRCULATION STOPPED
TIML.                           : TIME LOGGER ON BOTTOM
TMAX.DEGF                       : MAXIMUM RECORDED TEMPERATURE
UNIT.                       785 : EQUIPMENT NUMBER
BASE.                        WF : BASE LOCATION
ENG .                     JONES : RECORDED BY
WIT .               BALCH & NIX : WITNESSED BY
~Curve Information -----------------------------------------
DEPT.F          :DEPTH
CILD.MMHO       :
ILD.OHMM        :
ROP.FT/HR       :
SN.OHMM         :
SP.MV           :
~ASCII ------------------------------------------------------
# ...
1645.00000      372.58545        2.59389        5.45846        2.96902      -51.93510
1645.50000      383.69272        2.51902        5.46029        2.87830      -50.71064
1646.00000      394.11736        2.44416        5.46231        2.78758      -49.66897
1646.50000      404.70256        2.36930        5.46415        2.71200      -48.98572
1647.00000      415.37697        2.30584        5.46664        2.62115      -49.09342
1647.50000      426.06031        2.25692        5.46848        2.51890      -49.65568
1648.00000      437.14081        2.20837        5.47050        2.41017      -50.40970
1648.50000      439.19803        2.18864        6.02036        2.39981      -51.20852
1649.00000      441.24634        2.16927        6.01539        2.41432      -50.45897
1649.50000      441.64435        2.14954        6.01041        2.41909      -49.18433
1650.00000      439.41177        2.24071        6.54122        2.51061      -46.53585
1650.50000      437.67158        2.27179        6.54122        2.50134      -44.03406
1651.00000      434.49900        2.30923        6.54122        2.49206      -41.98747
1651.50000      430.68653        2.34031        6.54122        2.50356      -41.43370
1652.00000      423.60174        2.37140        7.47276        2.55122      -41.68460
1652.50000      416.51695        2.40248        7.47132        2.59851      -42.59320
1653.00000      409.43216        2.43392        7.46971        2.64762      -43.01077
1653.50000      402.02508        2.48519        7.46810        2.69960      -43.47134
1654.00000      394.39420        2.55014        7.46667        2.75158      -44.29571
1654.50000      386.77226        2.61510        7.46505        2.80357      -45.34051
1655.00000      379.15032        2.68005        7.46362        2.85555      -44.26525
1655.50000      371.52839        2.77083        7.46201        2.95425      -42.36560
1656.00000      361.15806        2.86858        7.46021        3.05200      -41.87636
1656.50000      347.88288        2.96633        7.45860        3.14975      -43.06991
1657.00000      336.82321        3.06372        7.45699        3.24714      -43.68281
1657.50000      325.76354        3.16147        7.45555        3.34417      -42.74195
1658.00000      315.21416        3.26390        7.98710        3.43939      -41.68102
1658.50000      304.79011        3.36597        7.97778        3.53498      -41.30826
1659.00000      296.75637        3.44787        7.96828        3.60786      -40.93550
1659.50000      292.30359        3.44724        7.95896        3.64760      -39.54661
1660.00000      294.56513        3.35027        5.98566        3.54954      -37.69356
1660.50000      304.14977        3.22964        5.98566        3.40729      -35.70252
1661.00000      317.84825        3.10901        5.98566        3.26504      -33.15414
1661.50000      330.57518        3.01649        5.98566        3.16604      -30.48747
1662.00000      343.61545        2.93082        7.47312        3.06739      -29.03227
1662.50000      353.54922        2.84550        7.47312        3.05343      -28.55019
1663.00000      361.40604        2.79406        7.47312        3.06109      -28.06812
1663.50000      362.32940        2.79343        7.47312        3.06875      -27.59858
1664.00000      359.66711        2.79268        7.99283        3.07772      -25.92654
1664.50000      357.00482        2.79529        7.99319        3.08502      -23.43729
1665.00000      354.34253        2.80007        7.99337        3.09232      -22.04303
1665.50000      352.45015        2.80485        7.99373        3.09962      -21.93012
1666.00000      350.54881        2.80998        7.99391        3.10656      -21.68461
1666.50000      348.99662        2.81476        7.99426        3.11386      -21.36561
1667.00000      348.77835        2.81954        7.99462        3.12116      -21.60575
1667.50000      348.52895        2.82431        7.99480        3.12809      -22.02690
1668.00000      348.31962        2.81995        7.99516        3.13707      -22.59679
1668.50000      348.24458        2.81608        7.99534        3.14401      -23.17744
1669.00000      348.26802        2.81257        7.99570        3.15131      -23.77600
1669.50000      348.29146        2.80870        7.99588        3.15861      -24.37278
1670.00000      348.31490        2.80519        7.99623        3.16590      -24.91041
1670.50000      348.33833        2.80131        7.99659        3.17284      -25.44805
1671.00000      348.36646        2.79744        7.99677        3.18014      -26.27959
1671.50000      348.38990        2.79393        7.99713        3.16005      -27.11292
1672.00000      348.68191        2.78957        7.99731        3.14033      -27.95701
1672.50000      350.04821        2.78570        7.99767        3.11651      -29.36919
1673.00000      351.41451        2.78219        7.99803        3.09642      -30.82439
1673.50000      352.78081        2.77832        7.99821        3.07633      -29.03227
1674.00000      354.06654        2.77444        7.99856        3.06489      -26.34410
1674.50000      355.24953        2.77093        7.99874        3.05922      -23.52152
1675.00000      356.23088        2.76706        7.99910        3.05354      -21.64876
1675.50000      356.63927        2.76355        7.99928        3.04787      -20.66310
1676.00000      356.66271        2.75968        7.99964        3.04184      -20.03944
1676.50000      356.68614        2.75532        7.99982        3.03496      -19.95701
1677.00000      356.70958        2.75145        8.00018        3.02928      -19.94088
1677.50000      356.58978        2.74793        8.00036        3.03117      -20.17923
1678.00000      356.34038        2.74406        8.00072        3.03487      -20.46597
1678.50000      356.12210        2.74055        8.00107        3.03857      -20.65414
1679.00000      355.91278        2.73776        8.00125        3.04226      -20.76525
1679.50000      356.77774        2.73965        8.00161        3.04632      -21.19894
1680.00000      357.63376        2.74155        8.00179        3.05001      -21.48030
1680.50000      358.49872        2.74367        8.00215        3.05430      -21.41579
1681.00000      359.13988        2.74557        8.00233        3.05836      -21.35127
1681.50000      359.83943        2.74746        8.00269        3.05485      -21.32618
1682.00000      360.41792        2.74935        8.00287        3.04989      -21.32618
1682.50000      361.19336        2.75125        8.00322        3.04494      -21.32618
1683.00000      362.00462        2.75314        8.00358        3.03999      -21.32618
1683.50000      362.81587        2.75467        8.00376        3.03467      -21.55020
1684.00000      363.07207        2.75657        8.00412        3.02972      -21.80468
1684.50000      362.48674        2.75870        8.00430        3.02477      -22.04303
1685.00000      361.78077        2.76059        8.00466        3.01861      -22.04303
1685.50000      361.19544        2.76248        8.00484        3.02302      -22.04303
1686.00000      360.49373        2.76438        8.00520        3.02996      -22.04303
1686.50000      359.33545        2.76627        8.00555        3.03690      -22.04303
1687.00000      358.18612        2.76816        8.00573        3.04348      -22.17385
1687.50000      357.02783        2.77006        8.00609        3.05042      -22.33693
1688.00000      355.29660        2.77159        8.00627        3.05699      -22.58066
1688.50000      352.71488        2.77348        8.00663        3.06393      -24.05020
1689.00000      350.12889        2.77561        8.00699        3.07183      -25.98568
1689.50000      350.15233        2.77751        8.00717        3.07877      -25.56812
1690.00000      350.17577        2.77940        8.00753        3.08534      -24.57170
1690.50000      350.19921        2.78129        8.00770        3.09228      -23.86023
1691.00000      350.22264        2.78319        8.00806        3.09922      -23.22045
1691.50000      350.63999        2.78508        8.00824        3.10580      -22.58066
