~Version ---------------------------------------------------
VERS. 2.0 : CWLS LOG ASCII STANDARD - VERSION 2.0
WRAP. NO  : One line per depth step
DLM . SPACE : Column Data Section Delimiter
~Well ------------------------------------------------------
STRT.F        490.5 : START DEPTH
STOP.F       1005.0 : STOP DEPTH
STEP.F          0.5 : STEP
NULL.       -999.25 : NULL VALUE
COMP.                       WALSH & WATTS : COMPANY
WELL.                           HYNDS B 6 : WELL
FLD .                           N. NOCONA : FIELD
CNTY.                            MONTAGUE : COUNTY
STAT.                               TEXAS : STATE
CTRY.                                 USA : COUNTRY
SEC .                                     : SECTION
TWP .                                     : TOWNSHIP
RGE .                                     : RANGE
LOC . 550' FR W/L OF LEASE, 150' FR S/L OF LEASE, 400' FR NO 4 WELL, 300' FR NO 3 WELL : LOCATION
EKB .F                          : ELEVATION KELLY BUSHING
EDF .F                          : ELEVATION DERRICK FLOOR
EGL .F                          : ELEVATION GROUND LEVEL
PDAT.                        GL : PERMANENT DATUM
EPD .                           : ELEVATION PERMANENT DATUM
APD .                         6 : ABOVE PERMANENT DATUM
LMF .                        KB : LOG MEASURED FROM
DMF .                        KB : DRILLING MEASURED FROM
API .            42337038650000 : API NUMBER
UWI .                           : UWI NUMBER
DIGC.                     NthDS : DIGITIZING COMPANY
~Params ----------------------------------------------------
SRVC.              SCHLUMBERGER : LOGGING COMPANY
LOG .                        ML : LOG
DATE.                1957-10-13 : RUN DATE
RUN .                         1 : RUN NUMBER
TDD .F                     1015 : TOTAL DEPTH DRILLER
TDL .F                     1008 : TOTAL DEPTH LOGGER
BOTL.F                     1005 : BOTTOM LOGGED INTERVAL
TOPL.F                      500 : TOP LOGGED INTERVAL
CSGS.IN                         : CASING SIZE
CSGD.F                          : CASING DRILLER
CSGL.F                          : CASING LOGGER
BS  .IN                         : BIT SIZE
MUD .                       GEL : MUD TYPE
MUDD.                        10 : MUD DENSITY
MUDV.                        53 : MUD VISCOSITY
PH  .                           : MUD PH
FL  .                           : FLUID LOSS
MUDS.                   MUD PIT : SOURCE OF SAMPLE
RM  .OHMM                   1.7 : MUD RESISTIVITY
RMT .DEGF                    68 : RM TEMPERATURE
RMF .OHMM                   1.1 : MUD FILTRATE RESISTIVITY
RMFT.DEGF                    90 : RMF TEMPERATURE
RMC .OHMM                   1.5 : MUD CAKE RESISTIVITY
RMCT.DEGF                    90 : RMC TEMPERATURE
RMFS.                           : RMF SOURCE
RMCS.                           : RMC SOURCE
RMBH.OHMM                   1.3 : MUD RESISTIVITY AT BHT
BHT .DEGF                    90 : BOTTOM HOLE TEMPERATURE
TIMC.                           : TIME CIRCULATION STOPPED
TIML.                           : TIME LOGGER ON BOTTOM
TMAX.DEGF                    90 : MAXIMUM RECORDED TEMPERATURE
UNIT.                       785 : EQUIPMENT NUMBER
BASE.                        WF : BASE LOCATION
ENG .                     JONES : RECORDED BY
WIT .                       NIX : WITNESSED BY
~Curve Information -----------------------------------------
DEPT.F          :DEPTH
CALM.IN         :
MINV.OHMM       :
MNOR.OHMM       :
SP.MV           :
~ASCII ------------------------------------------------------
# ...
835.50000        8.56809        2.46781        2.13208      -57.48416
836.00000        8.60086        2.57640        2.21367      -58.63251
836.50000        8.61913        2.22581        2.10455      -59.89357
837.00000        8.63383        1.78959        1.79930      -60.88088
837.50000        8.64852        1.84671        1.86830      -60.45915
838.00000        8.66322        2.24317        2.02726      -60.03474
838.50000        8.67792        5.12257        3.39531      -59.66607
839.00000        8.69261        6.67066        5.84289      -59.93142
839.50000        8.70731        2.96475        2.49695      -60.19676
840.00000        8.71181        3.09744        2.70449      -60.07294
840.50000        8.70092        3.36183        2.48021      -58.86215
841.00000        8.68985        3.00262        2.52042      -58.35453
841.50000        8.67667        3.25514        2.58762      -56.56402
842.00000        8.66578        3.16580        2.55586      -55.37469
842.50000        8.61588        3.29238        2.53670      -55.56220
843.00000        8.55650        3.40096        2.59742      -55.34982
843.50000        8.54561        4.01345        2.82583      -55.64468
844.00000        8.57480        3.71073        2.61055      -56.62663
844.50000        8.66447        3.36182        2.88107      -58.19634
845.00000        8.66789        3.00777        2.61181      -58.00005
845.50000        8.67132        3.07137        2.71751      -57.76827
846.00000        8.67474        2.80499        2.84421      -58.05777
846.50000        8.67798        2.03807        2.19087      -58.67470
847.00000        8.68141        2.74399        2.37803      -59.29164
847.50000        8.64260        2.77341        2.32720      -59.90857
848.00000        8.54064        2.03275        2.03995      -60.52550
848.50000        8.54084        1.94162        1.89664      -61.27663
849.00000        8.54109        2.04121        2.04121      -62.23174
849.50000        8.54129        3.01342        2.40168      -60.88675
850.00000        8.64616        2.37511        2.20023      -59.80487
850.50000        8.73583        2.19582        2.19582      -62.26295
851.00000        8.63458        3.24000        2.55629      -63.12949
851.50000        8.53798        3.40256        2.66991      -63.99334
852.00000        8.47628        3.02535        2.95338      -64.85987
852.50000        8.41457        2.18034        2.16954      -64.48584
853.00000        8.40797        1.67106        1.65307      -64.17415
853.50000        8.40120        1.91171        1.80375      -64.24894
854.00000        8.39138        1.84037        1.95444      -64.32373
854.50000        8.37960        1.63696        1.73304      -64.02814
855.00000        8.71980        1.90460        1.94958      -60.77759
855.50000        8.72000        2.06728        1.64626      -57.22108
856.00000        8.72021        2.40328        1.92469      -56.32430
856.50000        8.69357        2.78967        2.20348      -53.41460
857.00000        8.64904        3.17569        2.42001      -51.75559
857.50000        8.73871        2.13276        2.24072      -52.13574
858.00000        8.74786        2.40076        2.37341      -54.04899
858.50000        8.70333        2.29847        2.31394      -55.84147
859.00000        8.69906        2.71760        2.63843      -57.60442
859.50000        8.72163        3.37891        3.14609      -59.36737
860.00000        8.68358        3.65913        3.65374      -61.13033
860.50000        8.54315        3.29308        3.18009      -63.06505
861.00000        8.55820        1.95724        2.57630      -64.55962
861.50000        8.63302        2.47077        2.55174      -63.93928
862.00000        8.65970        2.36165        2.49839      -61.92332
862.50000        8.64452        2.73292        2.23993      -60.76620
863.00000        8.62933        3.17148        2.41976      -63.04446
863.50000        8.61415        4.14837        2.74029      -65.63344
864.00000        8.59878        3.29256        2.76467      -67.54670
864.50000        8.58360        2.58789        2.34572      -67.54365
865.00000        8.58076        3.02393        2.96096      -67.00383
865.50000        8.58096        8.62030        4.89576      -68.34273
866.00000        8.58121        3.84204        3.46312      -68.76105
866.50000        8.58141        3.55947        2.70951      -68.56745
867.00000        8.58161        3.33244        2.63062      -68.37117
867.50000        8.58182        8.87470        5.74404      -69.26991
868.00000        8.58202        7.23803        5.56474      -70.11766
868.50000        8.61640        3.55023        3.21450      -67.92188
869.00000        8.67350        2.52170        2.46521      -63.22142
869.50000        8.70788        1.75226        1.71627      -57.85059
870.00000        8.70808        1.88243        1.97851      -55.70044
870.50000        8.70828        2.22491        2.24111      -53.90724
871.00000        8.70848        2.18596        2.31442      -52.23481
871.50000        8.70873        2.11462        2.14556      -51.04012
872.00000        8.70893        1.75540        1.68343      -50.05209
872.50000        8.70913        2.28392        2.22383      -49.91485
873.00000        8.70934        3.04311        2.64727      -49.77761
873.50000        8.70954        2.47710        2.39457      -50.34892
874.00000        8.70974        1.88038        1.88038      -50.96524
874.50000        8.70995        1.90260        2.01056      -51.45067
875.00000        8.71015        1.82227        2.00075      -51.56303
875.50000        8.71035        1.77611        1.99994      -51.42579
876.00000        8.71055        1.66231        1.74615      -51.03627
876.50000        8.71076        2.05625        1.76118      -50.48302
877.00000        8.71494        2.47430        1.91618      -49.92710
877.50000        8.71926        2.79159        2.18705      -49.74960
878.00000        8.72340        2.56084        2.19488      -51.08850
878.50000        8.72771        3.13110        2.21350      -50.46011
879.00000        8.73185        2.73590        2.32820      -50.00885
879.50000        8.73599        2.68867        2.30471      -49.87101
880.00000        8.74031        2.59838        2.04373      -49.87870
880.50000        8.74445        2.16216        1.73034      -50.59762
881.00000        8.74859        5.68928        8.15207      -51.31654
881.50000        8.75291       27.29893       29.61993      -52.18844
882.00000        8.75705       15.51459       15.91042      -53.16233
882.50000        8.76212        6.30303        8.21908      -52.53663
883.00000        8.76644        3.46074        3.58669      -49.98389
883.50000        8.81209        2.33541        1.86689      -47.74516
884.00000        8.85541        2.59837        2.08919      -48.44530
884.50000        8.84739        2.77892        2.31112      -50.16531
885.00000        8.83954        2.97746        2.50966      -50.31732
885.50000        8.78803        3.28396        2.70821      -50.71954
886.00000        8.73635        2.75466        2.58913      -52.64890
886.50000        8.68484        2.31376        2.28965      -54.71513
887.00000        8.64532        1.84659        1.99052      -55.86348
887.50000        8.65483        1.61583        1.69140      -57.01182
888.00000        8.66616        2.04576        1.94860      -57.78979
888.50000        8.67567        3.25187        2.92801      -59.61179
889.00000        8.68518        3.51627        3.00061      -61.37206
889.50000        8.69451        3.36108        2.91127      -63.03302
890.00000        8.69990        4.47723        2.82194      -64.88723
890.50000        8.70243        5.11371        2.94635      -66.74412
891.00000        8.70496        6.61970        3.92684      -66.93968
891.50000        8.70749        3.39958        3.61549      -65.61824
892.00000        8.71019        3.64323        2.74744      -64.95764
892.50000        8.71272        4.89432        3.08609      -66.02815
