~Version ---------------------------------------------------
VERS. 2.0 : CWLS LOG ASCII STANDARD - VERSION 2.0
WRAP. NO  : One line per depth step
DLM . SPACE : Column Data Section Delimiter
~Well ------------------------------------------------------
STRT.F          230 : START DEPTH
STOP.F       1777.5 : STOP DEPTH
STEP.F          0.5 : STEP
NULL.       -999.25 : NULL VALUE
COMP.         WALSH & WATTS, INCORPORATED : COMPANY
WELL.                         SALMON E 44 : WELL
FLD .                             REGULAR : FIELD
CNTY.                            MONTAGUE : COUNTY
STAT.                               TEXAS : STATE
CTRY.                                 USA : COUNTRY
SEC .                                     : SECTION
TWP .                                     : TOWNSHIP
RGE .                                     : RANGE
LOC . 300' WEST OF NO 23, 300' SOUTH OF D-9, F.ROBERTSON SURV. : LOCATION
EKB .F                      862 : ELEVATION KELLY BUSHING
EDF .F                          : ELEVATION DERRICK FLOOR
EGL .F                      856 : ELEVATION GROUND LEVEL
PDAT.                        GL : PERMANENT DATUM
EPD .                       856 : ELEVATION PERMANENT DATUM
APD .                         6 : ABOVE PERMANENT DATUM
LMF .                        KB : LOG MEASURED FROM
DMF .                        KB : DRILLING MEASURED FROM
API .            42337038720000 : API NUMBER
UWI .                           : UWI NUMBER
DIGC.                     NthDS : DIGITIZING COMPANY
~Params ----------------------------------------------------
SRVC.              SCHLUMBERGER : LOGGING COMPANY
LOG .                       IEL : LOG
DATE.                1965-11-28 : RUN DATE
RUN .                         1 : RUN NUMBER
TDD .F                     1779 : TOTAL DEPTH DRILLER
TDL .F                     1779 : TOTAL DEPTH LOGGER
BOTL.F                     1778 : BOTTOM LOGGED INTERVAL
TOPL.F                          : TOP LOGGED INTERVAL
CSGS.IN                         : CASING SIZE
CSGD.F                          : CASING DRILLER
CSGL.F                          : CASING LOGGER
BS  .IN                   7.875 : BIT SIZE
MUD .                       GEL : MUD TYPE
MUDD.                        10 : MUD DENSITY
MUDV.                       9.8 : MUD VISCOSITY
PH  .                           : MUD PH
FL  .                           : FLUID LOSS
MUDS.                CIRCULATED : SOURCE OF SAMPLE
RM  .OHMM                   2.0 : MUD RESISTIVITY
RMT .DEGF                    81 : RM TEMPERATURE
RMF .OHMM                   1.5 : MUD FILTRATE RESISTIVITY
RMFT.DEGF                    81 : RMF TEMPERATURE
RMC .OHMM                       : MUD CAKE RESISTIVITY
RMCT.DEGF                       : RMC TEMPERATURE
RMFS.                         M : RMF SOURCE
RMCS.                           : RMC SOURCE
RMBH.OHMM                   1.6 : MUD RESISTIVITY AT BHT
BHT .DEGF                   100 : BOTTOM HOLE TEMPERATURE
TIMC.                           : TIME CIRCULATION STOPPED
TIML.                           : TIME LOGGER ON BOTTOM
TMAX.DEGF                   100 : MAXIMUM RECORDED TEMPERATURE
UNIT.                      4559 : EQUIPMENT NUMBER
BASE.                       WFS : BASE LOCATION
ENG .                      FINK : RECORDED BY
WIT .                       NIX : WITNESSED BY
~Curve Information -----------------------------------------
DEPT.F          :DEPTH
CILD.MMHO       :
ILD.OHMM        :
SN.OHMM         :
SP.MV           :
~ASCII ------------------------------------------------------
# ...
1599.50000      278.53788        3.27753        4.15392      -35.70003
1600.00000      279.18668        3.28398        4.16958      -37.26003
1600.50000      283.74867        3.26332        4.15811      -39.24003
1601.00000      288.32067        3.24265        4.14665      -41.90103
1601.50000      296.67642        3.12799        4.13519      -45.23403
1602.00000      305.87302        2.98973        4.12372      -47.85003
1602.50000      320.90890        2.82413        4.02586      -49.52402
1603.00000      333.43881        2.73947        3.75307      -48.15003
1603.50000      344.29705        2.66801        3.52600      -46.77603
1604.00000      345.28549        2.59695        3.48894      -48.90002
1604.50000      343.80147        2.57748        3.57948      -51.78002
1605.00000      339.95510        2.63562        3.61721      -54.63002
1605.50000      335.52815        2.69376        3.57655      -55.52102
1606.00000      327.72785        2.75189        3.60909      -56.00102
1606.50000      319.92755        2.81123        3.75122      -56.40002
1607.00000      312.11724        2.87057        3.62576      -56.02502
1607.50000      306.56918        2.92990        3.60790      -54.60002
1608.00000      303.15674        2.98924        3.75283      -51.56102
1608.50000      304.60563        2.95778        3.83777      -48.37502
1609.00000      313.69211        2.92631        3.68311      -47.32503
1609.50000      322.78861        2.87285        3.52885      -47.70003
1610.00000      331.87509        2.78659        3.46658      -48.45002
1610.50000      341.71232        2.68299        3.46592      -51.06602
1611.00000      349.98800        2.59673        3.34512      -54.23402
1611.50000      351.25671        2.54087        3.22446      -56.22002
1612.00000      352.52543        2.53180        3.26780      -55.54202
1612.50000      353.79414        2.52234        3.48713      -55.43402
1613.00000      357.01829        2.51288        3.62567      -56.76602
1613.50000      359.70842        2.50341        3.44021      -55.32002
1614.00000      360.76692        2.50115        3.25515      -52.05002
1614.50000      355.31896        2.50049        3.27648      -49.89902
1615.00000      349.88101        2.51262        3.42382      -51.64502
1615.50000      344.18280        2.57516        3.56315      -53.95502
1616.00000      338.47458        2.63810        3.55169      -55.47002
1616.50000      332.77637        2.70063        3.44023      -53.82002
1617.00000      327.06815        2.76357        3.39037      -52.46102
1617.50000      321.67024        2.82611        3.24330      -52.36802
1618.00000      316.35241        2.88904        3.02024      -52.27502
1618.50000      311.03458        2.95158        3.17518      -52.47002
1619.00000      310.81530        3.00198        3.64131      -53.82002
1619.50000      314.33626        2.93892        3.96051      -54.75002
1620.00000      318.52788        2.87546        3.72385      -53.61302
1620.50000      323.76053        2.81239        3.46159      -52.37702
1621.00000      330.57475        2.75773        3.26493      -51.14102
1621.50000      337.38898        2.70347        3.33106      -50.70002
1622.00000      342.32133        2.64880        3.39720      -51.45002
1622.50000      346.01246        2.59454        3.37614      -51.18002
1623.00000      349.69357        2.53988        3.33347      -50.90102
1623.50000      348.93026        2.55242        3.29041      -51.39902
1624.00000      344.31662        2.58175        3.24775      -51.52502
1624.50000      339.91971        2.61109        3.31388      -51.39902
1625.00000      335.51278        2.64043        3.37962      -51.46802
1625.50000      331.11586        2.66576        3.44576      -51.42302
1626.00000      329.38159        2.69030        3.44509      -50.54102
1626.50000      328.30798        2.71444        3.34443      -49.65902
1627.00000      327.24438        2.74364        3.24377      -48.77702
1627.50000      326.17076        2.75978        3.25337      -47.82903
1628.00000      326.10815        2.74391        3.31591      -46.67103
1628.50000      330.08956        2.72765        3.37845      -46.29903
1629.00000      334.07097        2.71179        3.44098      -48.30003
1629.50000      338.05238        2.69552        3.39032      -50.60102
1630.00000      342.82807        2.67966        3.33966      -51.07502
1630.50000      342.78548        2.66380        3.28899      -50.19902
1631.00000      340.08025        2.64753        3.23833      -49.64102
1631.50000      337.82546        2.64367        3.32847      -50.34002
1632.00000      336.28138        2.65781        3.41900      -51.03902
1632.50000      334.73730        2.67194        3.33794      -51.36302
1633.00000      333.50353        2.68608        3.21408      -50.18702
1633.50000      333.52100        2.70022        3.13502      -48.77102
1634.00000      333.53847        2.71435        3.23435      -47.59203
1634.50000      335.90828        2.68049        3.33369      -46.41303
1635.00000      338.86867        2.64623        3.36102      -45.23703
1635.50000      342.42315        2.60543        3.28036      -45.30003
1636.00000      345.47363        2.57157        3.18357      -45.90003
1636.50000      348.56416        2.53771        3.21090      -47.40003
1637.00000      351.66469        2.51264        3.31024      -48.90002
1637.50000      351.35184        2.52518        3.28958      -48.96002
1638.00000      351.02897        2.53732        3.18891      -46.86003
1638.50000      350.71611        2.54945        3.19625      -45.96003
1639.00000      347.67054        2.56159        3.27559      -47.04003
1639.50000      344.63497        2.57413        3.29612      -46.88703
1640.00000      341.58940        2.58626        3.27706      -46.02903
1640.50000      338.71400        2.61240        3.25840      -45.17103
1641.00000      335.54179        2.63814        3.23933      -44.60103
1641.50000      332.89661        2.66427        3.24147      -44.10003
1642.00000      330.26145        2.69041        3.32641      -43.59903
1642.50000      327.61627        2.71615        3.41134      -43.20003
1643.00000      324.98111        2.74228        3.39388      -43.20003
1643.50000      322.86646        2.75122        3.22162      -44.53203
1644.00000      322.88393        2.76162        3.37095      -45.60003
1644.50000      322.90140        2.77056        3.55016      -45.60003
1645.00000      327.32325        2.77950        3.45949      -45.60003
1645.50000      331.74509        2.73603        3.34963      -45.60003
1646.00000      336.16694        2.69257        3.40377      -44.91303
1646.50000      341.47316        2.64911        3.45750      -43.76403
1647.00000      344.97409        2.60525        3.45684      -42.61803
1647.50000      344.78135        2.56178        3.40378      -41.88603
1648.00000      344.58862        2.54232        3.31552      -42.80703
1648.50000      344.39588        2.55806        3.22725      -43.73103
1649.00000      344.20314        2.57419        3.18859      -44.00103
1649.50000      342.54895        2.59033        3.22433      -43.83303
1650.00000      337.92505        2.63318        3.31318      -42.86703
1650.50000      334.07869        2.66052        3.47932      -41.95203
1651.00000      330.22231        2.69506        3.48265      -41.71503
1651.50000      326.37594        2.72959        3.48599      -41.47803
1652.00000      326.55357        2.75720        3.48893      -41.24103
1652.50000      326.73120        2.75654        3.49293      -40.80003
1653.00000      326.90883        2.75587        3.49627      -40.05003
1653.50000      327.09647        2.75521        3.49960      -39.30003
1654.00000      327.27410        2.75455        3.50294      -38.66403
1654.50000      327.45173        2.75388        3.50588      -38.03103
1655.00000      327.82956        2.75322        3.50921      -37.39503
1655.50000      328.26744        2.75256        3.51255      -36.76203
