~Version ---------------------------------------------------
VERS. 2.0 : CWLS LOG ASCII STANDARD - VERSION 2.0
WRAP. NO  : One line per depth step
DLM . SPACE : Column Data Section Delimiter
~Well ------------------------------------------------------
STRT.F          800 : START DEPTH
STOP.F       1756.5 : STOP DEPTH
STEP.F          0.5 : STEP
NULL.       -999.25 : NULL VALUE
COMP.                 WALSH & WATTS, INC. : COMPANY
WELL.                       SALMON D E 6D : WELL
FLD .                             REGULAR : FIELD
CNTY.                            MONTAGUE : COUNTY
STAT.                               TEXAS : STATE
CTRY.                                 USA : COUNTRY
SEC .                                     : SECTION
TWP .                                     : TOWNSHIP
RGE .                                     : RANGE
LOC .  460 FSL 755 FEL
F. ROBERTSON A-620 : LOCATION
EKB .F                      880 : ELEVATION KELLY BUSHING
EDF .F                      878 : ELEVATION DERRICK FLOOR
EGL .F                      874 : ELEVATION GROUND LEVEL
PDAT.                        GL : PERMANENT DATUM
EPD .                       874 : ELEVATION PERMANENT DATUM
APD .                           : ABOVE PERMANENT DATUM
LMF .                        KB : LOG MEASURED FROM
DMF .                        KB : DRILLING MEASURED FROM
API .            42337016430000 : API NUMBER
UWI .            42337016430000 : UWI NUMBER
DIGC.                     NthDS : DIGITIZING COMPANY
~Params ----------------------------------------------------
SRVC.              SCHLUMBERGER : LOGGING COMPANY
LOG .                   CNFD/ML : LOG
DATE.                2005-08-03 : RUN DATE
RUN .                         1 : RUN NUMBER
TDD .F                     1750 : TOTAL DEPTH DRILLER
TDL .F                     1750 : TOTAL DEPTH LOGGER
BOTL.F                     1750 : BOTTOM LOGGED INTERVAL
TOPL.F                      980 : TOP LOGGED INTERVAL
CSGS.IN                       7 : CASING SIZE
CSGD.F                      880 : CASING DRILLER
CSGL.F                      880 : CASING LOGGER
BS  .IN                     6.5 : BIT SIZE
MUD .                       FGM : MUD TYPE
MUDD.                       0.2 : MUD DENSITY
MUDV.                        80 : MUD VISCOSITY
PH  .                        11 : MUD PH
FL  .                         7 : FLUID LOSS
MUDS.                       PIT : SOURCE OF SAMPLE
RM  .OHMM                  1.70 : MUD RESISTIVITY
RMT .DEGF                    70 : RM TEMPERATURE
RMF .OHMM                  1.33 : MUD FILTRATE RESISTIVITY
RMFT.DEGF                    70 : RMF TEMPERATURE
RMC .OHMM                  2.67 : MUD CAKE RESISTIVITY
RMCT.DEGF                    70 : RMC TEMPERATURE
RMFS.                      MEAS : RMF SOURCE
RMCS.                       CAL : RMC SOURCE
RMBH.OHMM                  1.47 : MUD RESISTIVITY AT BHT
BHT .DEGF                    98 : BOTTOM HOLE TEMPERATURE
TIMC.                     2100  : TIME CIRCULATION STOPPED
TIML.                     0300  : TIME LOGGER ON BOTTOM
TMAX.DEGF                    98 : MAXIMUM RECORDED TEMPERATURE
UNIT.                       303 : EQUIPMENT NUMBER
BASE.                   WICHITA : BASE LOCATION
ENG .              DAVID PARKER : RECORDED BY
WIT .              MR. BURLESON : WITNESSED BY
~Curve Information -----------------------------------------
DEPT.F          :DEPTH
CALD.IN         :
DPHI.%          :
GRD.GAPI        :
MINV.OHMM       :
MNOR.OHMM       :
NPHI.%          :
~ASCII ------------------------------------------------------
# ...
1520.00000        5.84137       12.95855       93.74998        5.68226        5.27659       22.34636
1520.50000        5.83916       12.39300       96.34171        5.76028        5.38815       22.31071
1521.00000        5.83695       12.30400       97.07659        5.83829        5.52702       22.26715
1521.50000        5.83474       12.61523       93.44756        5.93347        5.66666       22.21805
1522.00000        5.83253       12.70696       89.81853        6.09808        5.66666       22.56678
1522.50000        5.83032       12.85328       91.11590        6.26191        5.66666       22.94322
1523.00000        5.82811       12.69546       92.23788        6.42652        5.66666       23.21674
1523.50000        5.81988       12.65629       94.45461        6.61609        5.79148       23.25948
1524.00000        5.80723       12.19515       97.64816        6.84311        6.10354       23.18781
1524.50000        5.83916       12.34067       97.37901        7.07092        6.10900       23.16048
1525.00000        5.87108       12.71201       94.05240        6.94063        5.83361       23.37858
1525.50000        5.90301       12.85555       92.37094        6.83687        6.36879       23.70079
1526.00000        5.93494       12.52254       92.70965        6.83687        6.22914       23.73363
1526.50000        5.96385       12.31569       92.51308        6.66368        6.09028       23.51510
1527.00000        5.99056       12.83692       91.96268        6.44680        5.95453       23.25145
1527.50000        6.01747       13.14182       90.06046        6.54432        5.83439       23.52892
1528.00000        6.01948       12.73881       86.12901        6.52482        5.71503       23.63935
1528.50000        6.00522       12.07478       83.26510        6.32978        5.68929       23.69713
1529.00000        5.99076       12.28081       82.50905        6.17843        5.72673       23.54511
1529.50000        5.99799       12.96023       83.77014        6.09106        5.76496       23.39348
1530.00000        6.01064       13.59061       82.71167        6.19014        5.80241       22.85787
1530.50000        6.02309       13.17573       84.67740        6.34929        5.84063       22.12830
1531.00000        6.00904       12.81227       85.68445        6.25177        5.87808       21.49057
1531.50000        5.97731       12.97875       86.49191        6.32978        5.87262       20.95417
1532.00000        5.94558       13.54427       86.27720        6.33524        5.80163       20.48428
1532.50000        5.91406       13.83810       86.18949        6.05673        5.76808       20.10385
1533.00000        5.88233       13.71430       87.09675        6.23382        5.88510       20.17826
1533.50000        5.84418       12.64135       88.50905        6.41170        5.96155       20.24395
1534.00000        5.81245       12.01568       90.78627        6.29077        5.87730       20.30371
1534.50000        5.78875       12.07143       90.49897        6.15269        5.79226       20.58039
1535.00000        5.79639       12.60175       88.42135        6.24241        5.70723       21.00117
1535.50000        5.80422       13.15976       88.00401        6.33290        5.62219       21.41719
1536.00000        5.81185       13.35392       88.60885        6.34538        5.60971       21.91239
1536.50000        5.81968       13.35430       91.63304        6.30638        5.64560       22.15028
1537.00000        5.82731       13.47055       93.41429        6.38049        5.68226       22.11780
1537.50000        5.84398       13.52551       93.33566        6.53106        5.72127       22.34897
1538.00000        5.86084       13.14188       93.25703        6.67226        5.80319       22.64624
1538.50000        5.87028       12.33825       93.17840        6.62858        5.90070       22.94351
1539.00000        5.87510       12.14722       94.50602        6.53340        5.77042       22.86471
1539.50000        5.87992       12.11477       92.36792        6.36021        5.64092       22.78592
1540.00000        5.88474       12.21402       86.96671        6.52482        6.05673       22.11811
1540.50000        5.88092       12.70875       83.16530        7.22694        6.65510       21.73372
1541.00000        5.88755       13.77692       79.76309        8.04609        7.13177       21.71826
1541.50000        5.87651       14.17278       77.72175        8.16311        6.78148       19.81855
1542.00000        5.86747       13.73814       79.53627        6.23850        6.22368       17.83967
1542.50000        5.84739       13.92637       80.79736        6.29077        5.66666       17.40461
1543.00000        5.82731       14.05528       79.11288        6.38439        5.61361       17.27357
1543.50000        5.80723       14.16125       78.62901        6.23850        5.56056       17.40894
1544.00000        5.78715       13.43632       85.20663        6.21276        5.50673       17.54430
1544.50000        5.76707       12.70625       90.87699        6.60283        5.45368       17.67967
1545.00000        5.78032       12.06951       94.82961        6.21276        5.48489       17.81503
1545.50000        5.79357       12.00068       96.97679        6.35865        5.57148       18.41236
1546.00000        5.80663       12.19880       95.41328        6.29077        5.87496       19.87462
1546.50000        5.81988       12.20709       92.23788        6.05673        6.23226       22.03912
1547.00000        5.83313       12.39730       91.33062        5.82269        6.62546       22.08899
1547.50000        5.84639       12.70418       89.38607        5.58865        7.07092       22.13885
1548.00000        5.85964       13.50540       86.57962        5.72205        6.49907       21.96109
1548.50000        5.87028       14.81640       85.49695        6.00134        5.78914       21.63173
1549.00000        5.87751       15.12763       86.08970        5.97872        5.62219       21.36808
1549.50000        5.88755       15.09835       85.85683        5.88120        5.45524       21.40131
1550.00000        5.87410       14.24706       84.79837        5.78368        5.39907       21.04530
1550.50000        5.79076       13.53356       84.67740        5.86950        5.53326       21.32304
1551.00000        5.74518       13.51530       85.31550        6.52482        5.64404       21.60078
1551.50000        5.69960       13.71398       83.97276        6.54042        5.29219       21.60116
1552.00000        5.65381       14.14943       81.90421        6.01772        5.36865       21.60154
1552.50000        5.62229       14.56624       78.75603        6.21276        5.58163       21.60192
1553.00000        5.61205       14.88192       75.60482        6.08248        5.72049       21.57575
1553.50000        5.60161       14.65981       72.07559        6.16049        5.81099       21.40464
1554.00000        5.59116       13.98041       67.62095        6.42340        5.90070       21.59323
1554.50000        5.58072       14.31116       59.57660        6.77446        6.33992       21.54170
1555.00000        5.57048       14.72678       50.80644        7.46099        6.71985       21.36616
1555.50000        5.56084       15.16342       40.22176        8.59219        7.01241       20.57409
1556.00000        5.55161       15.29079       34.77822       10.05496        7.30496       19.59698
1556.50000        5.54257       14.48211       29.33467       10.73758        7.54524       18.25416
1557.00000        5.53333       12.07910       23.89112       11.22517        7.57489       16.37524
1557.50000        5.52430        8.15306       15.03326       11.76503        7.60531       13.54934
1558.00000        5.51506        6.35129        9.56250       12.38212        7.75354       10.31375
1558.50000        5.50602        5.33797        6.35080       12.99999        7.98134        7.82575
1559.00000        5.48715        5.49699        5.07157       12.72148        8.13503        5.85689
1559.50000        5.46827        4.65301        3.79234       12.44297        7.99616        4.63135
