~Version ---------------------------------------------------
VERS. 2.0 : CWLS LOG ASCII STANDARD - VERSION 2.0
WRAP. NO  : One line per depth step
DLM . SPACE : Column Data Section Delimiter
~Well ------------------------------------------------------
STRT.F          780 : START DEPTH
STOP.F       1761.5 : STOP DEPTH
STEP.F          0.5 : STEP
NULL.       -999.25 : NULL VALUE
COMP.                 WALSH & WATTS, INC. : COMPANY
WELL.                         SALMON E 42 : WELL
FLD .                        NORTH NOCONA : FIELD
CNTY.                            MONTAGUE : COUNTY
STAT.                               TEXAS : STATE
CTRY.                                 USA : COUNTRY
SEC .                                     : SECTION
TWP .                                     : TOWNSHIP
RGE .                                     : RANGE
LOC . 150' FSL & 300' W OF WELL NO. 1, 407' E OF WELL NO. 5, F. ROBERTSON SURVEY : LOCATION
EKB .F                      880 : ELEVATION KELLY BUSHING
EDF .F                          : ELEVATION DERRICK FLOOR
EGL .F                      874 : ELEVATION GROUND LEVEL
PDAT.              GROUND LEVEL : PERMANENT DATUM
EPD .                       874 : ELEVATION PERMANENT DATUM
APD .                         6 : ABOVE PERMANENT DATUM
LMF .                        KB : LOG MEASURED FROM
DMF .                        KB : DRILLING MEASURED FROM
API .            42337037780000 : API NUMBER
UWI .            42337037780000 : UWI NUMBER
DIGC.                     NthDS : DIGITIZING COMPANY
~Params ----------------------------------------------------
SRVC.                LANE WELLS : LOGGING COMPANY
LOG .                        AC : LOG
DATE.                1965-11-21 : RUN DATE
RUN .                         1 : RUN NUMBER
TDD .F                     1766 : TOTAL DEPTH DRILLER
TDL .F                     1768 : TOTAL DEPTH LOGGER
BOTL.F                     1762 : BOTTOM LOGGED INTERVAL
TOPL.F                      790 : TOP LOGGED INTERVAL
CSGS.IN                         : CASING SIZE
CSGD.F                          : CASING DRILLER
CSGL.F                          : CASING LOGGER
BS  .IN                   7.875 : BIT SIZE
MUD .              CHEMICAL GEL : MUD TYPE
MUDD.                       9.8 : MUD DENSITY
MUDV.                       123 : MUD VISCOSITY
PH  .                           : MUD PH
FL  .                           : FLUID LOSS
MUDS.                CIRCULATED : SOURCE OF SAMPLE
RM  .OHMM                   2.1 : MUD RESISTIVITY
RMT .DEGF                    70 : RM TEMPERATURE
RMF .OHMM                  1.81 : MUD FILTRATE RESISTIVITY
RMFT.DEGF                    70 : RMF TEMPERATURE
RMC .OHMM                  2.34 : MUD CAKE RESISTIVITY
RMCT.DEGF                    70 : RMC TEMPERATURE
RMFS.                  MEASURED : RMF SOURCE
RMCS.                           : RMC SOURCE
RMBH.OHMM                   1.5 : MUD RESISTIVITY AT BHT
BHT .DEGF                    98 : BOTTOM HOLE TEMPERATURE
TIMC.                           : TIME CIRCULATION STOPPED
TIML.                           : TIME LOGGER ON BOTTOM
TMAX.DEGF                    98 : MAXIMUM RECORDED TEMPERATURE
UNIT.                    L-4553 : EQUIPMENT NUMBER
BASE.                      W.F. : BASE LOCATION
ENG .                     ADAMS : RECORDED BY
WIT .   MR. HARRELSON & MR. NIX : WITNESSED BY
~Curve Information -----------------------------------------
DEPT.F          :DEPTH
CALI.IN         :
DT.US/F         :
SP.MV           :
~ASCII ------------------------------------------------------
# ...
853.00000        8.09683      110.95622      -58.21784
853.50000        8.27129      103.99283      -60.59408
854.00000        7.99802      101.95478      -62.37626
854.50000        7.81307      103.20029      -62.07923
855.00000        7.69188      101.11248      -61.48517
855.50000        7.72891       99.02468      -60.29705
856.00000        7.87129      101.19755      -57.62378
856.50000        8.01366      103.80459      -56.13864
857.00000        8.06931      106.29387      -54.35646
857.50000        7.99505      110.64882      -53.46537
858.00000        8.13426      110.32717      -52.87131
858.50000        8.23485      102.99065      -51.98022
859.00000        8.12158      109.04344      -50.79210
859.50000        8.12535      113.96455      -49.30696
860.00000        8.15842      107.67578      -48.41587
860.50000        8.19148      100.15915      -47.22775
861.00000        8.19802      100.13900      -46.63369
861.50000        8.20653      107.37785      -48.11884
862.00000        8.22356      113.62035      -51.68319
862.50000        8.23762      106.87088      -54.35646
863.00000        8.13406       95.56921      -55.84161
863.50000        8.03069      100.50226      -58.21784
864.00000        7.92713      101.28110      -59.10893
864.50000        7.82356      102.21651      -59.10893
865.00000        7.79069      103.73565      -58.21784
865.50000        7.80772      111.10053      -57.02973
866.00000        7.82178      121.35131      -55.84161
866.50000        8.10356      124.03959      -54.65349
867.00000        8.38535      109.61356      -53.16834
867.50000        8.48515      111.49389      -51.98022
868.00000        8.31188      123.12973      -52.27725
868.50000        8.36871      125.48270      -52.87131
869.00000        8.48277      119.72726      -54.05943
869.50000        8.44554      119.17477      -54.35646
870.00000        8.40257      114.58250      -53.76240
870.50000        8.54574      105.04898      -52.57428
871.00000        8.34535      108.33427      -51.98022
871.50000        8.05941      123.06263      -52.27725
872.00000        8.24337      123.16387      -52.87131
872.50000        8.42713      111.10598      -52.87131
873.00000        8.54950       91.42625      -52.27725
873.50000        8.40099       93.61703      -51.08913
874.00000        8.13861      103.49831      -50.49507
874.50000        8.03822      115.25255      -50.19804
875.00000        8.13069      113.26724      -50.79210
875.50000        8.22317      100.68895      -51.98022
876.00000        8.25743       95.29271      -53.46537
876.50000        8.05941       95.18699      -54.95052
877.00000        7.92079       99.67427      -56.43567
877.50000        7.83723      107.54994      -57.02973
878.00000        7.71624      114.11183      -59.70299
878.50000        7.67822      108.40117      -61.48517
879.00000        7.76475       96.82089      -64.75250
879.50000        7.85148       96.97785      -67.72279
880.00000        7.87267      102.81671      -69.20794
880.50000        7.63228      102.69705      -68.61388
881.00000        7.58416      101.78636      -66.83170
881.50000        7.68317      102.70053      -65.94061
882.00000        7.84812      102.40376      -67.72279
882.50000        7.84515      102.02176      -70.69309
883.00000        7.80020       99.87028      -71.88121
883.50000        7.75525      101.61330      -73.66338
884.00000        7.71010      100.65285      -73.66338
884.50000        7.66515       97.33854      -72.17824
885.00000        7.61109       99.05634      -68.91091
885.50000        7.56614      101.63253      -68.31685
886.00000        7.52119      103.78053      -65.64358
886.50000        7.50495      108.19119      -62.07923
887.00000        7.60396      113.76538      -58.21784
887.50000        7.77386      103.93633      -55.84161
888.00000        7.96139       94.46514      -56.73270
888.50000        8.18653       97.00487      -60.89111
889.00000        8.29584      101.18534      -64.45547
889.50000        8.09148      103.66467      -66.83170
890.00000        7.88733      101.99080      -67.12873
890.50000        7.68317       99.44927      -65.94061
891.00000        7.73505      102.73491      -65.94061
891.50000        7.78693      102.63715      -66.53467
892.00000        7.83881       99.39512      -69.50497
892.50000        7.90099       99.23069      -73.66338
893.00000        7.81842      101.67420      -77.52477
893.50000        7.73604      102.29618      -80.49507
894.00000        7.65346       99.88202      -82.57427
894.50000        7.60733       95.95940      -83.16833
895.00000        7.61564       85.63483      -82.27724
895.50000        7.62396       75.16897      -80.79210
896.00000        7.63406       74.39459      -79.60398
896.50000        7.64238       78.87391      -79.90101
897.00000        7.65069       78.94630      -81.98021
897.50000        7.65901       80.63956      -83.76239
898.00000        7.66733       83.85456      -86.73269
898.50000        7.67584       86.34385      -88.51487
899.00000        7.68416       88.71373      -90.89110
899.50000        7.69247       88.73571      -92.37625
900.00000        7.70079       84.31144      -94.15843
900.50000        7.72174       77.71287      -94.68007
901.00000        7.72968       75.68213      -94.68523
901.50000        7.73781       76.96346      -94.39454
902.00000        7.74726       77.16420      -93.80799
902.50000        7.74810       79.36891      -93.51730
903.00000        7.72034       78.29901      -93.22661
903.50000        7.69258       74.42913      -92.93592
904.00000        7.66502       70.06373      -92.34937
904.50000        7.64041       72.40376      -92.05971
905.00000        7.61817       74.91329      -91.76902
905.50000        7.68667       75.76080      -91.77418
906.00000        7.77804       77.03616      -92.07520
906.50000        7.86921       80.02295      -92.37622
907.00000        7.81759       83.28337      -93.26895
907.50000        7.76596       87.41478      -94.16168
908.00000        7.71433       90.43640      -95.05441
908.50000        7.65238       90.76749      -95.35543
909.00000        7.61555       88.01004      -95.06474
909.50000        7.63789       85.43965      -94.18234
910.00000        7.66042       83.61752      -92.41236
910.50000        7.66185       80.80037      -90.34654
911.00000        7.64908       82.37060      -87.69003
911.50000        7.63651       86.50863      -85.92005
912.00000        7.64267       85.92331      -83.85422
912.50000        7.67704       81.29821      -84.45110
913.00000        7.71161       80.55766      -87.11897
913.50000        7.74598       82.40715      -90.08269
914.00000        7.73065       84.25763      -92.75056
914.50000        7.71228       82.76320      -93.93915
915.00000        7.69715       80.57590      -93.64846
915.50000        7.68181       77.90303      -93.06191
916.00000        7.66648       75.46000      -91.29194
916.50000        7.65114       78.92042      -89.22611
917.00000        7.67723       83.84153      -83.90586
917.50000        7.73053       93.09729      -77.99390
918.00000        7.73630      115.20272      -72.08194
918.50000        7.67008      125.72379      -65.87413
919.00000        7.60406      125.77926      -61.73834
919.50000        7.70884      128.40819      -60.85594
920.00000        7.97161      130.59897      -60.56524
920.50000        7.87699      131.14697      -60.57041
921.00000        7.86336      129.22932      -59.39215
921.50000        7.74033      130.39224      -57.62217
922.00000        7.77431      127.80693      -54.66878
922.50000        7.96252      124.28431      -52.30709
923.00000        8.15094      121.83532      -49.94541
923.50000        8.33915      120.99427      -48.76714
924.00000        8.52756      119.98641      -48.47645
924.50000        8.36706      117.68767      -48.18576
925.00000        8.28447      118.19885      -47.89507
925.50000        8.31943      122.92693      -46.71681
