~Version ---------------------------------------------------
VERS. 2.0 : CWLS LOG ASCII STANDARD - VERSION 2.0
WRAP. NO  : One line per depth step
DLM . SPACE : Column Data Section Delimiter
~Well ------------------------------------------------------
STRT.F          194 : START DEPTH
STOP.F       1764.0 : STOP DEPTH
STEP.F          0.5 : STEP
NULL.       -999.25 : NULL VALUE
COMP.                 WALSH & WATTS, INC. : COMPANY
WELL.                         SALMON E 42 : WELL
FLD .                        NORTH NOCONA : FIELD
CNTY.                            MONTAGUE : COUNTY
STAT.                               TEXAS : STATE
CTRY.                                 USA : COUNTRY
SEC .                                     : SECTION
TWP .                                     : TOWNSHIP
RGE .                                     : RANGE
LOC . 150' FSL & 300' W OF WELL NO. 1, 407' E OF WELL NO. 5, F. ROBERTSON SURVEY : LOCATION
EKB .F                      880 : ELEVATION KELLY BUSHING
EDF .F                          : ELEVATION DERRICK FLOOR
EGL .F                      874 : ELEVATION GROUND LEVEL
PDAT.              GROUND LEVEL : PERMANENT DATUM
EPD .                       874 : ELEVATION PERMANENT DATUM
APD .                         6 : ABOVE PERMANENT DATUM
LMF .                        KB : LOG MEASURED FROM
DMF .                        KB : DRILLING MEASURED FROM
API .            42337037780000 : API NUMBER
UWI .            42337037780000 : UWI NUMBER
DIGC.                     NthDS : DIGITIZING COMPANY
~Params ----------------------------------------------------
SRVC.                LANE WELLS : LOGGING COMPANY
LOG .                       IEL : LOG
DATE.                1965-11-21 : RUN DATE
RUN .                         1 : RUN NUMBER
TDD .F                     1766 : TOTAL DEPTH DRILLER
TDL .F                     1768 : TOTAL DEPTH LOGGER
BOTL.F                     1764 : BOTTOM LOGGED INTERVAL
TOPL.F                      200 : TOP LOGGED INTERVAL
CSGS.IN                         : CASING SIZE
CSGD.F                          : CASING DRILLER
CSGL.F                          : CASING LOGGER
BS  .IN                   7.875 : BIT SIZE
MUD .              CHEMICAL GEL : MUD TYPE
MUDD.                       9.8 : MUD DENSITY
MUDV.                       123 : MUD VISCOSITY
PH  .                           : MUD PH
FL  .                           : FLUID LOSS
MUDS.                CIRCULATED : SOURCE OF SAMPLE
RM  .OHMM                   2.1 : MUD RESISTIVITY
RMT .DEGF                    70 : RM TEMPERATURE
RMF .OHMM                  1.81 : MUD FILTRATE RESISTIVITY
RMFT.DEGF                    70 : RMF TEMPERATURE
RMC .OHMM                  2.34 : MUD CAKE RESISTIVITY
RMCT.DEGF                    70 : RMC TEMPERATURE
RMFS.                  MEASURED : RMF SOURCE
RMCS.                           : RMC SOURCE
RMBH.OHMM                   1.5 : MUD RESISTIVITY AT BHT
BHT .DEGF                    98 : BOTTOM HOLE TEMPERATURE
TIMC.                           : TIME CIRCULATION STOPPED
TIML.                           : TIME LOGGER ON BOTTOM
TMAX.DEGF                    98 : MAXIMUM RECORDED TEMPERATURE
UNIT.                    L-4553 : EQUIPMENT NUMBER
BASE.                      W.F. : BASE LOCATION
ENG .                     ADAMS : RECORDED BY
WIT .   MR. HARRELSON & MR. NIX : WITNESSED BY
~Curve Information -----------------------------------------
DEPT.F          :DEPTH
CILD.MMHO       :
ILD.OHMM        :
ROP.MIN/FT      :
SN.OHMM         :
SP.MV           :
~ASCII ------------------------------------------------------
# ...
811.50000      327.03786        3.03747        -999.25        4.33925      -53.82797
812.00000      320.07961        3.11637        -999.25        4.45759      -55.89788
812.50000      318.09153        3.11637        -999.25        4.53649      -60.04288
813.00000      319.08557        3.11637        -999.25        4.53649      -63.89144
813.50000      319.08557        3.11637        -999.25        4.45759      -65.96135
814.00000      321.07364        3.07692        -999.25        4.41814      -65.95617
814.50000      324.05575        3.07692        -999.25        4.45759      -63.28303
815.00000      328.03189        3.03747        -999.25        4.37870      -58.83021
815.50000      333.99611        2.99803        -999.25        4.18146      -57.04639
816.00000      336.97821        2.91913        -999.25        4.22091      -56.15190
816.50000      333.00207        2.99803        -999.25        4.29980      -56.73960
817.00000      328.03189        3.03747        -999.25        4.33925      -59.40240
817.50000      319.28438        3.07692        -999.25        4.41814      -60.58195
818.00000      312.32613        3.15582        -999.25        4.41814      -59.68746
818.50000      305.36788        3.27416        -999.25        4.49704      -57.90364
819.00000      303.37981        3.23471        -999.25        4.45759      -57.30558
819.50000      309.94044        3.19527        -999.25        4.41814      -57.30041
820.00000      320.64621        3.07692        -999.25        4.29980      -57.29523
820.50000      333.00207        2.95858        -999.25        4.14201      -56.39970
821.00000      340.95435        2.87968        -999.25        4.10256      -54.91232
821.50000      350.89471        2.80079        -999.25        4.10256      -54.61071
822.00000      360.83507        2.80079        -999.25        4.10256      -55.79130
822.50000      371.76946        2.64300        -999.25        3.94477      -56.67545
823.00000      380.71578        2.64300        -999.25        3.78698      -56.37383
823.50000      382.70385        2.60355        -999.25        3.74753      -55.77474
824.00000      377.73367        2.64300        -999.25        3.70809      -54.58381
824.50000      370.77542        2.68245        -999.25        3.78698      -53.98575
825.00000      363.81718        2.76134        -999.25        3.82643      -53.38769
825.50000      357.85296        2.80079        -999.25        3.82643      -53.67896
826.00000      351.88875        2.84024        -999.25        3.90532      -53.67379
826.50000      346.91857        2.87968        -999.25        3.90532      -51.59249
827.00000      340.95435        2.91913        -999.25        3.98422      -50.99444
827.50000      335.98418        2.95858        -999.25        4.06312      -50.39638
828.00000      332.00803        2.99803        -999.25        4.10256      -50.68765
828.50000      330.01996        2.99803        -999.25        4.10256      -51.57180
829.00000      332.00803        2.95858        -999.25        4.10256      -54.53103
829.50000      335.98418        2.95858        -999.25        4.10256      -57.48923
830.00000      340.95435        2.91913        -999.25        4.10256      -58.37338
830.50000      346.91857        2.87968        -999.25        4.10256      -59.55397
831.00000      350.89471        2.84024        -999.25        4.06312      -61.92032
831.50000      355.86489        2.80079        -999.25        4.02367      -64.28667
832.00000      357.85296        2.76134        -999.25        3.98422      -64.57794
832.50000      361.82910        2.76134        -999.25        3.94477      -64.27529
833.00000      363.81718        2.72189        -999.25        3.90532      -63.97368
833.50000      365.80525        2.72189        -999.25        3.86588      -62.78274
834.00000      365.80525        2.72189        -999.25        3.86588      -59.81316
834.50000      365.80525        2.72189        -999.25        3.78698      -57.43646
835.00000      365.80525        2.68245        -999.25        3.74753      -57.13484
835.50000      366.79928        2.72189        -999.25        3.74753      -57.42508
836.00000      368.78735        2.68245        -999.25        3.82643      -55.93770
836.50000      369.78139        2.68245        -999.25        3.78698      -53.26456
837.00000      370.77542        2.68245        -999.25        3.70809      -51.77718
837.50000      369.78139        2.68245        -999.25        3.66864      -50.88268
838.00000      365.80525        2.72189        -999.25        3.70809      -49.39427
838.50000      357.85296        2.80079        -999.25        3.82643      -50.57486
839.00000      353.87682        2.80079        -999.25        3.90532      -51.16257
839.50000      349.90068        2.84024        -999.25        3.94477      -51.45383
840.00000      344.93050        2.87968        -999.25        4.02367      -51.44866
840.50000      342.94243        2.87968        -999.25        4.06312      -52.03637
841.00000      340.95435        2.87968        -999.25        4.06312      -52.91948
841.50000      340.95435        2.87968        -999.25        4.02367      -53.80363
842.00000      344.93050        2.87968        -999.25        3.94477      -53.79846
842.50000      349.90068        2.84024        -999.25        3.90532      -52.31108
843.00000      352.88278        2.80079        -999.25        3.82643      -49.93438
843.50000      353.87682        2.80079        -999.25        3.82643      -47.85412
844.00000      352.88278        2.80079        -999.25        3.82643      -49.33011
844.50000      351.88875        2.84024        -999.25        3.86588      -51.69647
845.00000      349.90068        2.84024        -999.25        3.90532      -53.76638
845.50000      349.90068        2.84024        -999.25        3.94477      -55.24341
846.00000      349.90068        2.87968        -999.25        3.94477      -55.83112
846.50000      353.87682        2.80079        -999.25        3.86588      -55.82594
847.00000      358.84700        2.72189        -999.25        3.82643      -54.63397
847.50000      362.82314        2.72189        -999.25        3.78698      -53.73947
848.00000      367.79332        2.68245        -999.25        3.74753      -54.92006
848.50000      372.76350        2.68245        -999.25        3.74753      -59.95438
849.00000      375.74560        2.60355        -999.25        3.70809      -64.09938
849.50000      378.72771        2.60355        -999.25        3.66864      -65.27997
850.00000      381.70982        2.60355        -999.25        3.62919      -65.68049
850.50000      382.70385        2.56410        -999.25        3.58974      -65.68049
851.00000      382.70385        2.52465        -999.25        3.58974      -67.15978
851.50000      383.69789        2.56410        -999.25        3.58974      -68.34322
852.00000      386.68000        2.48521        -999.25        3.55029      -67.75150
852.50000      392.64421        2.52465        -999.25        3.43195      -65.38464
853.00000      397.61439        2.48521        -999.25        3.39250      -61.53848
853.50000      402.58457        2.44576        -999.25        3.35306      -58.28405
854.00000      406.56071        2.44576        -999.25        3.39250      -58.28405
854.50000      407.55474        2.44576        -999.25        3.47140      -62.42606
855.00000      406.56071        2.44576        -999.25        3.55029      -64.49706
855.50000      403.57860        2.44576        -999.25        3.55029      -65.38464
856.00000      398.60842        2.44576        -999.25        3.55029      -64.49706
856.50000      392.64421        2.52465        -999.25        3.55029      -62.42606
857.00000      387.67403        2.48521        -999.25        3.51085      -60.05919
857.50000      382.70385        2.56410        -999.25        3.51085      -57.39647
858.00000      377.73367        2.56410        -999.25        3.51085      -55.62132
858.50000      371.76946        2.64300        -999.25        3.58974      -52.95860
