~Version ---------------------------------------------------
VERS. 2.0 : CWLS LOG ASCII STANDARD - VERSION 2.0
WRAP. NO  : One line per depth step
DLM . SPACE : Column Data Section Delimiter
~Well ------------------------------------------------------
STRT.F          866 : START DEPTH
STOP.F       1785.0 : STOP DEPTH
STEP.F          0.5 : STEP
NULL.       -999.25 : NULL VALUE
COMP.                 WALSH & WATTS, INC, : COMPANY
WELL.                         SALMON E 41 : WELL
FLD .                        NORTH NOCONA : FIELD
CNTY.                            MONTAGUE : COUNTY
STAT.                               TEXAS : STATE
CTRY.                                 USA : COUNTRY
SEC .                                     : SECTION
TWP .                                     : TOWNSHIP
RGE .                                     : RANGE
LOC . 300' N OF NO. 40
150' W OF EL & 385' E OF NO. 87
F. ROBERTSON SURVEY : LOCATION
EKB .F                          : ELEVATION KELLY BUSHING
EDF .F                          : ELEVATION DERRICK FLOOR
EGL .F                      878 : ELEVATION GROUND LEVEL
PDAT.              GROUND LEVEL : PERMANENT DATUM
EPD .                       878 : ELEVATION PERMANENT DATUM
APD .                           : ABOVE PERMANENT DATUM
LMF .                        KB : LOG MEASURED FROM
DMF .                        KB : DRILLING MEASURED FROM
API .            42337037790000 : API NUMBER
UWI .            42337037790000 : UWI NUMBER
DIGC.                     NthDS : DIGITIZING COMPANY
~Params ----------------------------------------------------
SRVC.                LANE WELLS : LOGGING COMPANY
LOG .                        AC : LOG
DATE.                1965-12-01 : RUN DATE
RUN .                         1 : RUN NUMBER
TDD .F                     1790 : TOTAL DEPTH DRILLER
TDL .F                     1791 : TOTAL DEPTH LOGGER
BOTL.F                     1784 : BOTTOM LOGGED INTERVAL
TOPL.F                      880 : TOP LOGGED INTERVAL
CSGS.IN                         : CASING SIZE
CSGD.F                          : CASING DRILLER
CSGL.F                          : CASING LOGGER
BS  .IN                       9 : BIT SIZE
MUD .                       GEL : MUD TYPE
MUDD.                        10 : MUD DENSITY
MUDV.                        80 : MUD VISCOSITY
PH  .                       9.0 : MUD PH
FL  .                       6.8 : FLUID LOSS
MUDS.                       PIT : SOURCE OF SAMPLE
RM  .OHMM                  1.95 : MUD RESISTIVITY
RMT .DEGF                    74 : RM TEMPERATURE
RMF .OHMM                   1.5 : MUD FILTRATE RESISTIVITY
RMFT.DEGF                    74 : RMF TEMPERATURE
RMC .OHMM                   2.3 : MUD CAKE RESISTIVITY
RMCT.DEGF                    74 : RMC TEMPERATURE
RMFS.                  MEASURED : RMF SOURCE
RMCS.                           : RMC SOURCE
RMBH.OHMM                   1.5 : MUD RESISTIVITY AT BHT
BHT .DEGF                    97 : BOTTOM HOLE TEMPERATURE
TIMC.                           : TIME CIRCULATION STOPPED
TIML.                           : TIME LOGGER ON BOTTOM
TMAX.DEGF                    97 : MAXIMUM RECORDED TEMPERATURE
UNIT.                    L-5172 : EQUIPMENT NUMBER
BASE.                      W.F. : BASE LOCATION
ENG .             ADAMS & BAKER : RECORDED BY
WIT .                   MR. NIX : WITNESSED BY
~Curve Information -----------------------------------------
DEPT.F          :DEPTH
CALS.IN         :
DT.US/F         :
SP.MV           :
~ASCII ------------------------------------------------------
866.00000        9.41991      109.84018        -999.25
866.50000        9.25965      111.24431        -999.25
867.00000        9.05932      110.04324        -999.25
867.50000        9.09899      104.14413        -999.25
868.00000        9.29865       97.88932        -999.25
868.50000        9.49832       93.54030        -999.25
869.00000        9.32799       95.36059        -999.25
869.50000        9.15766       97.20593        -999.25
870.00000        9.00013       98.49015      -37.49965
870.50000        8.87807      101.71323      -39.00462
871.00000        8.83173      107.66476      -41.70958
871.50000        8.85640      105.52916      -40.81455
872.00000        9.05607       99.38857      -40.21953
872.50000        9.25574       99.48041      -37.82552
873.00000        9.25661      108.25958      -37.23049
873.50000        9.12507      113.27123      -37.83646
874.00000        8.99354      112.37109      -38.74043
874.50000        8.97801      113.97595      -39.94540
875.00000        9.13648      109.06782      -40.85037
875.50000        9.29495       93.28801      -42.05534
876.00000        9.45341       94.73355      -43.26030
876.50000        9.04308      102.70511      -44.16527
877.00000        8.74616      110.67767      -48.07022
877.50000        8.66802      108.69537      -50.17519
878.00000        8.73649      105.67100      -49.58016
878.50000        8.85836      109.84097      -48.68514
879.00000        8.95589      112.80053      -42.78915
879.50000        9.07776      107.35433      -38.79515
880.00000        9.11983      104.07444      -35.20014
880.50000        9.04230      106.28050      -34.90512
881.00000        8.96477      101.41245      -35.81009
881.50000        8.88704       98.03437      -38.21505
882.00000        8.80950      101.62619      -39.42002
882.50000        8.59677      108.89234      -42.72597
883.00000        8.50884       95.39609      -43.93093
883.50000        8.66691       90.30125      -44.83590
884.00000        8.82478       86.37207      -45.14087
884.50000        8.88785       87.23044      -45.74585
885.00000        8.88751       93.10882      -45.75082
885.50000        8.88718      101.25706      -46.05579
886.00000        8.88685      108.22261      -46.36076
886.50000        8.92172      111.46073      -46.06574
887.00000        8.98039      102.19391      -45.47171
887.50000        9.02712      102.58535      -43.67570
888.00000        9.08559      105.31445      -42.78068
888.50000        9.26866      108.51148      -41.28566
889.00000        9.06493      102.80175      -37.39066
889.50000        8.94060      102.48979      -36.49564
890.00000        9.08026      104.43332      -33.20063
890.50000        9.10113      100.73527      -33.50561
891.00000        8.94360       91.43538      -34.41058
891.50000        8.78607       95.89594      -37.41553
892.00000        8.70654      101.55889      -38.62050
892.50000        8.67901      101.61098      -41.02645
893.00000        8.69428       93.29573      -40.13143
893.50000        8.77394       85.58200      -37.43642
894.00000        8.85361       89.64877      -36.84140
894.50000        8.77328       95.30471      -35.94638
895.00000        8.71815      100.41656      -35.35136
895.50000        9.06062       97.68778      -35.05633
896.00000        8.98915       91.86582      -35.66131
896.50000        8.90002       89.58593      -36.86627
897.00000        9.08729       95.02644      -38.97123
897.50000        9.15936       98.38780      -40.17620
898.00000        9.05902      102.41049      -41.38117
898.50000        8.95869      107.50430      -42.88613
899.00000        8.85836      113.84193      -44.09110
899.50000        8.77223      118.41772      -44.69707
900.00000        8.72092      112.80015      -43.62552
900.50000        8.63884      101.80154      -42.13150
901.00000        8.63526       90.74326      -40.93628
901.50000        8.74900       92.23791      -39.44226
902.00000        9.08506       94.90655      -39.14345
902.50000        9.21295       96.45820      -40.33867
903.00000        9.02789       95.95986      -41.83270
903.50000        8.84283       95.41186      -42.13150
904.00000        8.80299       97.38050      -42.13150
904.50000        8.84721      101.54814      -42.13150
905.00000        8.83864      105.71677      -40.33867
905.50000        8.83147      104.73844      -38.84465
906.00000        8.88107      104.49510      -36.75302
906.50000        8.96813      105.62175      -36.15541
907.00000        9.05538       95.84846      -36.15541
907.50000        9.14243       92.92514      -35.85660
908.00000        9.22968       95.14078      -35.55780
908.50000        9.31673       94.60344      -36.45421
909.00000        9.36514       90.45012      -38.66537
909.50000        9.23765       85.85181      -44.76098
910.00000        9.13147       85.13347      -49.84066
910.50000        9.00339       90.39210      -54.92034
911.00000        8.84243       99.30804      -60.95620
911.50000        8.68167      106.73865      -65.13946
912.00000        8.65359      108.28030      -67.82871
912.50000        8.65857      106.98197      -67.82871
913.00000        8.66374      105.56064      -67.23110
913.50000        8.66872      103.64530      -66.63349
914.00000        8.67490      103.37996      -65.73707
914.50000        8.68008      104.96561      -66.03588
915.00000        8.68506      106.55026      -66.63349
915.50000        8.69024      105.47926      -66.93229
916.00000        8.69542      103.79892      -67.52990
916.50000        8.70040      102.25559      -67.52990
917.00000        8.70558      102.30125      -66.93229
917.50000        8.71076      103.91490      -66.63349
918.00000        8.71574      105.52755      -66.63349
918.50000        8.72191      107.14020      -67.23110
919.00000        8.72709      107.56385      -68.12751
919.50000        8.72809      105.76552      -69.02392
920.00000        8.72629      106.93417      -69.32273
920.50000        8.72450      109.45982      -69.92034
921.00000        8.72271      112.89779      -70.51795
921.50000        8.72092      108.17214      -71.41436
922.00000        8.71912      100.20684      -71.41436
922.50000        8.71733       98.67551      -71.11556
923.00000        8.71514       98.83717      -71.41436
923.50000        8.71335       98.52383      -72.31078
924.00000        8.71175       99.56281      -72.60958
924.50000        8.70996       99.68247      -72.60958
925.00000        8.70817       98.68413      -72.60958
925.50000        8.70637       98.30779      -72.01197
926.00000        8.70458       98.08745      -71.41436
926.50000        8.70279       96.13912      -71.11556
927.00000        8.70100       94.19079      -70.81675
927.50000        8.69880       92.01046      -69.62153
928.00000        8.69701       89.83013      -69.51695
928.50000        8.69522       88.61579      -68.81177
929.00000        8.69343       89.05745      -68.10958
929.50000        8.69183       88.73211      -67.82871
930.00000        8.69004       85.22579      -67.82871
930.50000        8.71912       81.16247      -67.52990
931.00000        8.76892       81.15413      -67.52990
931.50000        8.81872       83.53077      -66.93229
932.00000        8.82809       84.80742      -65.43827
932.50000        8.79402       80.33910      -64.84066
933.00000        8.75976       70.99082      -64.84066
933.50000        8.72570       62.31252      -64.24305
934.00000        8.69143       63.14718      -62.15142
934.50000        8.65737       67.82681      -60.35859
935.00000        8.62331       76.88441      -56.77293
935.50000        8.66474       92.35232      -52.78986
936.00000        8.75657      112.42119      -48.80381
936.50000        8.84542      109.02287      -44.02293
937.00000        8.82908       86.38432      -40.03987
937.50000        8.81295       75.87604      -42.13150
938.00000        8.79681       77.42769      -46.15341
938.50000        8.78048       80.76233      -50.17532
