~Version ---------------------------------------------------
VERS. 2.0 : CWLS LOG ASCII STANDARD - VERSION 2.0
WRAP. NO  : One line per depth step
DLM . SPACE : Column Data Section Delimiter
~Well ------------------------------------------------------
STRT.F          500 : START DEPTH
STOP.F        996.0 : STOP DEPTH
STEP.F          0.5 : STEP
NULL.       -999.25 : NULL VALUE
COMP.                       WALSH & WATTS : COMPANY
WELL.                           HYNDS B 6 : WELL
FLD .                           N. NOCONA : FIELD
CNTY.                            MONTAGUE : COUNTY
STAT.                               TEXAS : STATE
CTRY.                                 USA : COUNTRY
SEC .                                     : SECTION
TWP .                                     : TOWNSHIP
RGE .                                     : RANGE
LOC . 550' FR W/L OF LEASE, 150' FR S/L OF LEASE, 400' FR NO 4 WELL, 300' FR NO 3 WELL : LOCATION
EKB .F                          : ELEVATION KELLY BUSHING
EDF .F                          : ELEVATION DERRICK FLOOR
EGL .F                          : ELEVATION GROUND LEVEL
PDAT.                        GL : PERMANENT DATUM
EPD .                           : ELEVATION PERMANENT DATUM
APD .                         6 : ABOVE PERMANENT DATUM
LMF .                        KB : LOG MEASURED FROM
DMF .                        KB : DRILLING MEASURED FROM
API .            42337038650000 : API NUMBER
UWI .                           : UWI NUMBER
DIGC.                     NthDS : DIGITIZING COMPANY
~Params ----------------------------------------------------
SRVC.                LANE WELLS : LOGGING COMPANY
LOG .                       GRN : LOG
DATE.                1957-10-16 : RUN DATE
RUN .                         1 : RUN NUMBER
TDD .F                     1015 : TOTAL DEPTH DRILLER
TDL .F                      997 : TOTAL DEPTH LOGGER
BOTL.F                    996.5 : BOTTOM LOGGED INTERVAL
TOPL.F                      500 : TOP LOGGED INTERVAL
CSGS.IN                         : CASING SIZE
CSGD.F                          : CASING DRILLER
CSGL.F                          : CASING LOGGER
BS  .IN                     5.5 : BIT SIZE
MUD .                           : MUD TYPE
MUDD.                           : MUD DENSITY
MUDV.                           : MUD VISCOSITY
PH  .                           : MUD PH
FL  .                           : FLUID LOSS
MUDS.                           : SOURCE OF SAMPLE
RM  .OHMM                       : MUD RESISTIVITY
RMT .DEGF                       : RM TEMPERATURE
RMF .OHMM                       : MUD FILTRATE RESISTIVITY
RMFT.DEGF                       : RMF TEMPERATURE
RMC .OHMM                       : MUD CAKE RESISTIVITY
RMCT.DEGF                       : RMC TEMPERATURE
RMFS.                           : RMF SOURCE
RMCS.                           : RMC SOURCE
RMBH.OHMM                       : MUD RESISTIVITY AT BHT
BHT .DEGF                       : BOTTOM HOLE TEMPERATURE
TIMC.                           : TIME CIRCULATION STOPPED
TIML.                           : TIME LOGGER ON BOTTOM
TMAX.DEGF                       : MAXIMUM RECORDED TEMPERATURE
UNIT.                           : EQUIPMENT NUMBER
BASE.                           : BASE LOCATION
ENG .                     PRICE : RECORDED BY
WIT .                       NIX : WITNESSED BY
~Curve Information -----------------------------------------
DEPT.F          :DEPTH
GRN.GAPI        :
NEUT.API        :
~ASCII ------------------------------------------------------
# ...
700.00000       37.93010     2156.51190
700.50000       36.39157     2177.46180
701.00000       33.85304     2190.61299
701.50000       35.96505     2132.19204
702.00000       37.01164     2046.81699
702.50000       37.34766     2011.30703
703.00000       37.99730     2040.61271
703.50000       35.86917     2058.13047
704.00000       35.12544     2056.52877
704.50000       33.98745     2096.54422
705.00000       30.91397     2136.54169
705.50000       27.29390     2139.39641
706.00000       27.13261     2104.15600
706.50000       30.29121     2045.73505
707.00000       33.76343     1987.31410
707.50000       34.97938     2003.46618
708.00000       34.65949     1985.47639
708.50000       34.88351     2013.90157
709.00000       35.03315     2016.70238
709.50000       33.31541     2009.29657
710.00000       35.12992     1978.50849
710.50000       37.40143     1997.94897
711.00000       36.76523     1976.11372
711.50000       35.64515     1975.89568
712.00000       37.20429     1979.32542
712.50000       38.33333     2016.19622
713.00000       37.46325     2036.93049
713.50000       35.28673     2025.67923
714.00000       33.11021     2101.72333
714.50000       32.57616     2243.96671
715.00000       30.92025     2353.97706
715.50000       28.70967     2491.49449
716.00000       26.49910     2593.10905
716.50000       27.63440     2551.16605
717.00000       30.71684     2423.55882
717.50000       31.97132     2423.53843
718.00000       30.62723     2409.86130
718.50000       30.98566     2298.50249
719.00000       29.28315     2164.71786
719.50000       29.59677     2067.35722
720.00000       31.73655     2085.61172
720.50000       34.34587     2134.10872
721.00000       33.67383     2117.52055
721.50000       36.27239     2052.61264
722.00000       34.65949     1976.99090
722.50000       36.82526     1957.92295
723.00000       38.69175     1917.02217
723.50000       40.17024     1893.19232
724.00000       40.09587     1889.57805
724.50000       39.80555     1870.15071
725.00000       40.44533     1913.34674
725.50000       39.85662     1919.70550
726.00000       39.25895     1900.27815
726.50000       37.71863     1885.88224
727.00000       37.61648     1915.38559
727.50000       39.03225     1916.38946
728.00000       39.13978     1913.36818
728.50000       39.37902     1932.07192
729.00000       39.13978     1946.51690
729.50000       39.58781     1930.32405
730.00000       40.08064     1963.00798
730.50000       40.66307     1995.33252
731.00000       39.31899     1968.35803
731.50000       37.97490     1985.30076
732.00000       38.69175     1992.27047
732.50000       38.92472     1953.92135
733.00000       38.24372     1935.41045
733.50000       37.37723     1952.08364
734.00000       38.78135     1928.69895
734.50000       39.61379     1974.71618
735.00000       39.22938     1992.98865
735.50000       40.12544     1990.63224
736.00000       40.90949     2019.12930
736.50000       41.26074     2047.19509
737.00000       41.91755     2060.20252
737.50000       40.82257     2033.37178
738.00000       40.43906     1991.42878
738.50000       39.85662     1960.86041
739.00000       39.94623     2003.19391
739.50000       37.61648     2040.99911
740.00000       35.97401     2075.80343
740.50000       37.52687     2042.00057
741.00000       40.12544     1980.88421
741.50000       39.60304     1933.78399
742.00000       40.53763     1942.74830
742.50000       41.84587     1910.38299
743.00000       41.62634     1949.89529
743.50000       40.17024     1941.78868
744.00000       38.42293     1991.18415
744.50000       36.72042     2034.59581
745.00000       36.81003     2034.52152
745.50000       36.75627     1999.85612
746.00000       39.29928     1974.93014
746.50000       42.63440     1969.51486
747.00000       42.13619     1956.01742
747.50000       41.86200     1926.79676
748.00000       42.47759     1929.92102
748.50000       42.11917     1955.05780
749.00000       39.40859     1915.50472
749.50000       38.97311     1947.34409
750.00000       39.63261     1983.01880
750.50000       39.15770     1951.66211
751.00000       38.78135     1888.76904
751.50000       36.45161     1873.80049
752.00000       38.51254     1862.26410
752.50000       37.57168     1822.87507
753.00000       36.63082     1813.29735
753.50000       37.78315     1887.70884
754.00000       37.79569     1972.27307
754.50000       35.64515     2056.83730
755.00000       35.16756     2141.40154
755.50000       35.19713     2206.82830
756.00000       32.18906     2198.95768
756.50000       31.99372     2123.71960
757.00000       34.33064     2100.08977
757.50000       36.83243     2046.45096
758.00000       39.34318     1949.86517
758.50000       41.86827     1960.64684
759.00000       43.64963     1938.09518
759.50000       42.45519     1914.41144
760.00000       43.03763     1911.68009
760.50000       43.97849     1894.41145
761.00000       44.94892     1894.15987
761.50000       44.11827     1922.01252
762.00000       42.12634     1917.52016
762.50000       41.20071     1938.86786
763.00000       40.63350     1955.97478
763.50000       40.86827     1951.66211
764.00000       41.49193     1924.70794
764.50000       40.99193     1946.27128
765.00000       41.31272     1917.52016
765.50000       40.52867     1953.45906
766.00000       40.68548     1986.70254
766.50000       39.82705     2019.94602
767.00000       37.88530     2001.97657
767.50000       38.24372     2015.63336
768.00000       36.00358     2008.08619
768.50000       36.92920     2005.57046
769.00000       37.39247     1983.55789
769.50000       37.80555     1945.37281
770.00000       39.39874     1907.18772
770.50000       39.71325     1920.08979
771.00000       40.03583     1928.30183
771.50000       40.84229     1955.05834
772.00000       40.12544     1992.99185
772.50000       39.40859     1982.80317
773.00000       40.57347     2012.75824
773.50000       40.68100     2024.43839
774.00000       40.32257     2031.62617
774.50000       40.43906     2040.61089
775.00000       40.52867     2064.86965
775.50000       40.93189     2143.03676
776.00000       37.99462     2205.03136
776.50000       35.01791     2285.89388
777.00000       31.88171     2305.21104
777.50000       31.68458     2462.58748
778.00000       29.82078     2649.77524
778.50000       25.21236     2833.17145
779.00000       20.60394     3010.85337
779.50000       17.02509     3195.92074
780.00000       16.79032     3347.96025
780.50000       13.46774     3348.31964
781.00000       10.14516     3348.69700
781.50000        9.88978     3349.05639
782.00000       10.51075     3349.43375
782.50000       11.29480     3349.79314
783.00000       10.77419     3350.17049
783.50000        9.92831     3350.52988
784.00000       10.67473     3350.88927
784.50000       11.24283     3351.26663
785.00000       10.82437     3316.19026
785.50000       10.51075     3227.97823
786.00000       10.95878     3161.18579
786.50000       11.63082     3180.05371
787.00000       10.92652     3190.65569
787.50000       11.00358     3168.19387
788.00000       10.91398     3223.89917
788.50000       10.64516     3286.79224
789.00000       10.75717     3314.64489
789.50000       10.25717     3342.49754
790.00000        9.65950     3348.12198
790.50000        9.68907     3340.25136
791.00000       10.33692     3312.18308
791.50000        9.68907     3327.09772
792.00000        9.50627     3343.39601
792.50000       10.01792     3313.29718
793.00000        9.92831     3261.63501
793.50000        9.48029     3223.89917
794.00000        9.68907     3217.60986
794.50000       10.06272     3174.93242
795.00000       10.43638     3134.05192
795.50000       10.71684     3166.98992
796.00000       10.54032     3205.92972
796.50000       10.01792     3155.02227
797.00000       10.07437     3138.09505
797.50000       10.25717     3132.47061
798.00000       10.46595     3187.51103
798.50000       10.01792     3202.33583
799.00000        9.96774     3211.32055
799.50000       10.51613     3204.85155
