~Version ---------------------------------------------------
VERS. 2.0 : CWLS LOG ASCII STANDARD - VERSION 2.0
WRAP. NO  : One line per depth step
DLM . SPACE : Column Data Section Delimiter
~Well ------------------------------------------------------
STRT.F          572 : START DEPTH
STOP.F       1770.0 : STOP DEPTH
STEP.F          0.5 : STEP
NULL.       -999.25 : NULL VALUE
COMP.         WALSH & WATTS, INCORPORATED : COMPANY
WELL.                         SALMON E 44 : WELL
FLD .                             REGULAR : FIELD
CNTY.                            MONTAGUE : COUNTY
STAT.                               TEXAS : STATE
CTRY.                                 USA : COUNTRY
SEC .                                     : SECTION
TWP .                                     : TOWNSHIP
RGE .                                     : RANGE
LOC . 300' WEST OF NO 23, 300' SOUTH OF D-9, F.ROBERTSON SURV. : LOCATION
EKB .F                      862 : ELEVATION KELLY BUSHING
EDF .F                          : ELEVATION DERRICK FLOOR
EGL .F                      856 : ELEVATION GROUND LEVEL
PDAT.                        GL : PERMANENT DATUM
EPD .                       856 : ELEVATION PERMANENT DATUM
APD .                         6 : ABOVE PERMANENT DATUM
LMF .                        KB : LOG MEASURED FROM
DMF .                        KB : DRILLING MEASURED FROM
API .            42337038720000 : API NUMBER
UWI .                           : UWI NUMBER
DIGC.                     NthDS : DIGITIZING COMPANY
~Params ----------------------------------------------------
SRVC.              SCHLUMBERGER : LOGGING COMPANY
LOG .                     SONIC : LOG
DATE.                1965-11-28 : RUN DATE
RUN .                         1 : RUN NUMBER
TDD .F                     1179 : TOTAL DEPTH DRILLER
TDL .F                     1179 : TOTAL DEPTH LOGGER
BOTL.F                     1170 : BOTTOM LOGGED INTERVAL
TOPL.F                      600 : TOP LOGGED INTERVAL
CSGS.IN                         : CASING SIZE
CSGD.F                          : CASING DRILLER
CSGL.F                          : CASING LOGGER
BS  .IN                   7.875 : BIT SIZE
MUD .                       GEL : MUD TYPE
MUDD.                        10 : MUD DENSITY
MUDV.                        98 : MUD VISCOSITY
PH  .                           : MUD PH
FL  .                           : FLUID LOSS
MUDS.                CIRCULATED : SOURCE OF SAMPLE
RM  .OHMM                   2.0 : MUD RESISTIVITY
RMT .DEGF                    81 : RM TEMPERATURE
RMF .OHMM                   1.5 : MUD FILTRATE RESISTIVITY
RMFT.DEGF                    81 : RMF TEMPERATURE
RMC .OHMM                       : MUD CAKE RESISTIVITY
RMCT.DEGF                       : RMC TEMPERATURE
RMFS.                         M : RMF SOURCE
RMCS.                           : RMC SOURCE
RMBH.OHMM                   1.6 : MUD RESISTIVITY AT BHT
BHT .DEGF                   100 : BOTTOM HOLE TEMPERATURE
TIMC.                           : TIME CIRCULATION STOPPED
TIML.                           : TIME LOGGER ON BOTTOM
TMAX.DEGF                   100 : MAXIMUM RECORDED TEMPERATURE
UNIT.                      4559 : EQUIPMENT NUMBER
BASE.                       WFS : BASE LOCATION
ENG .                      FINK : RECORDED BY
WIT .                       NIX : WITNESSED BY
~Curve Information -----------------------------------------
DEPT.F          :DEPTH
CALS.IN         :
DT.US/F         :
SP.MV           :
~ASCII ------------------------------------------------------
# ...
645.00000        7.83267      117.07916      -83.85360
645.50000        7.83267      120.62124      -80.30380
646.00000        7.75299      124.48898      -78.43627
646.50000        7.61633      126.07215      -78.51994
647.00000        7.57370      124.46894      -79.84663
647.50000        7.81773      116.66734      -79.21316
648.00000        7.88586      112.19439      -77.27093
648.50000        7.69323      116.43287      -77.65938
649.00000        7.35956      122.29459      -79.60161
649.50000        7.26614      120.48998      -79.70619
650.00000        7.25498      112.04409      -82.47014
650.50000        7.14928      108.83768      -87.84192
651.00000        7.11103       79.47897      -89.55404
651.50000        7.14768       66.95392      -86.63352
652.00000        7.23175       84.58919      -82.27696
652.50000        7.50605       99.86974      -81.44328
653.00000        7.65585      104.72946      -79.97315
653.50000        7.66621      109.23848      -77.55283
654.00000        7.59689      113.91483      -75.13550
654.50000        7.55008      112.19439      -81.51790
655.00000        7.52805      106.55511      -91.07357
655.50000        7.50972       99.59720      -97.04362
656.00000        7.50096       99.36874      -97.89220
656.50000        7.50594      104.37876      -98.22684
657.00000        7.51112      107.73547      -97.09137
657.50000        7.51630      107.90281      -94.26468
658.00000        7.53762      103.61022      -91.33639
658.50000        7.62328      104.56213      -89.74973
659.00000        7.63085      107.83568      -88.33517
659.50000        7.62926      108.78758      -85.34115
660.00000        7.66950      103.36674      -82.14694
660.50000        7.68444      103.56012      -78.15790
661.00000        7.59759      110.31563      -80.28536
661.50000        7.58882      115.31062      -80.74848
662.00000        7.61341      113.67235      -80.59009
662.50000        7.58891      108.97495      -81.84803
663.00000        7.51341      106.50401      -80.98746
663.50000        7.42537      109.86874      -81.90775
664.00000        7.48393      109.81964      -83.27026
664.50000        7.54230      108.13628      -84.03219
665.00000        7.55903      107.63527      -83.88874
665.50000        7.54768      106.13227      -83.62457
666.00000        7.53633      100.92185      -83.24507
666.50000        7.55127      100.68838      -81.75702
667.00000        7.67119      104.25351      -79.99406
667.50000        7.74729      103.98297      -78.23111
668.00000        7.76761      102.79860      -76.30082
668.50000        7.91243      102.56513      -74.12253
669.00000        7.89797      104.37876      -72.27890
669.50000        7.77893      106.87776      -71.77390
670.00000        7.62108      105.59820      -74.00892
670.50000        7.57706      107.06714      -76.24394
671.00000        7.47128      111.60321      -77.67220
671.50000        7.49168      111.56313      -77.48692
672.00000        7.59160      109.79459      -75.32835
672.50000        7.37627      106.56012      -75.14307
673.00000        7.41312      103.32666      -78.08027
673.50000        7.51312      116.28557      -80.38999
674.00000        7.85495      123.46694      -77.99358
674.50000        8.05914      124.80261      -73.69379
675.00000        8.17169      125.27054      -71.70673
675.50000        7.97289      124.09720      -73.35909
676.00000        7.78412      122.56513      -75.25347
676.50000        7.69767      118.05611      -76.81918
677.00000        7.69249      111.94389      -77.06119
677.50000        7.78532      119.04710      -79.44561
678.00000        7.87815      126.67335      -81.18163
678.50000        7.76620      121.93888      -80.53022
679.00000        7.51760      108.23648      -81.14573
679.50000        7.26900       97.94089      -82.91939
680.00000        7.02040      107.86874      -82.48910
680.50000        7.19868      114.04810      -85.38447
681.00000        7.37697       90.70141      -87.54479
681.50000        7.52617       81.14931      -86.36749
682.00000        7.37060       98.81764      -80.73504
682.50000        7.42088      112.50802      -74.10460
683.00000        7.79510      121.96393      -70.21417
683.50000        8.35633      118.14630      -70.10957
684.00000        8.58860      117.59519      -69.20716
684.50000        8.46709      117.87575      -68.30476
685.00000        8.50853      121.62024      -69.79277
685.50000        8.52395      123.76754      -68.42005
686.00000        8.42467      118.92485      -65.99375
686.50000        8.38781      119.15832      -65.39912
687.00000        8.37308      121.76353      -65.53057
687.50000        8.38104      123.33768      -66.21779
688.00000        8.35236      126.44790      -66.99466
688.50000        8.23782      124.43587      -66.63010
689.00000        8.12328      120.11022      -66.26554
689.50000        8.18065      119.35872      -65.90098
690.00000        8.04448      113.39680      -65.53641
690.50000        8.16938      107.43487      -65.39297
691.00000        8.16480      108.48197      -66.13398
691.50000        7.75883      109.53006      -69.97058
692.00000        7.64110      109.28858      -72.73149
692.50000        7.60824      108.58016      -74.78125
693.00000        7.46641      107.93588      -75.67046
693.50000        7.52936      108.03608      -72.67644
694.00000        7.97995      107.87576      -68.48721
694.50000        8.31103      113.08618      -67.15453
695.00000        8.45087      116.95391      -65.81886
695.50000        8.45923      115.45090      -64.48618
696.00000        8.35944      116.08517      -64.13059
696.50000        8.23115      117.11423      -66.66441
697.00000        8.04351      116.76453      -69.34763
697.50000        7.88124      117.82265      -71.13445
698.00000        7.75873      119.90982      -72.92127
698.50000        7.61491      122.05010      -69.71510
699.00000        7.62447      122.72746      -70.04077
699.50000        7.63383      121.53808      -72.36543
700.00000        7.61541      121.70040      -72.60781
700.50000        7.59768      122.60000      -71.85480
701.00000        7.62995      122.10000      -71.45439
701.50000        7.67457      122.63800      -71.58584
702.00000        7.63513      123.86900      -71.32885
702.50000        7.59569      125.10000      -69.96330
703.00000        7.68334      125.36300      -70.33080
703.50000        7.73852      125.62600      -70.29493
704.00000        7.74569      125.88900      -68.82480
704.50000        7.75267      126.67000      -67.39949
705.00000        7.88235      129.52000      -67.20525
705.50000        8.19569      130.86000      -65.29588
706.00000        8.25586      126.24000      -62.11361
706.50000        8.27438      122.95500      -61.07675
707.00000        8.29658      123.72700      -60.57175
707.50000        8.23881      124.50000      -59.86954
708.00000        8.24757      125.27800      -59.15240
708.50000        8.25634      125.80000      -59.57070
709.00000        8.14678      122.60000      -61.01688
709.50000        8.14320      118.80000      -62.83358
710.00000        8.17348      118.08000      -64.90724
710.50000        8.25455      124.28000      -67.32752
711.00000        8.34838      125.64000      -68.42112
711.50000        8.44220      128.06700      -69.03244
712.00000        8.42009      130.45000      -70.14695
712.50000        8.32089      131.70000      -71.83516
713.00000        8.06233      122.00000      -73.66979
713.50000        7.42529      112.25000      -75.35202
714.00000        7.24999      104.66700      -76.44263
714.50000        7.16892      106.02900      -77.53324
715.00000        7.08784      103.17100      -78.40273
715.50000        7.22768      101.40000      -78.39673
716.00000        7.57210       99.90000      -75.64175
716.50000        7.91672      102.00000      -72.19953
717.00000        8.32449      108.43700      -68.31807
717.50000        8.25019      112.70000      -66.46248
