~Version ---------------------------------------------------
VERS. 2.0 : CWLS LOG ASCII STANDARD - VERSION 2.0
WRAP. NO  : One line per depth step
DLM . SPACE : Column Data Section Delimiter
~Well ------------------------------------------------------
STRT.F       4400.5 : START DEPTH
STOP.F        14502 : STOP DEPTH
STEP.F          0.5 : STEP
NULL.       -999.25 : NULL VALUE
COMP.            PALACE OPERATING COMPANY : COMPANY
WELL.         235305-SL18350-002-18350-29 : WELL
FLD .               BELLE ISLE, SOUTHWEST : FIELD
CNTY.                            ST. MARY : COUNTY
STAT.                           LOUISIANA : STATE
CTRY.                                 USA : COUNTRY
SEC .                                     : SECTION
TWP .                                     : TOWNSHIP
RGE .                                     : RANGE
LOC . LAT 29 29' 27.731" LONG 91 31' 11.823" : LOCATION
EKB .F                       42 : ELEVATION KELLY BUSHING
EDF .F                       41 : ELEVATION DERRICK FLOOR
EGL .F                       -8 : ELEVATION GROUND LEVEL
PDAT.                       MSL : PERMANENT DATUM
EPD .                           : ELEVATION PERMANENT DATUM
APD .                        42 : ABOVE PERMANENT DATUM
LMF .                        KB : LOG MEASURED FROM
DMF .                        KB : DRILLING MEASURED FROM
API .            17101223030000 : API NUMBER
UWI .                           : UWI NUMBER
DIGC.                     NthDS : DIGITIZING COMPANY
~Params ----------------------------------------------------
SRVC.              BAKER HUGHES : LOGGING COMPANY
LOG .         HDIL/ZDEN/CNL/MAA : LOG
DATE.                2007-05-03 : RUN DATE
RUN .                         1 : RUN NUMBER
TDD .F                    12700 : TOTAL DEPTH DRILLER
TDL .F                    12702 : TOTAL DEPTH LOGGER
BOTL.F                    12694 : BOTTOM LOGGED INTERVAL
TOPL.F                     4475 : TOP LOGGED INTERVAL
CSGS.IN                  13.375 : CASING SIZE
CSGD.F                     4510 : CASING DRILLER
CSGL.F                     4514 : CASING LOGGER
BS  .IN                   12.25 : BIT SIZE
MUD .                     LIGNO : MUD TYPE
MUDD.                      10.8 : MUD DENSITY
MUDV.                        42 : MUD VISCOSITY
PH  .                       9.8 : MUD PH
FL  .                       3.8 : FLUID LOSS
MUDS.                       PIT : SOURCE OF SAMPLE
RM  .OHMM                 0.405 : MUD RESISTIVITY
RMT .DEGF                    85 : RM TEMPERATURE
RMF .OHMM                 0.304 : MUD FILTRATE RESISTIVITY
RMFT.DEGF                    85 : RMF TEMPERATURE
RMC .OHMM                 0.506 : MUD CAKE RESISTIVITY
RMCT.DEGF                    85 : RMC TEMPERATURE
RMFS.                CALCULATED : RMF SOURCE
RMCS.                CALCULATED : RMC SOURCE
RMBH.OHMM                 0.282 : MUD RESISTIVITY AT BHT
BHT .DEGF                   191 : BOTTOM HOLE TEMPERATURE
TIMC.                           : TIME CIRCULATION STOPPED
TIML.                           : TIME LOGGER ON BOTTOM
TMAX.DEGF                   191 : MAXIMUM RECORDED TEMPERATURE
UNIT.                    HL4125 : EQUIPMENT NUMBER
BASE.                  PEARLAND : BASE LOCATION
ENG .                      CASE : RECORDED BY
WIT .                    ARDOIN : WITNESSED BY
#
SRVC.              BAKER HUGHES : LOGGING COMPANY
LOG .         HDIL/ZDEN/CNL/MAA : LOG
DATE.                2007-05-11 : RUN DATE
RUN .                         2 : RUN NUMBER
TDD .F                    13580 : TOTAL DEPTH DRILLER
TDL .F                    13588 : TOTAL DEPTH LOGGER
BOTL.F                    13579 : BOTTOM LOGGED INTERVAL
TOPL.F                    11990 : TOP LOGGED INTERVAL
CSGS.IN                   9.625 : CASING SIZE
CSGD.F                    12700 : CASING DRILLER
CSGL.F                    12700 : CASING LOGGER
BS  .IN                     8.5 : BIT SIZE
MUD .           WATER BASED MUD : MUD TYPE
MUDD.                      15.7 : MUD DENSITY
MUDV.                        46 : MUD VISCOSITY
PH  .                      10.8 : MUD PH
FL  .                       2.8 : FLUID LOSS
MUDS.                  FLOWLINE : SOURCE OF SAMPLE
RM  .OHMM                 0.802 : MUD RESISTIVITY
RMT .DEGF                    75 : RM TEMPERATURE
RMF .OHMM                   0.6 : MUD FILTRATE RESISTIVITY
RMFT.DEGF                    75 : RMF TEMPERATURE
RMC .OHMM                   1.0 : MUD CAKE RESISTIVITY
RMCT.DEGF                    75 : RMC TEMPERATURE
RMFS.                  MEASURED : RMF SOURCE
RMCS.                  MEASURED : RMC SOURCE
RMBH.OHMM                  0.29 : MUD RESISTIVITY AT BHT
BHT .DEGF                   220 : BOTTOM HOLE TEMPERATURE
TIMC.                           : TIME CIRCULATION STOPPED
TIML.                           : TIME LOGGER ON BOTTOM
TMAX.DEGF                   220 : MAXIMUM RECORDED TEMPERATURE
UNIT.                    HL6659 : EQUIPMENT NUMBER
BASE.                 BROUSSARD : BASE LOCATION
ENG .                 N.FRAICHE : RECORDED BY
WIT .                  S.VESTAL : WITNESSED BY
#
SRVC.              BAKER HUGHES : LOGGING COMPANY
LOG .         HDIL/ZDEN/CNL/MAA : LOG
DATE.                2007-05-11 : RUN DATE
RUN .                         3 : RUN NUMBER
TDD .F                    14504 : TOTAL DEPTH DRILLER
TDL .F                    14506 : TOTAL DEPTH LOGGER
BOTL.F                    14508 : BOTTOM LOGGED INTERVAL
TOPL.F                    13583 : TOP LOGGED INTERVAL
CSGS.IN                   7.625 : CASING SIZE
CSGD.F                    13575 : CASING DRILLER
CSGL.F                    13583 : CASING LOGGER
BS  .IN                     6.5 : BIT SIZE
MUD .           WATER BASED MUD : MUD TYPE
MUDD.                      17.2 : MUD DENSITY
MUDV.                        49 : MUD VISCOSITY
PH  .                      10.5 : MUD PH
FL  .                      11.2 : FLUID LOSS
MUDS.                  FLOWLINE : SOURCE OF SAMPLE
RM  .OHMM                 0.202 : MUD RESISTIVITY
RMT .DEGF                    75 : RM TEMPERATURE
RMF .OHMM                 0.401 : MUD FILTRATE RESISTIVITY
RMFT.DEGF                    75 : RMF TEMPERATURE
RMC .OHMM                  2.35 : MUD CAKE RESISTIVITY
RMCT.DEGF                    75 : RMC TEMPERATURE
RMFS.                  MEASURED : RMF SOURCE
RMCS.                  MEASURED : RMC SOURCE
RMBH.OHMM                 0.292 : MUD RESISTIVITY AT BHT
BHT .DEGF                   245 : BOTTOM HOLE TEMPERATURE
TIMC.                           : TIME CIRCULATION STOPPED
TIML.                           : TIME LOGGER ON BOTTOM
TMAX.DEGF                   245 : MAXIMUM RECORDED TEMPERATURE
UNIT.                    HL6659 : EQUIPMENT NUMBER
BASE.                 BROUSSARD : BASE LOCATION
ENG .      J.SPENCER/C.BRICONER : RECORDED BY
WIT .                 D. MATHIS : WITNESSED BY
~Curve Information -----------------------------------------
DEPT.F          :DEPTH
CNCF.%          :
DCAL.IN         :
DT.US/F         :
GR.GAPI         :
M2R1.OHMM       :
M2R3.OHMM       :
M2R9.OHMM       :
PORZ.%          :
SP.MV           :
TENS.LBF        :
ZCOR.G/CC       :
~ASCII ------------------------------------------------------
# ...
8494.50000       31.11013       -0.41296        -999.25       73.01424        1.08882        0.56471        0.50668       20.04050      -18.65584       36.09112        0.03821
8495.00000       30.52227       -0.41223        -999.25       74.84723        1.08607        0.61060        0.52007       19.79758      -15.39718       35.48628        0.03780
8495.50000       30.70446       -0.40907        -999.25       74.84723        1.04216        0.62024        0.53381       20.16195      -13.36053       34.67983        0.03739
8496.00000       31.17450       -0.40591        -999.25       74.54173        0.99441        0.62997        0.54786       20.76924      -12.13853       34.07499        0.03735
8496.50000       32.79353       -0.40275        -999.25       72.70874        0.99909        0.63991        0.56233       21.86236      -12.54586       33.47016        0.03882
8497.00000       35.70851       -0.39960        -999.25       72.09774        1.01172        0.65002        0.57718       22.59110      -14.98985       32.86532        0.03554
8497.50000       36.43725       -0.39644        -999.25       72.40324        1.00426        0.66282        0.59243       22.59110      -18.65584       32.26048        0.03108
8498.00000       35.70851       -0.39304        -999.25       75.15273        0.99684        0.67658        0.61226       21.86236      -17.84118       31.65564        0.02662
8498.50000       33.88665       -0.38988        -999.25       78.15273        0.98948        0.69062        0.65026       20.89070      -13.76786       30.84919        0.02719
8499.00000       33.44090       -0.39182        -999.25       81.06719        0.99283        0.71917        0.69068       20.40487       -8.47254       30.24435        0.03112
8499.50000       34.58503       -0.39717        -999.25       83.35843        1.01248        0.75902        0.73431       20.16195       -6.02855       29.63951        0.03503
8500.00000       36.55871       -0.40251        -999.25       83.13847        1.03243        0.80108        0.78164       19.91904       -3.17723       29.03467        0.04407
8500.50000       36.65323       -0.40718        -999.25       85.05701        1.03243        0.85464        0.82689       18.87098       -4.80656       28.22822        0.05517
8501.00000       36.77420       -0.41226        -999.25       86.70975        1.01324        0.88665        0.85987       18.38711       -7.25055       27.62338        0.05969
8501.50000       37.37904       -0.41758        -999.25       87.06719        0.98209        0.91589        0.88731       18.38711       -7.25055       27.01855        0.05845
8502.00000       37.22057       -0.42290        -999.25       85.23419        0.97997        0.94221        0.90505       18.62904       -4.39922       26.41371        0.05336
8502.50000       36.52259       -0.42823        -999.25       84.31770        0.98513        0.95332        0.92322       18.50807       -1.54790       25.60726        0.05417
8503.00000       35.82460       -0.43331        -999.25       84.62320        0.99032        0.96456        0.94168       18.02420       -1.14057       25.00242        0.05892
8503.50000       35.68549       -0.43210        -999.25       85.84519        0.99909        0.97593        0.96059       17.41937       -1.54790       24.39758        0.06369
8504.00000       37.44557       -0.42677        -999.25       85.84519        1.02279        0.99134        0.97593       17.05646       -3.58456       23.79274        0.06829
8504.50000       39.20444       -0.42121        -999.25       87.06719        1.04050        0.97511        0.97593       17.17743       -5.21389       23.18790        0.07283
8505.00000       39.71734       -0.41565        -999.25       89.42258        1.03243        0.95153        0.92835       17.90324       -6.43588       22.58306        0.08432
8505.50000       37.62097       -0.41129        -999.25       91.40527        0.97933        0.92861        0.88300       19.11291       -7.65788       21.77661        0.09756
8506.00000       36.16936       -0.41129        -999.25       90.76678        0.94593        0.90615        0.83994       20.32259       -8.06521       21.17177        0.09242
8506.50000       37.43952       -0.41129        -999.25       88.56108        0.95780        0.88217        0.82658       20.44356       -8.87987       20.97016        0.08462
8507.00000       38.83065       -0.41129        -999.25       86.76169        0.98781        0.86642        0.81411       19.46372      -10.91653       20.97016        0.07684
8507.50000       37.88589       -0.41129        -999.25       86.45619        0.95520        0.85088        0.80146       18.43549      -14.17519       20.97016        0.07766
8508.00000       36.94113       -0.41129        -999.25       86.76169        0.88027        0.73658        0.71521       18.02420      -16.61918       20.97016        0.08420
8508.50000       35.99517       -0.41129        -999.25       89.20568        0.76971        0.61780        0.61215       19.05243      -20.69250       20.97016        0.09075
8509.00000       35.72541       -0.41129        -999.25       87.67819        0.63346        0.51492        0.50964       21.41130      -25.17315       20.97016        0.08442
8509.50000       36.77420       -0.41129        -999.25       84.31770        0.52134        0.42521        0.42128       22.41170      -31.69046       20.97016        0.07487
8510.00000       37.89315       -0.41129        -999.25       81.56821        0.43809        0.35110        0.34457       23.51130      -37.39311       20.97016        0.06534
8510.50000       37.96815       -0.41129        -999.25       81.56821        0.41179        0.33501        0.33817       23.95162      -39.83710       20.97016        0.06151
8511.00000       36.29033       -0.41129        -999.25       82.79020        0.43563        0.36589        0.35275       23.16533      -40.24443       20.97016        0.06536
8511.50000       35.17138       -0.41129        -999.25       84.01220        0.50144        0.41959        0.40244       21.70162      -38.20777       20.97016        0.07308
8512.00000       35.08065       -0.41540        -999.25       85.23419        0.58949        0.48297        0.46716       20.58872      -34.54178       20.97016        0.07951
8512.50000       36.31210       -0.42073        -999.25       84.62320        0.68900        0.55593        0.52551       20.92743      -33.72712       20.97016        0.08595
8513.00000       38.15928       -0.42702        -999.25       82.79020        0.64673        0.53116        0.51093       24.03751      -36.17111       20.97016        0.07527
8513.50000       38.52823       -0.43234        -999.25       78.20772        0.50902        0.44475        0.42854       27.25283      -39.83710       20.97016        0.06460
8514.00000       38.28630       -0.43258        -999.25       65.37677        0.38238        0.34746        0.35156       29.82702      -43.09575       20.97016        0.05395
8514.50000       36.77420       -0.42556        -999.25       55.90630        0.29241        0.27148        0.27902       31.20968      -45.53974       20.97016        0.04328
8515.00000       35.26210       -0.41831        -999.25       53.36149        0.23238        0.21209        0.19734       31.20968      -47.16907       20.97016        0.04336
8515.50000       34.95968       -0.41129        -999.25       50.71282        0.21158        0.20105        0.18455       30.96775      -48.79840       20.97016        0.04613
8516.00000       35.20162       -0.41129        -999.25       49.18532        0.20765        0.20000        0.17871       31.08872      -51.64972       20.97016        0.04318
8516.50000       35.80646       -0.41129        -999.25       48.87982        0.21967        0.20379        0.18285       31.33065      -54.50104       20.97016        0.03639
8517.00000       36.13912       -0.41129        -999.25       49.49082        0.23567        0.21357        0.19365       31.81452      -54.50104       20.97016        0.02825
