~Version ---------------------------------------------------
VERS. 2.0 : CWLS LOG ASCII STANDARD - VERSION 2.0
WRAP. NO  : One line per depth step
DLM . SPACE : Column Data Section Delimiter
~Well ------------------------------------------------------
STRT.F       4400.5 : START DEPTH
STOP.F        14502 : STOP DEPTH
STEP.F          0.5 : STEP
NULL.       -999.25 : NULL VALUE
COMP.            PALACE OPERATING COMPANY : COMPANY
WELL.         235305-SL18350-002-18350-29 : WELL
FLD .               BELLE ISLE, SOUTHWEST : FIELD
CNTY.                            ST. MARY : COUNTY
STAT.                           LOUISIANA : STATE
CTRY.                                 USA : COUNTRY
SEC .                                     : SECTION
TWP .                                     : TOWNSHIP
RGE .                                     : RANGE
LOC . LAT 29 29' 27.731" LONG 91 31' 11.823" : LOCATION
EKB .F                       42 : ELEVATION KELLY BUSHING
EDF .F                       41 : ELEVATION DERRICK FLOOR
EGL .F                       -8 : ELEVATION GROUND LEVEL
PDAT.                       MSL : PERMANENT DATUM
EPD .                           : ELEVATION PERMANENT DATUM
APD .                        42 : ABOVE PERMANENT DATUM
LMF .                        KB : LOG MEASURED FROM
DMF .                        KB : DRILLING MEASURED FROM
API .            17101223030000 : API NUMBER
UWI .                           : UWI NUMBER
DIGC.                     NthDS : DIGITIZING COMPANY
~Params ----------------------------------------------------
SRVC.              BAKER HUGHES : LOGGING COMPANY
LOG .         HDIL/ZDEN/CNL/MAA : LOG
DATE.                2007-05-03 : RUN DATE
RUN .                         1 : RUN NUMBER
TDD .F                    12700 : TOTAL DEPTH DRILLER
TDL .F                    12702 : TOTAL DEPTH LOGGER
BOTL.F                    12694 : BOTTOM LOGGED INTERVAL
TOPL.F                     4475 : TOP LOGGED INTERVAL
CSGS.IN                  13.375 : CASING SIZE
CSGD.F                     4510 : CASING DRILLER
CSGL.F                     4514 : CASING LOGGER
BS  .IN                   12.25 : BIT SIZE
MUD .                     LIGNO : MUD TYPE
MUDD.                      10.8 : MUD DENSITY
MUDV.                        42 : MUD VISCOSITY
PH  .                       9.8 : MUD PH
FL  .                       3.8 : FLUID LOSS
MUDS.                       PIT : SOURCE OF SAMPLE
RM  .OHMM                 0.405 : MUD RESISTIVITY
RMT .DEGF                    85 : RM TEMPERATURE
RMF .OHMM                 0.304 : MUD FILTRATE RESISTIVITY
RMFT.DEGF                    85 : RMF TEMPERATURE
RMC .OHMM                 0.506 : MUD CAKE RESISTIVITY
RMCT.DEGF                    85 : RMC TEMPERATURE
RMFS.                CALCULATED : RMF SOURCE
RMCS.                CALCULATED : RMC SOURCE
RMBH.OHMM                 0.282 : MUD RESISTIVITY AT BHT
BHT .DEGF                   191 : BOTTOM HOLE TEMPERATURE
TIMC.                           : TIME CIRCULATION STOPPED
TIML.                           : TIME LOGGER ON BOTTOM
TMAX.DEGF                   191 : MAXIMUM RECORDED TEMPERATURE
UNIT.                    HL4125 : EQUIPMENT NUMBER
BASE.                  PEARLAND : BASE LOCATION
ENG .                      CASE : RECORDED BY
WIT .                    ARDOIN : WITNESSED BY
#
SRVC.              BAKER HUGHES : LOGGING COMPANY
LOG .         HDIL/ZDEN/CNL/MAA : LOG
DATE.                2007-05-11 : RUN DATE
RUN .                         2 : RUN NUMBER
TDD .F                    13580 : TOTAL DEPTH DRILLER
TDL .F                    13588 : TOTAL DEPTH LOGGER
BOTL.F                    13579 : BOTTOM LOGGED INTERVAL
TOPL.F                    11990 : TOP LOGGED INTERVAL
CSGS.IN                   9.625 : CASING SIZE
CSGD.F                    12700 : CASING DRILLER
CSGL.F                    12700 : CASING LOGGER
BS  .IN                     8.5 : BIT SIZE
MUD .           WATER BASED MUD : MUD TYPE
MUDD.                      15.7 : MUD DENSITY
MUDV.                        46 : MUD VISCOSITY
PH  .                      10.8 : MUD PH
FL  .                       2.8 : FLUID LOSS
MUDS.                  FLOWLINE : SOURCE OF SAMPLE
RM  .OHMM                 0.802 : MUD RESISTIVITY
RMT .DEGF                    75 : RM TEMPERATURE
RMF .OHMM                   0.6 : MUD FILTRATE RESISTIVITY
RMFT.DEGF                    75 : RMF TEMPERATURE
RMC .OHMM                   1.0 : MUD CAKE RESISTIVITY
RMCT.DEGF                    75 : RMC TEMPERATURE
RMFS.                  MEASURED : RMF SOURCE
RMCS.                  MEASURED : RMC SOURCE
RMBH.OHMM                  0.29 : MUD RESISTIVITY AT BHT
BHT .DEGF                   220 : BOTTOM HOLE TEMPERATURE
TIMC.                           : TIME CIRCULATION STOPPED
TIML.                           : TIME LOGGER ON BOTTOM
TMAX.DEGF                   220 : MAXIMUM RECORDED TEMPERATURE
UNIT.                    HL6659 : EQUIPMENT NUMBER
BASE.                 BROUSSARD : BASE LOCATION
ENG .                 N.FRAICHE : RECORDED BY
WIT .                  S.VESTAL : WITNESSED BY
#
SRVC.              BAKER HUGHES : LOGGING COMPANY
LOG .         HDIL/ZDEN/CNL/MAA : LOG
DATE.                2007-05-11 : RUN DATE
RUN .                         3 : RUN NUMBER
TDD .F                    14504 : TOTAL DEPTH DRILLER
TDL .F                    14506 : TOTAL DEPTH LOGGER
BOTL.F                    14508 : BOTTOM LOGGED INTERVAL
TOPL.F                    13583 : TOP LOGGED INTERVAL
CSGS.IN                   7.625 : CASING SIZE
CSGD.F                    13575 : CASING DRILLER
CSGL.F                    13583 : CASING LOGGER
BS  .IN                     6.5 : BIT SIZE
MUD .           WATER BASED MUD : MUD TYPE
MUDD.                      17.2 : MUD DENSITY
MUDV.                        49 : MUD VISCOSITY
PH  .                      10.5 : MUD PH
FL  .                      11.2 : FLUID LOSS
MUDS.                  FLOWLINE : SOURCE OF SAMPLE
RM  .OHMM                 0.202 : MUD RESISTIVITY
RMT .DEGF                    75 : RM TEMPERATURE
RMF .OHMM                 0.401 : MUD FILTRATE RESISTIVITY
RMFT.DEGF                    75 : RMF TEMPERATURE
RMC .OHMM                  2.35 : MUD CAKE RESISTIVITY
RMCT.DEGF                    75 : RMC TEMPERATURE
RMFS.                  MEASURED : RMF SOURCE
RMCS.                  MEASURED : RMC SOURCE
RMBH.OHMM                 0.292 : MUD RESISTIVITY AT BHT
BHT .DEGF                   245 : BOTTOM HOLE TEMPERATURE
TIMC.                           : TIME CIRCULATION STOPPED
TIML.                           : TIME LOGGER ON BOTTOM
TMAX.DEGF                   245 : MAXIMUM RECORDED TEMPERATURE
UNIT.                    HL6659 : EQUIPMENT NUMBER
BASE.                 BROUSSARD : BASE LOCATION
ENG .      J.SPENCER/C.BRICONER : RECORDED BY
WIT .                 D. MATHIS : WITNESSED BY
~Curve Information -----------------------------------------
DEPT.F          :DEPTH
CNCF.%          :
DCAL.IN         :
DT.US/F         :
GR.GAPI         :
M2R1.OHMM       :
M2R3.OHMM       :
M2R9.OHMM       :
PORZ.%          :
SP.MV           :
TENS.LBF        :
ZCOR.G/CC       :
~ASCII ------------------------------------------------------
# ...
10495.50000       31.20968        0.02274        -999.25       99.27855        1.53404        0.88856        0.73658       15.36291      -23.42861        2.45896        0.08367
10496.00000       30.48388        0.02927        -999.25       98.21936        1.54212        0.88167        0.73658       15.12098      -24.37963        3.62393        0.07347
10496.50000       29.27420        0.03556        -999.25       97.15712        1.52729        0.87475        0.73658       14.87904      -25.33473        4.78890        0.06735
10497.00000       29.87904        0.04210        -999.25       96.91834        1.49778        0.86797        0.74074       14.75808      -24.89799        5.75226        0.06327
10497.50000       30.96775        0.04839        -999.25       98.36630        1.47105        0.86935        0.75123       15.00001      -23.53881        6.91722        0.05714
10498.00000       29.75807        0.07863        -999.25      100.57957        1.45391        0.88300        0.76596       15.48388      -22.24493        8.08219        0.05918
10498.50000       28.79033        0.10887        -999.25      104.13671        1.40261        0.89694        0.78716       15.60485      -21.22452        9.04555        0.06327
10499.00000       28.18549        0.13911        -999.25      108.03365        1.33134        0.90293        0.80901       15.12098      -19.03677       10.21052        0.07551
10499.50000       29.16533        0.19621        -999.25      110.30507        1.26904        0.90905        0.80901       14.39517      -16.06534       11.37549        0.08163
10500.00000       31.64517        0.25984        -999.25      109.79691        1.21090        0.92003        0.84627       13.66937      -13.09800       -3.02176        0.08367
10500.50000       34.51157        0.28941        -999.25      108.87854        1.11916        0.95780        0.90539       15.09129       -9.94289       -1.61047        0.10408
10501.00000       36.51116        0.35635        -999.25      108.36732        1.03826        0.95091        0.90819       16.43003       -7.56330       -0.19918        0.11341
10501.50000       40.28398        0.43375        -999.25      107.34793        0.92080        0.91067        0.91109       17.89048       -6.06943       -4.23144        0.12004
10502.00000       41.74443        0.51116        -999.25      106.19079        0.83523        0.87205        0.91392       19.31563       -4.57147      -29.43304        0.11824
10502.50000       42.35295        0.51116        -999.25      104.48875        0.78952        0.86302        0.90913       20.20285       -3.34698      -54.63464        0.11645
10503.00000       42.71806        0.38945        -999.25      103.60406        0.76575        0.85954        0.91050       20.56796       -2.53065      -79.83624        0.11465
10503.50000       43.69169        0.26775        -999.25      103.94691        0.76166        0.87837        0.93648       20.81137       -1.71433      -55.84432        0.12245
10504.00000       44.17850        0.17039        -999.25      103.92855        0.78237        0.89761        0.96320       21.17648        0.03669      -31.85239        0.12912
10504.50000       43.69169        0.14604        -999.25      102.90610        0.78656        0.90115        0.98513       21.54159        3.19180       -7.86047        0.12171
10505.00000       43.32658        0.17039        -999.25      100.72957        0.78656        0.89416        0.98513       21.41989        6.12241       16.13145        0.11429
10505.50000       44.17850        0.24341        -999.25       98.55610        0.79846        0.89358        1.00510       20.68966        7.22853       19.15565        0.10529
10506.00000       45.15213        0.34077        -999.25       96.37957        0.85320        0.92661        1.05524       19.71603        6.93873       16.93791        0.09629
10506.50000       42.04869        0.38945        -999.25       93.15610        0.92253        0.99255        1.17730       18.62070        5.46935       14.31694        0.08547
10507.00000       36.87627        0.41379        -999.25       90.21120        0.98513        1.06319        1.24347       18.49900        4.08159       12.09920        0.11020
10507.50000       34.56390        0.41379        -999.25       88.16324        0.99441        1.12073        1.24545       18.98581        2.04078        9.88146        0.13878
10508.00000       34.98986        0.41379        -999.25       89.97549        0.96592        1.10767        1.22518       19.71603       -0.00004        7.66372        0.14898
10508.50000       37.11968        0.35099        -999.25       92.92038        0.91067        1.06668        1.17454       19.95944       -2.04086        5.44598        0.13469
10509.00000       39.59392        0.28698        -999.25       95.86222        0.86699        1.02356        1.13395       19.71603       -2.04086        3.22824        0.11633
10509.50000       42.29940        0.22296        -999.25       99.22957        0.82541        0.98218        1.09476       19.59433       -0.28984        1.01049        0.11020
10510.00000       44.54361        0.15895        -999.25      102.88161        0.79063        0.94247        1.05692       19.83774        3.38363       -1.20725        0.10612
10510.50000       44.66532        0.14604        -999.25      106.53059        0.76410        0.90437        1.02596       19.83774        7.55098       -3.42499        0.09796
10511.00000       43.56998        0.16235        -999.25      106.01936        0.74178        0.89274        0.99965       19.83774        6.89384       -5.64273        0.10204
10511.50000       42.96146        0.20276        -999.25      105.51120        0.73887        0.88756        0.99750       19.71603        3.71833       -7.86047        0.10816
10512.00000       42.71806        0.21907        -999.25      105.56936        0.74192        0.88233        1.00143       20.08115        2.22445      -10.07821        0.12041
10512.50000       43.56998        0.21907        -999.25      106.00712        0.73396        0.87205        0.99339       20.32455        1.85710      -12.29595        0.11965
10513.00000       44.05680        0.17477        -999.25      106.53059        0.72602        0.85850        0.96782       19.95944        1.79996      -14.91692        0.12041
10513.50000       43.21583        0.11951        -999.25      105.51120        0.72629        0.86083        0.95780       19.59433        2.07751      -17.13466        0.13061
10514.00000       42.16430        0.10783        -999.25      104.48875        0.73197        0.86699        0.97593       19.35092        2.35506      -19.35240        0.13324
10514.50000       41.74443        0.12511        -999.25      103.46936        0.73776        0.88027        0.98513       19.35092        2.63261      -21.57014        0.12449
10515.00000       41.81136        0.14264        -999.25      102.44997        0.74352        0.85987        0.96230       19.71603        3.02037      -23.58627        0.11573
10515.50000       41.97688        0.12170        -999.25      101.75508        0.72629        0.83994        0.94353       20.44626        4.08159      -25.80401        0.10459
10516.00000       42.23124        0.09128        -999.25      102.95814        0.70946        0.82047        0.92600       21.17648        6.12241      -28.02175        0.09184
10516.50000       42.23124        0.06085        -999.25      106.53059        0.69302        0.80146        0.90879       21.54159        6.93873      -30.03788        0.08302
10517.00000       42.35295        0.05331        -999.25      108.06120        0.68334        0.80394        0.90539       21.29818        4.89792      -32.25562        0.09002
10517.50000       41.98783        0.06085        -999.25      106.53059        0.67906        0.81663        0.90539       20.93307        2.85710      -34.27175        0.09700
10518.00000       41.98783        0.06840        -999.25      106.68365        0.68462        0.82820        0.90981       21.05478        2.58363      -36.48949        0.10398
