~Version ---------------------------------------------------
VERS. 2.0 : CWLS LOG ASCII STANDARD - VERSION 2.0
WRAP. NO  : One line per depth step
DLM . SPACE : Column Data Section Delimiter
~Well ------------------------------------------------------
STRT.F       4400.5 : START DEPTH
STOP.F        14502 : STOP DEPTH
STEP.F          0.5 : STEP
NULL.       -999.25 : NULL VALUE
COMP.            PALACE OPERATING COMPANY : COMPANY
WELL.         235305-SL18350-002-18350-29 : WELL
FLD .               BELLE ISLE, SOUTHWEST : FIELD
CNTY.                            ST. MARY : COUNTY
STAT.                           LOUISIANA : STATE
CTRY.                                 USA : COUNTRY
SEC .                                     : SECTION
TWP .                                     : TOWNSHIP
RGE .                                     : RANGE
LOC . LAT 29 29' 27.731" LONG 91 31' 11.823" : LOCATION
EKB .F                       42 : ELEVATION KELLY BUSHING
EDF .F                       41 : ELEVATION DERRICK FLOOR
EGL .F                       -8 : ELEVATION GROUND LEVEL
PDAT.                       MSL : PERMANENT DATUM
EPD .                           : ELEVATION PERMANENT DATUM
APD .                        42 : ABOVE PERMANENT DATUM
LMF .                        KB : LOG MEASURED FROM
DMF .                        KB : DRILLING MEASURED FROM
API .            17101223030000 : API NUMBER
UWI .                           : UWI NUMBER
DIGC.                     NthDS : DIGITIZING COMPANY
~Params ----------------------------------------------------
SRVC.              BAKER HUGHES : LOGGING COMPANY
LOG .         HDIL/ZDEN/CNL/MAA : LOG
DATE.                2007-05-03 : RUN DATE
RUN .                         1 : RUN NUMBER
TDD .F                    12700 : TOTAL DEPTH DRILLER
TDL .F                    12702 : TOTAL DEPTH LOGGER
BOTL.F                    12694 : BOTTOM LOGGED INTERVAL
TOPL.F                     4475 : TOP LOGGED INTERVAL
CSGS.IN                  13.375 : CASING SIZE
CSGD.F                     4510 : CASING DRILLER
CSGL.F                     4514 : CASING LOGGER
BS  .IN                   12.25 : BIT SIZE
MUD .                     LIGNO : MUD TYPE
MUDD.                      10.8 : MUD DENSITY
MUDV.                        42 : MUD VISCOSITY
PH  .                       9.8 : MUD PH
FL  .                       3.8 : FLUID LOSS
MUDS.                       PIT : SOURCE OF SAMPLE
RM  .OHMM                 0.405 : MUD RESISTIVITY
RMT .DEGF                    85 : RM TEMPERATURE
RMF .OHMM                 0.304 : MUD FILTRATE RESISTIVITY
RMFT.DEGF                    85 : RMF TEMPERATURE
RMC .OHMM                 0.506 : MUD CAKE RESISTIVITY
RMCT.DEGF                    85 : RMC TEMPERATURE
RMFS.                CALCULATED : RMF SOURCE
RMCS.                CALCULATED : RMC SOURCE
RMBH.OHMM                 0.282 : MUD RESISTIVITY AT BHT
BHT .DEGF                   191 : BOTTOM HOLE TEMPERATURE
TIMC.                           : TIME CIRCULATION STOPPED
TIML.                           : TIME LOGGER ON BOTTOM
TMAX.DEGF                   191 : MAXIMUM RECORDED TEMPERATURE
UNIT.                    HL4125 : EQUIPMENT NUMBER
BASE.                  PEARLAND : BASE LOCATION
ENG .                      CASE : RECORDED BY
WIT .                    ARDOIN : WITNESSED BY
#
SRVC.              BAKER HUGHES : LOGGING COMPANY
LOG .         HDIL/ZDEN/CNL/MAA : LOG
DATE.                2007-05-11 : RUN DATE
RUN .                         2 : RUN NUMBER
TDD .F                    13580 : TOTAL DEPTH DRILLER
TDL .F                    13588 : TOTAL DEPTH LOGGER
BOTL.F                    13579 : BOTTOM LOGGED INTERVAL
TOPL.F                    11990 : TOP LOGGED INTERVAL
CSGS.IN                   9.625 : CASING SIZE
CSGD.F                    12700 : CASING DRILLER
CSGL.F                    12700 : CASING LOGGER
BS  .IN                     8.5 : BIT SIZE
MUD .           WATER BASED MUD : MUD TYPE
MUDD.                      15.7 : MUD DENSITY
MUDV.                        46 : MUD VISCOSITY
PH  .                      10.8 : MUD PH
FL  .                       2.8 : FLUID LOSS
MUDS.                  FLOWLINE : SOURCE OF SAMPLE
RM  .OHMM                 0.802 : MUD RESISTIVITY
RMT .DEGF                    75 : RM TEMPERATURE
RMF .OHMM                   0.6 : MUD FILTRATE RESISTIVITY
RMFT.DEGF                    75 : RMF TEMPERATURE
RMC .OHMM                   1.0 : MUD CAKE RESISTIVITY
RMCT.DEGF                    75 : RMC TEMPERATURE
RMFS.                  MEASURED : RMF SOURCE
RMCS.                  MEASURED : RMC SOURCE
RMBH.OHMM                  0.29 : MUD RESISTIVITY AT BHT
BHT .DEGF                   220 : BOTTOM HOLE TEMPERATURE
TIMC.                           : TIME CIRCULATION STOPPED
TIML.                           : TIME LOGGER ON BOTTOM
TMAX.DEGF                   220 : MAXIMUM RECORDED TEMPERATURE
UNIT.                    HL6659 : EQUIPMENT NUMBER
BASE.                 BROUSSARD : BASE LOCATION
ENG .                 N.FRAICHE : RECORDED BY
WIT .                  S.VESTAL : WITNESSED BY
#
SRVC.              BAKER HUGHES : LOGGING COMPANY
LOG .         HDIL/ZDEN/CNL/MAA : LOG
DATE.                2007-05-11 : RUN DATE
RUN .                         3 : RUN NUMBER
TDD .F                    14504 : TOTAL DEPTH DRILLER
TDL .F                    14506 : TOTAL DEPTH LOGGER
BOTL.F                    14508 : BOTTOM LOGGED INTERVAL
TOPL.F                    13583 : TOP LOGGED INTERVAL
CSGS.IN                   7.625 : CASING SIZE
CSGD.F                    13575 : CASING DRILLER
CSGL.F                    13583 : CASING LOGGER
BS  .IN                     6.5 : BIT SIZE
MUD .           WATER BASED MUD : MUD TYPE
MUDD.                      17.2 : MUD DENSITY
MUDV.                        49 : MUD VISCOSITY
PH  .                      10.5 : MUD PH
FL  .                      11.2 : FLUID LOSS
MUDS.                  FLOWLINE : SOURCE OF SAMPLE
RM  .OHMM                 0.202 : MUD RESISTIVITY
RMT .DEGF                    75 : RM TEMPERATURE
RMF .OHMM                 0.401 : MUD FILTRATE RESISTIVITY
RMFT.DEGF                    75 : RMF TEMPERATURE
RMC .OHMM                  2.35 : MUD CAKE RESISTIVITY
RMCT.DEGF                    75 : RMC TEMPERATURE
RMFS.                  MEASURED : RMF SOURCE
RMCS.                  MEASURED : RMC SOURCE
RMBH.OHMM                 0.292 : MUD RESISTIVITY AT BHT
BHT .DEGF                   245 : BOTTOM HOLE TEMPERATURE
TIMC.                           : TIME CIRCULATION STOPPED
TIML.                           : TIME LOGGER ON BOTTOM
TMAX.DEGF                   245 : MAXIMUM RECORDED TEMPERATURE
UNIT.                    HL6659 : EQUIPMENT NUMBER
BASE.                 BROUSSARD : BASE LOCATION
ENG .      J.SPENCER/C.BRICONER : RECORDED BY
WIT .                 D. MATHIS : WITNESSED BY
~Curve Information -----------------------------------------
DEPT.F          :DEPTH
CNCF.%          :
DCAL.IN         :
DT.US/F         :
GR.GAPI         :
M2R1.OHMM       :
M2R3.OHMM       :
M2R9.OHMM       :
PORZ.%          :
SP.MV           :
TENS.LBF        :
ZCOR.G/CC       :
~ASCII ------------------------------------------------------
# ...
12473.50000       44.67006        2.14362       75.03471       83.48875        0.86140        0.87533        0.91298       14.56620        2.44894      105.98467        0.07524
12474.00000       47.66884        2.23112       73.67349       83.83773        0.85584        0.89190        0.92253       14.17516        2.44894      108.15770        0.06775
12474.50000       48.26884        2.31837       71.08369       82.20304        0.83601        0.90140        0.91641       14.41956        2.44894      104.88720        0.06408
12475.00000       46.69247        2.36529       68.49390       80.57141        0.81663        0.88159        0.90658       14.78616        1.28159       92.94737        0.07257
12475.50000       43.53972        2.34892       66.93880       80.33876        0.79562        0.86221        0.89065       15.27496       -1.22453       80.80594        0.09069
12476.00000       43.79389        2.31373       68.16329       82.21222        0.78025        0.84325        0.85987       15.64156       -2.44902       68.86611        0.10073
12476.50000       47.07740        2.27291       73.67349       84.21120        0.78553        0.83734        0.85128       16.13036       -3.26535       56.92629        0.10539
12477.00000       48.75764        2.23210       80.81634       86.29896        0.79928        0.85048        0.86189       15.76376       -3.26535       44.98647        0.10233
12477.50000       49.06314        2.19153       88.41838       86.69386        0.81556        0.86391        0.89274       15.15276       -3.67351       33.04664        0.08775
12478.00000       48.91039        2.15071       92.09185       84.55100        0.83210        0.87755        0.90403       14.41956       -3.67351       21.10682        0.07318
12478.50000       46.97353        2.12627       90.02859       82.40814        0.84897        0.87369        0.90183       13.93077       -3.26535        6.69838        0.06998
12479.00000       44.59064        2.12627       84.48981       81.02141        0.84310        0.86391        0.89912       14.05296       -2.85718       10.48431        0.07522
12479.50000       42.94094        2.12627       81.99594       80.84998        0.82743        0.87557        0.89694       14.51977       -2.04086       14.27024        0.07959
12480.00000       42.45214        2.07739       79.79594       81.71937        0.81205        0.88740        0.91109       15.10266       -2.44902       18.05617        0.08396
12480.50000       42.25662        2.01629       78.77553       82.84590        0.79696        0.89274        0.90539       15.68555       -2.85718       21.84209        0.09137
12481.00000       42.94461        1.95519       78.86124       83.97549        0.79398        0.87205        0.89576       16.26966       -2.44902       25.62802        0.10078
12481.50000       44.29736        1.89409       78.94492       85.10202        0.79509        0.85184        0.88973       16.61916       -2.85718       29.41395        0.11020
12482.00000       45.65011        1.83299       78.70818       84.48977        0.79801        0.85472        0.88582       16.61916       -2.53065       33.19988        0.09165
12482.50000       46.19145        1.82811       78.25308       83.87753        0.80086        0.86334        0.88233       16.00816       -2.58779       36.98581        0.07310
12483.00000       46.19145        1.82297       77.80002       83.26529        0.80146        0.87205        0.88440       15.15276       -2.64902       40.77173        0.06531
12483.50000       44.09695        1.81711       77.27961       82.65304        0.81663        0.87459        0.89483       14.54176       -2.70616       44.55766        0.06020
12484.00000       41.95479        1.81198       76.93879       83.63569        0.83554        0.87722        0.90539       14.29736       -2.76330       48.34359        0.05510
12484.50000       39.71487        1.80709       78.10410       84.62141        0.85320        0.87977        0.91606       14.05296       -2.82045       52.12952        0.05829
12485.00000       39.71487        1.80195       80.58369       85.05916        0.86043        0.88233        0.92080       13.56417       -2.85718       55.91544        0.06149
12485.50000       40.26110        1.79707       85.10206       83.30814        0.85184        0.88490        0.91649       13.07537       -3.26535       59.70137        0.06467
12486.00000       40.94420        1.79218       90.20410       84.13773        0.84160        0.88806        0.91109       13.07537       -3.26535       63.48730        0.08108
12486.50000       41.62730        1.78705       95.30614       85.31324        0.83319        0.88027        0.90632       13.56417       -3.26535       57.59584        0.09684
12487.00000       42.76986        1.75063      100.49593       86.02039        0.82487        0.86911        0.89576       13.93077       -3.26535       50.44545        0.10000
12487.50000       44.23626        1.66705      104.96532       86.02039        0.81663        0.85440        0.87755       13.93077       -2.85718       44.55399        0.10000
12488.00000       44.23626        1.58346      106.32654       86.45814        0.80545        0.83994        0.85048       13.56417       -2.44902       38.66253        0.10000
12488.50000       41.73117        1.49988      105.88981       87.00304        0.79442        0.82572        0.83210       13.58861       -2.85718       32.77107        0.12616
12489.00000       39.22607        1.35642      104.12246       87.55100        0.78355        0.81175        0.81917       13.64971       -2.85718       26.87962        0.16975
12489.50000       39.11487        1.17312      101.46940       87.16835        0.77922        0.80901        0.80901       14.21549       -2.85718       20.98816        0.19694
12490.00000       39.00367        0.98982       98.81634       86.78569        0.79100        0.81817        0.82379       15.32140       -3.26535       15.09670        0.18835
12490.50000       39.89817        0.76644       95.91838       86.40304        0.82124        0.83366        0.84897       15.54991       -3.26535        9.20524        0.17731
12491.00000       41.05907        0.53328       92.85716       86.97855        0.83272        0.84945        0.87500       15.76376       -2.85718        3.11217        0.18622
12491.50000       42.28106        0.20163       89.79593       87.79590        0.81487        0.84849        0.86512       17.42201       -2.85718       -2.77929        0.18122
12492.00000       42.67821       -0.21654       85.65104       88.61324        0.79741        0.83632        0.84666       18.08555       -3.26535       -8.67074        0.16463
12492.50000       42.11854       -0.32114       81.41226       89.67243        0.79398        0.82433        0.83648       16.80245       -3.67351      -14.56220        0.14649
12493.00000       41.67007       -0.34216       77.17349       91.01936        0.81602        0.84191        0.86302       15.25907       -3.67351      -20.45366        0.12365
12493.50000       41.87903       -0.26468       75.02043       92.14283        0.83860        0.85681        0.88582       13.96131       -4.08167      -26.34512        0.10445
12494.00000       42.92750       -0.13589       76.93879       91.25814        0.84785        0.87205        0.90913       13.07537       -4.08167      -32.23657        0.08522
12494.50000       43.13646       -0.00684       81.46940       90.37039        0.83210        0.85793        0.89232       13.07537       -3.67351      -38.12803        0.07755
12495.00000       42.03666        0.12220       86.53063       89.48569        0.80651        0.84405        0.86610       13.68637       -2.44902      -39.38241        0.08122
12495.50000       41.02852        0.20774       91.02042       88.46937        0.78164        0.83038        0.85512       14.54176       -1.63269      -32.01673        0.09959
12496.00000       42.06110        0.29328       93.97961       86.93875        0.77412        0.81694        0.85400       14.66396       -1.63269      -26.01306        0.11224
