~Version ---------------------------------------------------
VERS. 2.0 : CWLS LOG ASCII STANDARD - VERSION 2.0
WRAP. NO  : One line per depth step
DLM . SPACE : Column Data Section Delimiter
~Well ------------------------------------------------------
STRT.F       4400.5 : START DEPTH
STOP.F        14502 : STOP DEPTH
STEP.F          0.5 : STEP
NULL.       -999.25 : NULL VALUE
COMP.            PALACE OPERATING COMPANY : COMPANY
WELL.         235305-SL18350-002-18350-29 : WELL
FLD .               BELLE ISLE, SOUTHWEST : FIELD
CNTY.                            ST. MARY : COUNTY
STAT.                           LOUISIANA : STATE
CTRY.                                 USA : COUNTRY
SEC .                                     : SECTION
TWP .                                     : TOWNSHIP
RGE .                                     : RANGE
LOC . LAT 29 29' 27.731" LONG 91 31' 11.823" : LOCATION
EKB .F                       42 : ELEVATION KELLY BUSHING
EDF .F                       41 : ELEVATION DERRICK FLOOR
EGL .F                       -8 : ELEVATION GROUND LEVEL
PDAT.                       MSL : PERMANENT DATUM
EPD .                           : ELEVATION PERMANENT DATUM
APD .                        42 : ABOVE PERMANENT DATUM
LMF .                        KB : LOG MEASURED FROM
DMF .                        KB : DRILLING MEASURED FROM
API .            17101223030000 : API NUMBER
UWI .                           : UWI NUMBER
DIGC.                     NthDS : DIGITIZING COMPANY
~Params ----------------------------------------------------
SRVC.              BAKER HUGHES : LOGGING COMPANY
LOG .         HDIL/ZDEN/CNL/MAA : LOG
DATE.                2007-05-03 : RUN DATE
RUN .                         1 : RUN NUMBER
TDD .F                    12700 : TOTAL DEPTH DRILLER
TDL .F                    12702 : TOTAL DEPTH LOGGER
BOTL.F                    12694 : BOTTOM LOGGED INTERVAL
TOPL.F                     4475 : TOP LOGGED INTERVAL
CSGS.IN                  13.375 : CASING SIZE
CSGD.F                     4510 : CASING DRILLER
CSGL.F                     4514 : CASING LOGGER
BS  .IN                   12.25 : BIT SIZE
MUD .                     LIGNO : MUD TYPE
MUDD.                      10.8 : MUD DENSITY
MUDV.                        42 : MUD VISCOSITY
PH  .                       9.8 : MUD PH
FL  .                       3.8 : FLUID LOSS
MUDS.                       PIT : SOURCE OF SAMPLE
RM  .OHMM                 0.405 : MUD RESISTIVITY
RMT .DEGF                    85 : RM TEMPERATURE
RMF .OHMM                 0.304 : MUD FILTRATE RESISTIVITY
RMFT.DEGF                    85 : RMF TEMPERATURE
RMC .OHMM                 0.506 : MUD CAKE RESISTIVITY
RMCT.DEGF                    85 : RMC TEMPERATURE
RMFS.                CALCULATED : RMF SOURCE
RMCS.                CALCULATED : RMC SOURCE
RMBH.OHMM                 0.282 : MUD RESISTIVITY AT BHT
BHT .DEGF                   191 : BOTTOM HOLE TEMPERATURE
TIMC.                           : TIME CIRCULATION STOPPED
TIML.                           : TIME LOGGER ON BOTTOM
TMAX.DEGF                   191 : MAXIMUM RECORDED TEMPERATURE
UNIT.                    HL4125 : EQUIPMENT NUMBER
BASE.                  PEARLAND : BASE LOCATION
ENG .                      CASE : RECORDED BY
WIT .                    ARDOIN : WITNESSED BY
#
SRVC.              BAKER HUGHES : LOGGING COMPANY
LOG .         HDIL/ZDEN/CNL/MAA : LOG
DATE.                2007-05-11 : RUN DATE
RUN .                         2 : RUN NUMBER
TDD .F                    13580 : TOTAL DEPTH DRILLER
TDL .F                    13588 : TOTAL DEPTH LOGGER
BOTL.F                    13579 : BOTTOM LOGGED INTERVAL
TOPL.F                    11990 : TOP LOGGED INTERVAL
CSGS.IN                   9.625 : CASING SIZE
CSGD.F                    12700 : CASING DRILLER
CSGL.F                    12700 : CASING LOGGER
BS  .IN                     8.5 : BIT SIZE
MUD .           WATER BASED MUD : MUD TYPE
MUDD.                      15.7 : MUD DENSITY
MUDV.                        46 : MUD VISCOSITY
PH  .                      10.8 : MUD PH
FL  .                       2.8 : FLUID LOSS
MUDS.                  FLOWLINE : SOURCE OF SAMPLE
RM  .OHMM                 0.802 : MUD RESISTIVITY
RMT .DEGF                    75 : RM TEMPERATURE
RMF .OHMM                   0.6 : MUD FILTRATE RESISTIVITY
RMFT.DEGF                    75 : RMF TEMPERATURE
RMC .OHMM                   1.0 : MUD CAKE RESISTIVITY
RMCT.DEGF                    75 : RMC TEMPERATURE
RMFS.                  MEASURED : RMF SOURCE
RMCS.                  MEASURED : RMC SOURCE
RMBH.OHMM                  0.29 : MUD RESISTIVITY AT BHT
BHT .DEGF                   220 : BOTTOM HOLE TEMPERATURE
TIMC.                           : TIME CIRCULATION STOPPED
TIML.                           : TIME LOGGER ON BOTTOM
TMAX.DEGF                   220 : MAXIMUM RECORDED TEMPERATURE
UNIT.                    HL6659 : EQUIPMENT NUMBER
BASE.                 BROUSSARD : BASE LOCATION
ENG .                 N.FRAICHE : RECORDED BY
WIT .                  S.VESTAL : WITNESSED BY
#
SRVC.              BAKER HUGHES : LOGGING COMPANY
LOG .         HDIL/ZDEN/CNL/MAA : LOG
DATE.                2007-05-11 : RUN DATE
RUN .                         3 : RUN NUMBER
TDD .F                    14504 : TOTAL DEPTH DRILLER
TDL .F                    14506 : TOTAL DEPTH LOGGER
BOTL.F                    14508 : BOTTOM LOGGED INTERVAL
TOPL.F                    13583 : TOP LOGGED INTERVAL
CSGS.IN                   7.625 : CASING SIZE
CSGD.F                    13575 : CASING DRILLER
CSGL.F                    13583 : CASING LOGGER
BS  .IN                     6.5 : BIT SIZE
MUD .           WATER BASED MUD : MUD TYPE
MUDD.                      17.2 : MUD DENSITY
MUDV.                        49 : MUD VISCOSITY
PH  .                      10.5 : MUD PH
FL  .                      11.2 : FLUID LOSS
MUDS.                  FLOWLINE : SOURCE OF SAMPLE
RM  .OHMM                 0.202 : MUD RESISTIVITY
RMT .DEGF                    75 : RM TEMPERATURE
RMF .OHMM                 0.401 : MUD FILTRATE RESISTIVITY
RMFT.DEGF                    75 : RMF TEMPERATURE
RMC .OHMM                  2.35 : MUD CAKE RESISTIVITY
RMCT.DEGF                    75 : RMC TEMPERATURE
RMFS.                  MEASURED : RMF SOURCE
RMCS.                  MEASURED : RMC SOURCE
RMBH.OHMM                 0.292 : MUD RESISTIVITY AT BHT
BHT .DEGF                   245 : BOTTOM HOLE TEMPERATURE
TIMC.                           : TIME CIRCULATION STOPPED
TIML.                           : TIME LOGGER ON BOTTOM
TMAX.DEGF                   245 : MAXIMUM RECORDED TEMPERATURE
UNIT.                    HL6659 : EQUIPMENT NUMBER
BASE.                 BROUSSARD : BASE LOCATION
ENG .      J.SPENCER/C.BRICONER : RECORDED BY
WIT .                 D. MATHIS : WITNESSED BY
~Curve Information -----------------------------------------
DEPT.F          :DEPTH
CNCF.%          :
DCAL.IN         :
DT.US/F         :
GR.GAPI         :
M2R1.OHMM       :
M2R3.OHMM       :
M2R9.OHMM       :
PORZ.%          :
SP.MV           :
TENS.LBF        :
ZCOR.G/CC       :
~ASCII ------------------------------------------------------
# ...
9828.50000       30.80163        0.48437        -999.25       97.04079        1.43172        1.00379        0.84785       13.72471       -3.26535       90.92980        0.11345
9829.00000       29.99029        0.55579        -999.25       96.58161        1.39382        0.97292        0.83272       14.45345       -4.77555       87.09916        0.12598
9829.50000       29.12916        0.62721        -999.25       93.64589        1.36152        0.94291        0.81778       14.81783       -8.24494       83.26852        0.13849
9830.00000       28.29960        0.67725        -999.25       90.16834        1.38081        0.96050        0.83210       14.08908      -10.40820       79.63949        0.15102
9830.50000       27.57086        0.71296        -999.25       87.34590        1.50949        1.01135        0.89274       11.65993       -7.34698       75.80884        0.13061
9831.00000       27.44940        0.74866        -999.25       84.96733        1.77874        1.09220        0.95287        9.95953       -6.12249       71.97820        0.09659
9831.50000       27.20649        0.82591        -999.25       84.97957        1.77874        1.15542        1.02895        9.71661       -5.71432       67.34111        0.07449
9832.00000       27.93523        0.94737        -999.25       88.33161        1.54820        1.10767        1.01896       10.44536       -3.67351       63.51046        0.10000
9832.50000       28.90689        1.06883        -999.25       92.36630        1.32747        1.06189        0.99069       11.05264       -1.63269       60.08305        0.12041
9833.00000       30.24292        1.19028        -999.25       94.59181        1.25955        1.12864        1.02001       11.90285        0.40812       56.65563        0.12041
9833.50000       31.37612        1.31951        -999.25       93.67345        1.24545        1.15803        1.11288       13.60325       -1.22453       53.42982        0.09388
9834.00000       34.61539        1.46016        -999.25       92.14283        1.17973        1.12642        1.08882       14.69637       -3.26535       50.20402        0.09388
9834.50000       36.68017        1.60057        -999.25       90.91834        1.10249        1.09579        1.06518       16.39677       -5.30616       46.97821        0.11378
9835.00000       36.02673        1.74121        -999.25       90.30610        1.10591        1.08403        1.04216       16.27531       -5.63269       43.75241        0.12653
9835.50000       32.76316        1.81215        -999.25       90.91834        1.15423        1.14464        1.09991       15.06074       -4.81637       40.52660        0.11633
9836.00000       30.72875        1.83644        -999.25       92.75508        1.20331        1.19959        1.16872       14.08908       -5.53881       37.30080        0.10612
9836.50000       30.24292        1.80510        -999.25       93.97957        1.22690        1.25719        1.25719       13.72471       -7.28983       34.07499        0.13124
9837.00000       30.36438        1.73684        -999.25       93.67345        1.20976        1.24464        1.24990       13.72471       -9.03677       30.64758        0.15637
9837.50000       30.48584        1.66858        -999.25       88.25202        1.19959        1.23221        1.24545       13.36034       -7.75514       27.42177        0.16667
9838.00000       30.72875        1.60324        -999.25       87.15610        1.19241        1.21522        1.24079       12.99596       -4.18371       23.59113        0.15216
9838.50000       30.48584        1.78542        -999.25       89.38773        1.15737        1.19746        1.21773       13.60325       -1.67759       20.97016        0.12720
9839.00000       30.36438        1.96761        -999.25       92.44896        1.12336        1.18006        1.19510       14.45345       -0.77147       20.97016        0.11463
9839.50000       29.51418        1.87652        -999.25       93.36732        1.09220        1.17234        1.18062       14.57491       -1.02045       20.97016        0.12057
9840.00000       29.02835        1.82186        -999.25       92.44896        1.12052        1.20263        1.19734       14.21054       -2.04086       20.97016        0.12653
9840.50000       28.42106        2.01619        -999.25       91.22447        1.14948        1.23383        1.22231       13.72471       -3.26535       20.97016        0.11888
9841.00000       28.90689        2.25911        -999.25       90.30610        1.13395        1.21090        1.21090       13.48179       -1.12249       20.97016        0.11122
9841.50000       29.39272        2.36332        -999.25       92.75508        1.11288        1.18839        1.20151       13.72471        3.46935       20.97016        0.10357
9842.00000       29.51418        2.42915        -999.25       94.89794        1.11288        1.22805        1.21192       13.72471        6.93873       20.97016        0.09439
9842.50000       30.00001        2.33563        -999.25       97.19385        1.15077        1.26904        1.27560       13.36034        6.53057       20.97016        0.08349
9843.00000       30.60729        2.24235        -999.25       96.83569        1.23881        1.31139        1.34250       12.87451        5.51016       20.97016        0.06771
9843.50000       31.52673        2.18623        -999.25       94.79691        1.23916        1.35515        1.36792       12.99596        8.77547       20.97016        0.05573
9844.00000       33.40082        2.41700        -999.25       92.75508        1.21260        1.29914        1.30635       13.96762       12.24485       20.97016        0.05892
9844.50000       32.40487        2.60939        -999.25       90.45916        1.19712        1.25424        1.25719       14.69637       10.84486       20.97016        0.06212
9845.00000       29.91499        2.63563        -999.25       88.46937        1.19085        1.27704        1.28099       14.57491        8.26526       20.97016        0.06531
9845.50000       28.42106        2.60648        -999.25       89.99998        1.20523        1.31755        1.34250       13.84617        2.75506       20.97016        0.07755
9846.00000       28.83037        2.52146        -999.25       91.22447        1.23383        1.35935        1.38951       13.36034       -1.58371       20.97016        0.08980
9846.50000       30.88057        2.45344        -999.25       91.22447        1.20049        1.31755        1.36792       13.60325       -2.44902       20.97016        0.10204
9847.00000       31.61904        2.45344        -999.25       91.22447        1.12907        1.25719        1.29307       14.08908        1.63261       20.16371        0.11429
9847.50000       31.21458        2.35870        -999.25       91.22447        1.06189        1.23036        1.22231       14.21054        5.71424       19.15565        0.10553
9848.00000       31.21458        2.20081        -999.25       91.53059        1.06189        1.25072        1.22231       14.21054        5.98771       17.94597        0.09184
9848.50000       31.63968        2.13765        -999.25       92.14283        1.12410        1.27142        1.28099       13.96762        3.67343       16.93791        0.08163
9849.00000       32.06478        2.13765        -999.25       92.44896        1.18996        1.29246        1.31483       13.72471        0.27343       15.92984        0.07755
9849.50000       30.88057        2.13765        -999.25       92.14283        1.24592        1.31348        1.34464       13.96762       -2.44902       14.92178        0.08804
9850.00000       29.10972        2.09441        -999.25       92.14283        1.24791        1.32822        1.35515       14.21054       -0.73473       13.91371        0.10335
9850.50000       27.51516        1.98521        -999.25       92.14283        1.25049        1.31755        1.33622       14.42425        4.48975       -7.65886        0.12765
9851.00000       27.39395        1.98182        -999.25       93.67345        1.25260        1.30881        1.33534       14.18183        4.89792       -8.66692        0.13673
