~Version ---------------------------------------------------
VERS. 2.0 : CWLS LOG ASCII STANDARD - VERSION 2.0
WRAP. NO  : One line per depth step
DLM . SPACE : Column Data Section Delimiter
~Well ------------------------------------------------------
STRT.F       4400.5 : START DEPTH
STOP.F        14502 : STOP DEPTH
STEP.F          0.5 : STEP
NULL.       -999.25 : NULL VALUE
COMP.            PALACE OPERATING COMPANY : COMPANY
WELL.         235305-SL18350-002-18350-29 : WELL
FLD .               BELLE ISLE, SOUTHWEST : FIELD
CNTY.                            ST. MARY : COUNTY
STAT.                           LOUISIANA : STATE
CTRY.                                 USA : COUNTRY
SEC .                                     : SECTION
TWP .                                     : TOWNSHIP
RGE .                                     : RANGE
LOC . LAT 29 29' 27.731" LONG 91 31' 11.823" : LOCATION
EKB .F                       42 : ELEVATION KELLY BUSHING
EDF .F                       41 : ELEVATION DERRICK FLOOR
EGL .F                       -8 : ELEVATION GROUND LEVEL
PDAT.                       MSL : PERMANENT DATUM
EPD .                           : ELEVATION PERMANENT DATUM
APD .                        42 : ABOVE PERMANENT DATUM
LMF .                        KB : LOG MEASURED FROM
DMF .                        KB : DRILLING MEASURED FROM
API .            17101223030000 : API NUMBER
UWI .                           : UWI NUMBER
DIGC.                     NthDS : DIGITIZING COMPANY
~Params ----------------------------------------------------
SRVC.              BAKER HUGHES : LOGGING COMPANY
LOG .         HDIL/ZDEN/CNL/MAA : LOG
DATE.                2007-05-03 : RUN DATE
RUN .                         1 : RUN NUMBER
TDD .F                    12700 : TOTAL DEPTH DRILLER
TDL .F                    12702 : TOTAL DEPTH LOGGER
BOTL.F                    12694 : BOTTOM LOGGED INTERVAL
TOPL.F                     4475 : TOP LOGGED INTERVAL
CSGS.IN                  13.375 : CASING SIZE
CSGD.F                     4510 : CASING DRILLER
CSGL.F                     4514 : CASING LOGGER
BS  .IN                   12.25 : BIT SIZE
MUD .                     LIGNO : MUD TYPE
MUDD.                      10.8 : MUD DENSITY
MUDV.                        42 : MUD VISCOSITY
PH  .                       9.8 : MUD PH
FL  .                       3.8 : FLUID LOSS
MUDS.                       PIT : SOURCE OF SAMPLE
RM  .OHMM                 0.405 : MUD RESISTIVITY
RMT .DEGF                    85 : RM TEMPERATURE
RMF .OHMM                 0.304 : MUD FILTRATE RESISTIVITY
RMFT.DEGF                    85 : RMF TEMPERATURE
RMC .OHMM                 0.506 : MUD CAKE RESISTIVITY
RMCT.DEGF                    85 : RMC TEMPERATURE
RMFS.                CALCULATED : RMF SOURCE
RMCS.                CALCULATED : RMC SOURCE
RMBH.OHMM                 0.282 : MUD RESISTIVITY AT BHT
BHT .DEGF                   191 : BOTTOM HOLE TEMPERATURE
TIMC.                           : TIME CIRCULATION STOPPED
TIML.                           : TIME LOGGER ON BOTTOM
TMAX.DEGF                   191 : MAXIMUM RECORDED TEMPERATURE
UNIT.                    HL4125 : EQUIPMENT NUMBER
BASE.                  PEARLAND : BASE LOCATION
ENG .                      CASE : RECORDED BY
WIT .                    ARDOIN : WITNESSED BY
#
SRVC.              BAKER HUGHES : LOGGING COMPANY
LOG .         HDIL/ZDEN/CNL/MAA : LOG
DATE.                2007-05-11 : RUN DATE
RUN .                         2 : RUN NUMBER
TDD .F                    13580 : TOTAL DEPTH DRILLER
TDL .F                    13588 : TOTAL DEPTH LOGGER
BOTL.F                    13579 : BOTTOM LOGGED INTERVAL
TOPL.F                    11990 : TOP LOGGED INTERVAL
CSGS.IN                   9.625 : CASING SIZE
CSGD.F                    12700 : CASING DRILLER
CSGL.F                    12700 : CASING LOGGER
BS  .IN                     8.5 : BIT SIZE
MUD .           WATER BASED MUD : MUD TYPE
MUDD.                      15.7 : MUD DENSITY
MUDV.                        46 : MUD VISCOSITY
PH  .                      10.8 : MUD PH
FL  .                       2.8 : FLUID LOSS
MUDS.                  FLOWLINE : SOURCE OF SAMPLE
RM  .OHMM                 0.802 : MUD RESISTIVITY
RMT .DEGF                    75 : RM TEMPERATURE
RMF .OHMM                   0.6 : MUD FILTRATE RESISTIVITY
RMFT.DEGF                    75 : RMF TEMPERATURE
RMC .OHMM                   1.0 : MUD CAKE RESISTIVITY
RMCT.DEGF                    75 : RMC TEMPERATURE
RMFS.                  MEASURED : RMF SOURCE
RMCS.                  MEASURED : RMC SOURCE
RMBH.OHMM                  0.29 : MUD RESISTIVITY AT BHT
BHT .DEGF                   220 : BOTTOM HOLE TEMPERATURE
TIMC.                           : TIME CIRCULATION STOPPED
TIML.                           : TIME LOGGER ON BOTTOM
TMAX.DEGF                   220 : MAXIMUM RECORDED TEMPERATURE
UNIT.                    HL6659 : EQUIPMENT NUMBER
BASE.                 BROUSSARD : BASE LOCATION
ENG .                 N.FRAICHE : RECORDED BY
WIT .                  S.VESTAL : WITNESSED BY
#
SRVC.              BAKER HUGHES : LOGGING COMPANY
LOG .         HDIL/ZDEN/CNL/MAA : LOG
DATE.                2007-05-11 : RUN DATE
RUN .                         3 : RUN NUMBER
TDD .F                    14504 : TOTAL DEPTH DRILLER
TDL .F                    14506 : TOTAL DEPTH LOGGER
BOTL.F                    14508 : BOTTOM LOGGED INTERVAL
TOPL.F                    13583 : TOP LOGGED INTERVAL
CSGS.IN                   7.625 : CASING SIZE
CSGD.F                    13575 : CASING DRILLER
CSGL.F                    13583 : CASING LOGGER
BS  .IN                     6.5 : BIT SIZE
MUD .           WATER BASED MUD : MUD TYPE
MUDD.                      17.2 : MUD DENSITY
MUDV.                        49 : MUD VISCOSITY
PH  .                      10.5 : MUD PH
FL  .                      11.2 : FLUID LOSS
MUDS.                  FLOWLINE : SOURCE OF SAMPLE
RM  .OHMM                 0.202 : MUD RESISTIVITY
RMT .DEGF                    75 : RM TEMPERATURE
RMF .OHMM                 0.401 : MUD FILTRATE RESISTIVITY
RMFT.DEGF                    75 : RMF TEMPERATURE
RMC .OHMM                  2.35 : MUD CAKE RESISTIVITY
RMCT.DEGF                    75 : RMC TEMPERATURE
RMFS.                  MEASURED : RMF SOURCE
RMCS.                  MEASURED : RMC SOURCE
RMBH.OHMM                 0.292 : MUD RESISTIVITY AT BHT
BHT .DEGF                   245 : BOTTOM HOLE TEMPERATURE
TIMC.                           : TIME CIRCULATION STOPPED
TIML.                           : TIME LOGGER ON BOTTOM
TMAX.DEGF                   245 : MAXIMUM RECORDED TEMPERATURE
UNIT.                    HL6659 : EQUIPMENT NUMBER
BASE.                 BROUSSARD : BASE LOCATION
ENG .      J.SPENCER/C.BRICONER : RECORDED BY
WIT .                 D. MATHIS : WITNESSED BY
~Curve Information -----------------------------------------
DEPT.F          :DEPTH
CNCF.%          :
DCAL.IN         :
DT.US/F         :
GR.GAPI         :
M2R1.OHMM       :
M2R3.OHMM       :
M2R9.OHMM       :
PORZ.%          :
SP.MV           :
TENS.LBF        :
ZCOR.G/CC       :
~ASCII ------------------------------------------------------
# ...
11829.50000       46.06061        0.19733        -999.25       94.28569        1.02760        0.94000        0.86797       16.94789       -4.67351       12.93173        0.11020
11830.00000       46.81212        0.21479        -999.25       93.36732        1.10249        0.97265        0.90964       15.95637       -4.74290       10.49336        0.09914
11830.50000       47.66061        0.23200        -999.25       90.71324        1.11288        1.00633        0.95180       16.24244       -4.81228        8.25660        0.08810
11831.00000       48.07273        0.27976        -999.25       87.39794        1.07563        0.98246        0.91238       17.69698       -4.88575        5.81824        0.10102
11831.50000       49.50303        0.37285        -999.25       85.63773        1.02394        0.93789        0.82782       19.63637       -4.89800        3.58148        0.13571
11832.00000       52.29455        0.46618        -999.25       88.63467        0.98282        0.90242        0.79666       20.24243       -4.89800        1.14312        0.16802
11832.50000       55.51515        0.48485        -999.25       92.28365        0.96005        0.87903        0.78871       20.84849       -4.89800       -1.09364        0.17006
11833.00000       55.63636        0.48485        -999.25       95.20406        0.94886        0.86326        0.78076       20.60607       -4.89800       -3.53200        0.16327
11833.50000       54.55394        0.42618        -999.25       94.59181        0.94504        0.84785        0.77922       19.39395       -4.89800       -5.76876        0.15647
11834.00000       53.47152        0.32824        -999.25       92.75508        0.97073        0.88856        0.82859       18.90910       -4.89800       -8.20712        0.16012
11834.50000       51.83879        0.23030        -999.25       88.77549        0.98976        0.93122        0.89467       18.06062       -4.89800       -6.00844        0.16641
11835.00000       48.00000        0.13236        -999.25       87.85712        1.01610        0.97593        0.95780       18.30304       -5.06126       -3.80975        0.17143
11835.50000       44.20243        0.03442        -999.25       85.36528        1.07997        1.02279        1.01963       18.90910       -5.98779       -1.81267        0.17143
11836.00000       40.62304       -0.13333        -999.25       82.08365        1.15185        1.07190        1.08535       19.03031       -8.36739        0.90640        0.16151
11836.50000       39.15152       -0.31515        -999.25       78.89080        1.24545        1.10767        1.06688       18.30304      -11.42861        3.10509        0.13673
11837.00000       37.68001       -0.47879        -999.25       75.72243        1.30525        1.12073        1.04637       16.84850      -14.09800        5.10216        0.11196
11837.50000       37.09091       -0.56970        -999.25       72.55100        1.30525        1.10944        1.01220       15.39395      -15.19595        7.30085        0.10265
11838.00000       37.33334       -0.60606        -999.25       71.93876        1.26975        1.04873        0.92739       15.27274      -16.51432       10.30598        0.10388
11838.50000       36.96970       -0.60606        -999.25       72.55100        1.23522        0.98513        0.87598       16.36365      -19.18371       14.11756        0.09631
11839.00000       36.59637       -0.60606        -999.25       71.63264        1.20162        0.92539        0.83077       18.66668      -22.24493       18.13075        0.08659
11839.50000       37.76243       -0.60606        -999.25       69.48978        1.17344        0.86935        0.78782       20.48486      -25.30616       22.14393        0.07688
11840.00000       38.92728       -0.59055        -999.25       67.65304        1.14894        0.82929        0.74716       21.33334      -28.36738       26.15712        0.06714
11840.50000       40.12122       -0.56461        -999.25       66.12243        1.12495        0.79928        0.71326       22.06062      -31.42860       29.96870        0.05918
11841.00000       40.36364       -0.53842        -999.25       65.81631        1.10145        0.77043        0.69909       21.33334      -31.97146       33.98188        0.06618
11841.50000       39.87879       -0.53018        -999.25       66.12243        1.08403        0.75597        0.68520       20.24243      -30.84085       37.99507        0.08367
11842.00000       38.42425       -0.52606        -999.25       67.95917        1.07059        0.74513        0.67537       19.63637      -31.97146       42.00826        0.08241
11842.50000       36.60607       -0.52194        -999.25       69.48978        1.05722        0.73603        0.67146       19.75759      -33.67350       45.81983        0.08708
11843.00000       37.21213       -0.51709        -999.25       71.93876        1.05011        0.73341        0.66750       20.96971      -34.69391       50.55501        0.10067
11843.50000       38.30304       -0.51321        -999.25       71.32651        1.04706        0.73073        0.66438       22.54546      -34.69391       79.16475        0.09782
11844.00000       39.39394       -0.50909        -999.25       69.48978        1.04343        0.72759        0.66438       23.15152      -33.29391       72.29094        0.08120
11844.50000       40.48485       -0.47709        -999.25       65.88366        1.02644        0.72500        0.66438       24.24243      -32.12656       65.41713        0.06735
11845.00000       41.57576       -0.44533        -999.25       63.67345        1.00087        0.72439        0.66438       23.15152      -31.19595       58.34171        0.08122
11845.50000       43.69697       -0.41333        -999.25       68.57141        0.97593        0.73197        0.66438       21.33334      -30.61228       51.46790        0.10571
11846.00000       44.96970       -0.38739        -999.25       68.87753        0.96682        0.74758        0.67512       20.72728      -30.02860       44.59409        0.11633
11846.50000       44.58182       -0.38448        -999.25       67.95917        0.98689        0.77579        0.69588       21.21213      -29.44493       37.72028        0.10612
11847.00000       42.64243       -0.38158        -999.25       67.34692        1.00727        0.80500        0.72745       21.09092      -28.62044       30.64486        0.09969
11847.50000       41.09091       -0.37867        -999.25       70.10202        1.02818        0.83538        0.76038       19.67274      -26.83677       23.77105        0.10833
11848.00000       41.77819       -0.37576        -999.25       75.61223        1.01801        0.85890        0.79480       17.91516      -23.22861       16.89725        0.11696
11848.50000       43.49455       -0.37285        -999.25       80.51018        1.00652        0.87771        0.80901       16.96971      -18.40412       10.02344        0.13112
11849.00000       45.21212       -0.36994        -999.25       83.26529        1.02001        0.89694        0.80901       17.69698      -15.37555        2.94802        0.14388
11849.50000       44.29091       -0.36703        -999.25       83.26529        1.06189        0.91392        0.80901       19.15153      -15.37555       -1.30485        0.15663
11850.00000       42.35152       -0.36412        -999.25       81.73467        1.11288        0.93122        0.80901       19.39395      -17.68575       20.84406        0.13469
11850.50000       41.30347       -0.44896        -999.25       77.75508        1.13395        0.87566        0.80146       19.06315      -21.22452       20.42181        0.10486
11851.00000       41.30347       -0.45800        -999.25       74.69386        1.12336        0.85320        0.80146       18.94095      -24.02861       19.99955        0.10880
11851.50000       40.81467       -0.46436        -999.25       71.63264        1.10104        0.83124        0.77776       19.79634      -26.16738       19.57730        0.11633
11852.00000       40.57027       -0.46436        -999.25       70.40815        1.07190        0.80985        0.74352       21.01834      -27.30207       19.15504        0.11075
