~Version ---------------------------------------------------
VERS. 2.0 : CWLS LOG ASCII STANDARD - VERSION 2.0
WRAP. NO  : One line per depth step
DLM . SPACE : Column Data Section Delimiter
~Well ------------------------------------------------------
STRT.F       4400.5 : START DEPTH
STOP.F        14502 : STOP DEPTH
STEP.F          0.5 : STEP
NULL.       -999.25 : NULL VALUE
COMP.            PALACE OPERATING COMPANY : COMPANY
WELL.         235305-SL18350-002-18350-29 : WELL
FLD .               BELLE ISLE, SOUTHWEST : FIELD
CNTY.                            ST. MARY : COUNTY
STAT.                           LOUISIANA : STATE
CTRY.                                 USA : COUNTRY
SEC .                                     : SECTION
TWP .                                     : TOWNSHIP
RGE .                                     : RANGE
LOC . LAT 29 29' 27.731" LONG 91 31' 11.823" : LOCATION
EKB .F                       42 : ELEVATION KELLY BUSHING
EDF .F                       41 : ELEVATION DERRICK FLOOR
EGL .F                       -8 : ELEVATION GROUND LEVEL
PDAT.                       MSL : PERMANENT DATUM
EPD .                           : ELEVATION PERMANENT DATUM
APD .                        42 : ABOVE PERMANENT DATUM
LMF .                        KB : LOG MEASURED FROM
DMF .                        KB : DRILLING MEASURED FROM
API .            17101223030000 : API NUMBER
UWI .                           : UWI NUMBER
DIGC.                     NthDS : DIGITIZING COMPANY
~Params ----------------------------------------------------
SRVC.              BAKER HUGHES : LOGGING COMPANY
LOG .         HDIL/ZDEN/CNL/MAA : LOG
DATE.                2007-05-03 : RUN DATE
RUN .                         1 : RUN NUMBER
TDD .F                    12700 : TOTAL DEPTH DRILLER
TDL .F                    12702 : TOTAL DEPTH LOGGER
BOTL.F                    12694 : BOTTOM LOGGED INTERVAL
TOPL.F                     4475 : TOP LOGGED INTERVAL
CSGS.IN                  13.375 : CASING SIZE
CSGD.F                     4510 : CASING DRILLER
CSGL.F                     4514 : CASING LOGGER
BS  .IN                   12.25 : BIT SIZE
MUD .                     LIGNO : MUD TYPE
MUDD.                      10.8 : MUD DENSITY
MUDV.                        42 : MUD VISCOSITY
PH  .                       9.8 : MUD PH
FL  .                       3.8 : FLUID LOSS
MUDS.                       PIT : SOURCE OF SAMPLE
RM  .OHMM                 0.405 : MUD RESISTIVITY
RMT .DEGF                    85 : RM TEMPERATURE
RMF .OHMM                 0.304 : MUD FILTRATE RESISTIVITY
RMFT.DEGF                    85 : RMF TEMPERATURE
RMC .OHMM                 0.506 : MUD CAKE RESISTIVITY
RMCT.DEGF                    85 : RMC TEMPERATURE
RMFS.                CALCULATED : RMF SOURCE
RMCS.                CALCULATED : RMC SOURCE
RMBH.OHMM                 0.282 : MUD RESISTIVITY AT BHT
BHT .DEGF                   191 : BOTTOM HOLE TEMPERATURE
TIMC.                           : TIME CIRCULATION STOPPED
TIML.                           : TIME LOGGER ON BOTTOM
TMAX.DEGF                   191 : MAXIMUM RECORDED TEMPERATURE
UNIT.                    HL4125 : EQUIPMENT NUMBER
BASE.                  PEARLAND : BASE LOCATION
ENG .                      CASE : RECORDED BY
WIT .                    ARDOIN : WITNESSED BY
#
SRVC.              BAKER HUGHES : LOGGING COMPANY
LOG .         HDIL/ZDEN/CNL/MAA : LOG
DATE.                2007-05-11 : RUN DATE
RUN .                         2 : RUN NUMBER
TDD .F                    13580 : TOTAL DEPTH DRILLER
TDL .F                    13588 : TOTAL DEPTH LOGGER
BOTL.F                    13579 : BOTTOM LOGGED INTERVAL
TOPL.F                    11990 : TOP LOGGED INTERVAL
CSGS.IN                   9.625 : CASING SIZE
CSGD.F                    12700 : CASING DRILLER
CSGL.F                    12700 : CASING LOGGER
BS  .IN                     8.5 : BIT SIZE
MUD .           WATER BASED MUD : MUD TYPE
MUDD.                      15.7 : MUD DENSITY
MUDV.                        46 : MUD VISCOSITY
PH  .                      10.8 : MUD PH
FL  .                       2.8 : FLUID LOSS
MUDS.                  FLOWLINE : SOURCE OF SAMPLE
RM  .OHMM                 0.802 : MUD RESISTIVITY
RMT .DEGF                    75 : RM TEMPERATURE
RMF .OHMM                   0.6 : MUD FILTRATE RESISTIVITY
RMFT.DEGF                    75 : RMF TEMPERATURE
RMC .OHMM                   1.0 : MUD CAKE RESISTIVITY
RMCT.DEGF                    75 : RMC TEMPERATURE
RMFS.                  MEASURED : RMF SOURCE
RMCS.                  MEASURED : RMC SOURCE
RMBH.OHMM                  0.29 : MUD RESISTIVITY AT BHT
BHT .DEGF                   220 : BOTTOM HOLE TEMPERATURE
TIMC.                           : TIME CIRCULATION STOPPED
TIML.                           : TIME LOGGER ON BOTTOM
TMAX.DEGF                   220 : MAXIMUM RECORDED TEMPERATURE
UNIT.                    HL6659 : EQUIPMENT NUMBER
BASE.                 BROUSSARD : BASE LOCATION
ENG .                 N.FRAICHE : RECORDED BY
WIT .                  S.VESTAL : WITNESSED BY
#
SRVC.              BAKER HUGHES : LOGGING COMPANY
LOG .         HDIL/ZDEN/CNL/MAA : LOG
DATE.                2007-05-11 : RUN DATE
RUN .                         3 : RUN NUMBER
TDD .F                    14504 : TOTAL DEPTH DRILLER
TDL .F                    14506 : TOTAL DEPTH LOGGER
BOTL.F                    14508 : BOTTOM LOGGED INTERVAL
TOPL.F                    13583 : TOP LOGGED INTERVAL
CSGS.IN                   7.625 : CASING SIZE
CSGD.F                    13575 : CASING DRILLER
CSGL.F                    13583 : CASING LOGGER
BS  .IN                     6.5 : BIT SIZE
MUD .           WATER BASED MUD : MUD TYPE
MUDD.                      17.2 : MUD DENSITY
MUDV.                        49 : MUD VISCOSITY
PH  .                      10.5 : MUD PH
FL  .                      11.2 : FLUID LOSS
MUDS.                  FLOWLINE : SOURCE OF SAMPLE
RM  .OHMM                 0.202 : MUD RESISTIVITY
RMT .DEGF                    75 : RM TEMPERATURE
RMF .OHMM                 0.401 : MUD FILTRATE RESISTIVITY
RMFT.DEGF                    75 : RMF TEMPERATURE
RMC .OHMM                  2.35 : MUD CAKE RESISTIVITY
RMCT.DEGF                    75 : RMC TEMPERATURE
RMFS.                  MEASURED : RMF SOURCE
RMCS.                  MEASURED : RMC SOURCE
RMBH.OHMM                 0.292 : MUD RESISTIVITY AT BHT
BHT .DEGF                   245 : BOTTOM HOLE TEMPERATURE
TIMC.                           : TIME CIRCULATION STOPPED
TIML.                           : TIME LOGGER ON BOTTOM
TMAX.DEGF                   245 : MAXIMUM RECORDED TEMPERATURE
UNIT.                    HL6659 : EQUIPMENT NUMBER
BASE.                 BROUSSARD : BASE LOCATION
ENG .      J.SPENCER/C.BRICONER : RECORDED BY
WIT .                 D. MATHIS : WITNESSED BY
~Curve Information -----------------------------------------
DEPT.F          :DEPTH
CNCF.%          :
DCAL.IN         :
DT.US/F         :
GR.GAPI         :
M2R1.OHMM       :
M2R3.OHMM       :
M2R9.OHMM       :
PORZ.%          :
SP.MV           :
TENS.LBF        :
ZCOR.G/CC       :
~ASCII ------------------------------------------------------
# ...
5849.50000       41.46123       -0.26939        -999.25       75.87382        0.84785        0.63555        0.60831       25.71429       -1.09577       16.41579        0.02566
5850.00000       40.53062       -0.26939        -999.25       79.25538        0.85801        0.64377        0.60717       24.85715       -1.24281       41.09668        0.04603
5850.50000       41.07506       -0.26775        -999.25       83.09202        0.87131        0.65203        0.61404       23.85396       -4.55903       40.85037        0.06012
5851.00000       41.90629       -0.26775        -999.25       84.61605        0.87410        0.64734        0.61635       24.34078       -8.07484       40.60405        0.07368
5851.50000       42.92130       -0.26775        -999.25       84.00159        0.83836        0.62438        0.59499       25.19271       -8.48680       40.35773        0.06093
5852.00000       43.93510       -0.26775        -999.25       83.38712        0.79621        0.60229        0.54468       26.04463       -7.26942       40.11142        0.04799
5852.50000       43.20487       -0.26775        -999.25       80.63417        0.73658        0.55131        0.49867       27.26167       -8.90337       39.86510        0.03479
5853.00000       41.25761       -0.26775        -999.25       78.18672        0.65510        0.48734        0.45654       29.08723      -13.79596       39.61879        0.02159
5853.50000       41.84179       -0.26775        -999.25       73.29529        0.58262        0.43079        0.39778       30.91279      -20.31787       39.32321        0.00839
5854.00000       42.79960       -0.26775        -999.25       71.15334        0.47923        0.38084        0.34658       31.39960      -26.02513       39.07689        0.00158
5854.50000       41.86613       -0.26775        -999.25       70.23268        0.42553        0.33665        0.30200       31.76471      -28.06640       38.83057       -0.00251
5855.00000       41.13591       -0.26264        -999.25       70.22922        0.41829        0.30076        0.28725       31.52131      -28.07102       38.58426        0.00425
5855.50000       41.68357       -0.25655        -999.25       71.44774        0.44471        0.30694        0.27928       31.15619      -27.26098       38.33794       -0.00001
5856.00000       43.58581       -0.25022        -999.25       72.36077        0.47266        0.32042        0.28833       31.03449      -26.85827       38.09163       -0.00429
5856.50000       44.23570       -0.24414        -999.25       72.05181        0.47400        0.32673        0.29823       31.03449      -29.30780       37.84531        0.00316
5857.00000       44.88439       -0.23781        -999.25       69.60436        0.44180        0.32168        0.29269       31.03449      -32.57107       37.59899        0.01841
5857.50000       45.92252       -0.23148        -999.25       66.40844        0.38926        0.30118        0.27915       31.03449      -34.61235       37.35268        0.02116
5858.00000       46.40933       -0.22540        -999.25       63.20946        0.35209        0.27957        0.25742       30.66938      -31.35832       37.10636        0.02447
5858.50000       46.61258       -0.21907        -999.25       61.04001        0.32511        0.25948        0.23933       31.03449      -25.66031       36.86004        0.01426
5859.00000       48.23489       -0.19375        -999.25       60.12005        0.30274        0.24551        0.22991       31.88642      -24.85027       36.61373        0.00406
5859.50000       50.14199       -0.16844        -999.25       59.81109        0.29470        0.23901        0.23678       32.49494      -28.92820       36.36741       -0.00309
5860.00000       51.72414       -0.14288        -999.25       60.41862        0.31153        0.26141        0.25309       32.49494      -31.37680       36.12110        0.01098
5860.50000       50.28438       -0.11245        -999.25       61.63715        0.33817        0.28588        0.27409       29.93916      -25.27146       35.87478        0.03615
5861.00000       48.20447       -0.06377        -999.25       64.07766        0.42753        0.35358        0.32990       26.77486      -12.24150       35.62846        0.06132
5861.50000       46.12576        0.02069        -999.25       68.58946        0.54560        0.45097        0.42609       24.21908        0.38114       35.38215        0.08649
5862.00000       44.05680        0.10491        -999.25       74.35685        0.69758        0.57519        0.54560       24.06695        7.30114       35.08657        0.09801
5862.50000       42.96146        0.07302        -999.25       78.63036        0.75760        0.64473        0.64395       25.31441        7.70385       34.84025        0.09369
5863.00000       42.83976       -0.06815        -999.25       80.66151        0.74583        0.66313        0.67620       26.77486        7.29190       34.59393        0.08626
5863.50000       44.93307       -0.26288        -999.25       84.22321        0.73658        0.68122        0.67246       27.87019       11.54388       34.34762        0.07650
5864.00000       46.83165       -0.34540        -999.25       89.31171        0.74583        0.69916        0.66882       28.60041       15.79994       34.10130        0.06515
5864.50000       47.80528       -0.35343        -999.25       92.76953        0.77434        0.70502        0.66438       27.99189       18.54888       33.85499        0.06541
5865.00000       50.12495       -0.36122        -999.25       94.29356        0.79898        0.70727        0.68334       27.01826       20.91900       33.60867        0.06857
5865.50000       53.95497       -0.36901        -999.25       93.37360        0.83915        0.70946        0.70284       26.16634       22.66590       33.36235        0.07174
5866.00000       56.47059       -0.37680        -999.25       93.67563        0.89190        0.72704        0.72289       26.04463       21.58185       33.11604        0.07502
5866.50000       51.39919       -0.38483        -999.25       94.89416        0.92184        0.74506        0.72827       26.40974       17.66278       32.86972        0.07417
5867.00000       47.82962       -0.38750        -999.25       97.94567        0.93525        0.76352        0.73369       26.89656       12.95664       32.62340        0.06941
5867.50000       46.73428       -0.38312        -999.25       98.55320        0.94886        0.78237        0.73914       27.13997       14.98867       32.37709        0.06462
5868.00000       46.97769       -0.37850        -999.25       98.24424        0.96384        0.79487        0.74478       26.89656       18.60522       32.13077        0.06162
5868.50000       47.09939       -0.37387        -999.25       95.18579        0.97896        0.79704        0.75116       26.40974       21.49672       31.88446        0.05981
5869.00000       46.43002       -0.36925        -999.25       95.48783        0.97246        0.79928        0.75760       26.04463       20.77927       31.63814        0.05799
5869.50000       44.75660       -0.36462        -999.25       95.78986        0.95162        0.80146        0.75201       26.53145       16.49768       31.39182        0.05727
5870.00000       43.08317       -0.36000        -999.25       95.78639        0.93122        0.78149        0.74646       27.50508       11.14888       31.14551        0.06108
5870.50000       44.03246       -0.35464        -999.25       95.78293        0.88856        0.76202        0.74095       28.96552       11.09130       30.84993        0.06487
5871.00000       47.34280       -0.35002        -999.25       95.16846        0.84785        0.74583        0.72971       29.08723       12.91967       30.60361        0.06867
5871.50000       50.31238       -0.34540        -999.25       93.94301        0.79502        0.71837        0.70946       28.35701       13.72971       30.35729        0.06942
5872.00000       50.87221       -0.34077        -999.25       94.24504        0.75102        0.69628        0.69302       27.50508       14.94708       30.11098        0.07019
