~Version ---------------------------------------------------
VERS. 2.0 : CWLS LOG ASCII STANDARD - VERSION 2.0
WRAP. NO  : One line per depth step
DLM . SPACE : Column Data Section Delimiter
~Well ------------------------------------------------------
STRT.F       4400.5 : START DEPTH
STOP.F        14502 : STOP DEPTH
STEP.F          0.5 : STEP
NULL.       -999.25 : NULL VALUE
COMP.            PALACE OPERATING COMPANY : COMPANY
WELL.         235305-SL18350-002-18350-29 : WELL
FLD .               BELLE ISLE, SOUTHWEST : FIELD
CNTY.                            ST. MARY : COUNTY
STAT.                           LOUISIANA : STATE
CTRY.                                 USA : COUNTRY
SEC .                                     : SECTION
TWP .                                     : TOWNSHIP
RGE .                                     : RANGE
LOC . LAT 29 29' 27.731" LONG 91 31' 11.823" : LOCATION
EKB .F                       42 : ELEVATION KELLY BUSHING
EDF .F                       41 : ELEVATION DERRICK FLOOR
EGL .F                       -8 : ELEVATION GROUND LEVEL
PDAT.                       MSL : PERMANENT DATUM
EPD .                           : ELEVATION PERMANENT DATUM
APD .                        42 : ABOVE PERMANENT DATUM
LMF .                        KB : LOG MEASURED FROM
DMF .                        KB : DRILLING MEASURED FROM
API .            17101223030000 : API NUMBER
UWI .                           : UWI NUMBER
DIGC.                     NthDS : DIGITIZING COMPANY
~Params ----------------------------------------------------
SRVC.              BAKER HUGHES : LOGGING COMPANY
LOG .         HDIL/ZDEN/CNL/MAA : LOG
DATE.                2007-05-03 : RUN DATE
RUN .                         1 : RUN NUMBER
TDD .F                    12700 : TOTAL DEPTH DRILLER
TDL .F                    12702 : TOTAL DEPTH LOGGER
BOTL.F                    12694 : BOTTOM LOGGED INTERVAL
TOPL.F                     4475 : TOP LOGGED INTERVAL
CSGS.IN                  13.375 : CASING SIZE
CSGD.F                     4510 : CASING DRILLER
CSGL.F                     4514 : CASING LOGGER
BS  .IN                   12.25 : BIT SIZE
MUD .                     LIGNO : MUD TYPE
MUDD.                      10.8 : MUD DENSITY
MUDV.                        42 : MUD VISCOSITY
PH  .                       9.8 : MUD PH
FL  .                       3.8 : FLUID LOSS
MUDS.                       PIT : SOURCE OF SAMPLE
RM  .OHMM                 0.405 : MUD RESISTIVITY
RMT .DEGF                    85 : RM TEMPERATURE
RMF .OHMM                 0.304 : MUD FILTRATE RESISTIVITY
RMFT.DEGF                    85 : RMF TEMPERATURE
RMC .OHMM                 0.506 : MUD CAKE RESISTIVITY
RMCT.DEGF                    85 : RMC TEMPERATURE
RMFS.                CALCULATED : RMF SOURCE
RMCS.                CALCULATED : RMC SOURCE
RMBH.OHMM                 0.282 : MUD RESISTIVITY AT BHT
BHT .DEGF                   191 : BOTTOM HOLE TEMPERATURE
TIMC.                           : TIME CIRCULATION STOPPED
TIML.                           : TIME LOGGER ON BOTTOM
TMAX.DEGF                   191 : MAXIMUM RECORDED TEMPERATURE
UNIT.                    HL4125 : EQUIPMENT NUMBER
BASE.                  PEARLAND : BASE LOCATION
ENG .                      CASE : RECORDED BY
WIT .                    ARDOIN : WITNESSED BY
#
SRVC.              BAKER HUGHES : LOGGING COMPANY
LOG .         HDIL/ZDEN/CNL/MAA : LOG
DATE.                2007-05-11 : RUN DATE
RUN .                         2 : RUN NUMBER
TDD .F                    13580 : TOTAL DEPTH DRILLER
TDL .F                    13588 : TOTAL DEPTH LOGGER
BOTL.F                    13579 : BOTTOM LOGGED INTERVAL
TOPL.F                    11990 : TOP LOGGED INTERVAL
CSGS.IN                   9.625 : CASING SIZE
CSGD.F                    12700 : CASING DRILLER
CSGL.F                    12700 : CASING LOGGER
BS  .IN                     8.5 : BIT SIZE
MUD .           WATER BASED MUD : MUD TYPE
MUDD.                      15.7 : MUD DENSITY
MUDV.                        46 : MUD VISCOSITY
PH  .                      10.8 : MUD PH
FL  .                       2.8 : FLUID LOSS
MUDS.                  FLOWLINE : SOURCE OF SAMPLE
RM  .OHMM                 0.802 : MUD RESISTIVITY
RMT .DEGF                    75 : RM TEMPERATURE
RMF .OHMM                   0.6 : MUD FILTRATE RESISTIVITY
RMFT.DEGF                    75 : RMF TEMPERATURE
RMC .OHMM                   1.0 : MUD CAKE RESISTIVITY
RMCT.DEGF                    75 : RMC TEMPERATURE
RMFS.                  MEASURED : RMF SOURCE
RMCS.                  MEASURED : RMC SOURCE
RMBH.OHMM                  0.29 : MUD RESISTIVITY AT BHT
BHT .DEGF                   220 : BOTTOM HOLE TEMPERATURE
TIMC.                           : TIME CIRCULATION STOPPED
TIML.                           : TIME LOGGER ON BOTTOM
TMAX.DEGF                   220 : MAXIMUM RECORDED TEMPERATURE
UNIT.                    HL6659 : EQUIPMENT NUMBER
BASE.                 BROUSSARD : BASE LOCATION
ENG .                 N.FRAICHE : RECORDED BY
WIT .                  S.VESTAL : WITNESSED BY
#
SRVC.              BAKER HUGHES : LOGGING COMPANY
LOG .         HDIL/ZDEN/CNL/MAA : LOG
DATE.                2007-05-11 : RUN DATE
RUN .                         3 : RUN NUMBER
TDD .F                    14504 : TOTAL DEPTH DRILLER
TDL .F                    14506 : TOTAL DEPTH LOGGER
BOTL.F                    14508 : BOTTOM LOGGED INTERVAL
TOPL.F                    13583 : TOP LOGGED INTERVAL
CSGS.IN                   7.625 : CASING SIZE
CSGD.F                    13575 : CASING DRILLER
CSGL.F                    13583 : CASING LOGGER
BS  .IN                     6.5 : BIT SIZE
MUD .           WATER BASED MUD : MUD TYPE
MUDD.                      17.2 : MUD DENSITY
MUDV.                        49 : MUD VISCOSITY
PH  .                      10.5 : MUD PH
FL  .                      11.2 : FLUID LOSS
MUDS.                  FLOWLINE : SOURCE OF SAMPLE
RM  .OHMM                 0.202 : MUD RESISTIVITY
RMT .DEGF                    75 : RM TEMPERATURE
RMF .OHMM                 0.401 : MUD FILTRATE RESISTIVITY
RMFT.DEGF                    75 : RMF TEMPERATURE
RMC .OHMM                  2.35 : MUD CAKE RESISTIVITY
RMCT.DEGF                    75 : RMC TEMPERATURE
RMFS.                  MEASURED : RMF SOURCE
RMCS.                  MEASURED : RMC SOURCE
RMBH.OHMM                 0.292 : MUD RESISTIVITY AT BHT
BHT .DEGF                   245 : BOTTOM HOLE TEMPERATURE
TIMC.                           : TIME CIRCULATION STOPPED
TIML.                           : TIME LOGGER ON BOTTOM
TMAX.DEGF                   245 : MAXIMUM RECORDED TEMPERATURE
UNIT.                    HL6659 : EQUIPMENT NUMBER
BASE.                 BROUSSARD : BASE LOCATION
ENG .      J.SPENCER/C.BRICONER : RECORDED BY
WIT .                 D. MATHIS : WITNESSED BY
~Curve Information -----------------------------------------
DEPT.F          :DEPTH
CNCF.%          :
DCAL.IN         :
DT.US/F         :
GR.GAPI         :
M2R1.OHMM       :
M2R3.OHMM       :
M2R9.OHMM       :
PORZ.%          :
SP.MV           :
TENS.LBF        :
ZCOR.G/CC       :
~ASCII ------------------------------------------------------
# ...
9161.50000       33.57162       -0.35389        -999.25       37.04081        0.21059        0.19392        0.18554       29.92791      -50.20411        1.40241        0.03878
9162.00000       31.54905       -0.35650        -999.25       36.12244        0.20173        0.19071        0.18232       29.77578      -50.61227       -1.99759        0.03878
9162.50000       30.90381       -0.35935        -999.25       35.81632        0.19830        0.18754        0.18006       29.39167      -51.83676       -5.39759        0.03878
9163.00000       32.44521       -0.36220        -999.25       35.81632        0.19661        0.18443        0.17921       29.08408      -53.06125       -8.59758        0.04082
9163.50000       32.97323       -0.36506        -999.25       34.59183        0.19813        0.18530        0.17838       29.08662      -53.87758      -11.99758        0.05306
9164.00000       31.45715       -0.36848        -999.25       33.67346        0.19813        0.18717        0.17754       29.08874      -52.65309      -15.39758        0.05306
9164.50000       30.54834       -0.37109        -999.25       34.28571        0.20283        0.18906        0.17787       29.09086      -51.02044      -18.59758        0.05918
9165.00000       31.03629       -0.37394        -999.25       35.20407        0.20765        0.18540        0.17997       28.72861      -51.02044      -17.79758        0.05714
9165.50000       31.64569       -0.37680        -999.25       36.42856        0.20829        0.18111        0.18129       28.60927      -51.02044      -14.39758        0.05918
9166.00000       32.25509       -0.37819        -999.25       36.12244        0.20667        0.17990        0.17737       28.48994      -51.42860      -10.79758        0.05510
9166.50000       32.98638       -0.37862        -999.25       35.20407        0.20507        0.17931        0.17354       28.61351      -51.83676       -7.19759        0.05306
9167.00000       33.23099       -0.37904        -999.25       35.20407        0.20411        0.17871        0.17099       28.61563      -51.83676       -2.99759        0.05510
9167.50000       32.99019       -0.37946        -999.25       35.20407        0.20571        0.17796        0.17328       28.61775      -51.83676        0.40241        0.05918
9168.00000       32.74940       -0.37989        -999.25       35.81632        0.20732        0.17719        0.17562       28.86278      -51.42860        4.00241        0.06122
9168.50000       33.23735       -0.38031        -999.25       34.89795        0.20765        0.17879        0.17587       28.98636      -51.83676        7.60241        0.05918
9169.00000       33.72529       -0.38074        -999.25       32.75509        0.20765        0.18102        0.17294       29.10994      -51.83676       11.00241        0.05918
9169.50000       33.12013       -0.38116        -999.25       31.53060        0.20765        0.18326        0.17006       28.99060      -51.02044       14.60240        0.05918
9170.00000       33.00122       -0.38158        -999.25       32.14285        0.20765        0.18554        0.16945       28.87126      -50.61227       18.20240        0.05918
9170.50000       33.12479       -0.38201        -999.25       35.20407        0.20809        0.18095        0.17052       28.87338      -51.02044       21.60240        0.05714
9171.00000       33.61274       -0.38243        -999.25       35.51020        0.20886        0.17990        0.17052       28.63301      -51.42860       25.20240        0.05918
9171.50000       33.97923       -0.38294        -999.25       35.81632        0.20960        0.18295        0.17398       28.27076      -51.83676       28.80240        0.05306
9172.00000       33.73844       -0.38336        -999.25       36.42856        0.21071        0.18605        0.17478       28.02997      -51.42860       32.20239        0.05306
9172.50000       33.37619       -0.36120        -999.25       37.95917        0.21124        0.18492        0.17375       28.15355      -50.61227       35.80239        0.05918
9173.00000       32.64957       -0.30478        -999.25       39.48979        0.20960        0.18100        0.17274       28.52004      -50.20411       39.20239        0.05918
9173.50000       31.92294       -0.24860        -999.25       39.79591        0.20798        0.17923        0.17161       28.88653      -50.20411       41.40239        0.06122
9174.00000       31.80361       -0.21988        -999.25       38.26530        0.20635        0.18053        0.17033       29.25302      -50.20411       43.00239        0.06122
9174.50000       33.87049       -0.23245        -999.25       36.12244        0.20474        0.18184        0.16906       29.37659      -50.20411       44.80239        0.06327
9175.00000       35.08718       -0.24502        -999.25       35.20407        0.20434        0.17871        0.16779       29.25726      -49.38778       46.40239        0.05918
9175.50000       35.21076       -0.25759        -999.25       35.81632        0.20598        0.17605        0.16629       29.25938      -49.38778       48.40239        0.04694
9176.00000       34.64567       -0.26821        -999.25       36.42856        0.20737        0.17771        0.16687       29.26150      -48.97962       50.00239        0.03878
9176.50000       33.63606       -0.27544        -999.25       35.51020        0.21025        0.17938        0.16869       29.38507      -49.38778       51.80239        0.03469
9177.00000       32.62644       -0.28291        -999.25       33.97958        0.21357        0.17958        0.17052       29.40420      -49.38778       53.40238        0.03265
9177.50000       31.67555       -0.29038        -999.25       33.97958        0.20976        0.17759        0.16836       29.45004      -49.79595       55.20238        0.03265
9178.00000       31.32059       -0.29784        -999.25       34.59183        0.20600        0.17562        0.16621       29.39228      -50.20411       56.80238        0.03673
9178.50000       30.85146       -0.30686        -999.25       35.20407        0.20323        0.17367        0.16411       29.67697      -51.42860       58.40238        0.04082
9179.00000       30.24629       -0.31408        -999.25       35.81632        0.20188        0.17213        0.16203       30.03374      -53.46941       60.20238        0.04286
9179.50000       29.64113       -0.32155        -999.25       37.04081        0.20054        0.17213        0.16119       30.24841      -53.46941       61.80238        0.04490
9180.00000       29.52179       -0.32902        -999.25       38.87754        0.20173        0.17213        0.16119       30.25053      -52.24493       63.60238        0.04490
9180.50000       30.19192       -0.33649        -999.25       40.10203        0.20526        0.17213        0.16119       30.25265      -50.61227       65.20238        0.04694
9181.00000       30.92278       -0.34663        -999.25       40.71428        0.20687        0.17110        0.16062       30.17340      -50.20411       66.80238        0.04694
9181.50000       30.94069       -0.36721        -999.25       40.40815        0.20302        0.16939        0.15919       30.07471      -50.61227       68.60238        0.05102
9182.00000       30.71447       -0.38780        -999.25       40.10203        0.20000        0.16768        0.15777       30.01525      -52.24493       70.20238        0.05102
9182.50000       30.67773       -0.40863        -999.25       38.26530        0.20000        0.16861        0.15637       29.85061      -54.28574       72.00238        0.05510
9183.00000       30.76608       -0.42921        -999.25       36.73468        0.19780        0.16618        0.15485       29.77742      -54.69390       73.60237        0.06122
9183.50000       30.85565       -0.43522        -999.25       35.81632        0.19617        0.16280        0.15284       29.70303      -55.10207       75.60237        0.05714
9184.00000       30.94401       -0.41962        -999.25       35.81632        0.19456        0.15949        0.15086       29.55940      -54.69390       77.40237        0.05102
