~Version ---------------------------------------------------
VERS. 2.0 : CWLS LOG ASCII STANDARD - VERSION 2.0
WRAP. NO  : One line per depth step
DLM . SPACE : Column Data Section Delimiter
~Well ------------------------------------------------------
STRT.F       4400.5 : START DEPTH
STOP.F        14502 : STOP DEPTH
STEP.F          0.5 : STEP
NULL.       -999.25 : NULL VALUE
COMP.            PALACE OPERATING COMPANY : COMPANY
WELL.         235305-SL18350-002-18350-29 : WELL
FLD .               BELLE ISLE, SOUTHWEST : FIELD
CNTY.                            ST. MARY : COUNTY
STAT.                           LOUISIANA : STATE
CTRY.                                 USA : COUNTRY
SEC .                                     : SECTION
TWP .                                     : TOWNSHIP
RGE .                                     : RANGE
LOC . LAT 29 29' 27.731" LONG 91 31' 11.823" : LOCATION
EKB .F                       42 : ELEVATION KELLY BUSHING
EDF .F                       41 : ELEVATION DERRICK FLOOR
EGL .F                       -8 : ELEVATION GROUND LEVEL
PDAT.                       MSL : PERMANENT DATUM
EPD .                           : ELEVATION PERMANENT DATUM
APD .                        42 : ABOVE PERMANENT DATUM
LMF .                        KB : LOG MEASURED FROM
DMF .                        KB : DRILLING MEASURED FROM
API .            17101223030000 : API NUMBER
UWI .                           : UWI NUMBER
DIGC.                     NthDS : DIGITIZING COMPANY
~Params ----------------------------------------------------
SRVC.              BAKER HUGHES : LOGGING COMPANY
LOG .         HDIL/ZDEN/CNL/MAA : LOG
DATE.                2007-05-03 : RUN DATE
RUN .                         1 : RUN NUMBER
TDD .F                    12700 : TOTAL DEPTH DRILLER
TDL .F                    12702 : TOTAL DEPTH LOGGER
BOTL.F                    12694 : BOTTOM LOGGED INTERVAL
TOPL.F                     4475 : TOP LOGGED INTERVAL
CSGS.IN                  13.375 : CASING SIZE
CSGD.F                     4510 : CASING DRILLER
CSGL.F                     4514 : CASING LOGGER
BS  .IN                   12.25 : BIT SIZE
MUD .                     LIGNO : MUD TYPE
MUDD.                      10.8 : MUD DENSITY
MUDV.                        42 : MUD VISCOSITY
PH  .                       9.8 : MUD PH
FL  .                       3.8 : FLUID LOSS
MUDS.                       PIT : SOURCE OF SAMPLE
RM  .OHMM                 0.405 : MUD RESISTIVITY
RMT .DEGF                    85 : RM TEMPERATURE
RMF .OHMM                 0.304 : MUD FILTRATE RESISTIVITY
RMFT.DEGF                    85 : RMF TEMPERATURE
RMC .OHMM                 0.506 : MUD CAKE RESISTIVITY
RMCT.DEGF                    85 : RMC TEMPERATURE
RMFS.                CALCULATED : RMF SOURCE
RMCS.                CALCULATED : RMC SOURCE
RMBH.OHMM                 0.282 : MUD RESISTIVITY AT BHT
BHT .DEGF                   191 : BOTTOM HOLE TEMPERATURE
TIMC.                           : TIME CIRCULATION STOPPED
TIML.                           : TIME LOGGER ON BOTTOM
TMAX.DEGF                   191 : MAXIMUM RECORDED TEMPERATURE
UNIT.                    HL4125 : EQUIPMENT NUMBER
BASE.                  PEARLAND : BASE LOCATION
ENG .                      CASE : RECORDED BY
WIT .                    ARDOIN : WITNESSED BY
#
SRVC.              BAKER HUGHES : LOGGING COMPANY
LOG .         HDIL/ZDEN/CNL/MAA : LOG
DATE.                2007-05-11 : RUN DATE
RUN .                         2 : RUN NUMBER
TDD .F                    13580 : TOTAL DEPTH DRILLER
TDL .F                    13588 : TOTAL DEPTH LOGGER
BOTL.F                    13579 : BOTTOM LOGGED INTERVAL
TOPL.F                    11990 : TOP LOGGED INTERVAL
CSGS.IN                   9.625 : CASING SIZE
CSGD.F                    12700 : CASING DRILLER
CSGL.F                    12700 : CASING LOGGER
BS  .IN                     8.5 : BIT SIZE
MUD .           WATER BASED MUD : MUD TYPE
MUDD.                      15.7 : MUD DENSITY
MUDV.                        46 : MUD VISCOSITY
PH  .                      10.8 : MUD PH
FL  .                       2.8 : FLUID LOSS
MUDS.                  FLOWLINE : SOURCE OF SAMPLE
RM  .OHMM                 0.802 : MUD RESISTIVITY
RMT .DEGF                    75 : RM TEMPERATURE
RMF .OHMM                   0.6 : MUD FILTRATE RESISTIVITY
RMFT.DEGF                    75 : RMF TEMPERATURE
RMC .OHMM                   1.0 : MUD CAKE RESISTIVITY
RMCT.DEGF                    75 : RMC TEMPERATURE
RMFS.                  MEASURED : RMF SOURCE
RMCS.                  MEASURED : RMC SOURCE
RMBH.OHMM                  0.29 : MUD RESISTIVITY AT BHT
BHT .DEGF                   220 : BOTTOM HOLE TEMPERATURE
TIMC.                           : TIME CIRCULATION STOPPED
TIML.                           : TIME LOGGER ON BOTTOM
TMAX.DEGF                   220 : MAXIMUM RECORDED TEMPERATURE
UNIT.                    HL6659 : EQUIPMENT NUMBER
BASE.                 BROUSSARD : BASE LOCATION
ENG .                 N.FRAICHE : RECORDED BY
WIT .                  S.VESTAL : WITNESSED BY
#
SRVC.              BAKER HUGHES : LOGGING COMPANY
LOG .         HDIL/ZDEN/CNL/MAA : LOG
DATE.                2007-05-11 : RUN DATE
RUN .                         3 : RUN NUMBER
TDD .F                    14504 : TOTAL DEPTH DRILLER
TDL .F                    14506 : TOTAL DEPTH LOGGER
BOTL.F                    14508 : BOTTOM LOGGED INTERVAL
TOPL.F                    13583 : TOP LOGGED INTERVAL
CSGS.IN                   7.625 : CASING SIZE
CSGD.F                    13575 : CASING DRILLER
CSGL.F                    13583 : CASING LOGGER
BS  .IN                     6.5 : BIT SIZE
MUD .           WATER BASED MUD : MUD TYPE
MUDD.                      17.2 : MUD DENSITY
MUDV.                        49 : MUD VISCOSITY
PH  .                      10.5 : MUD PH
FL  .                      11.2 : FLUID LOSS
MUDS.                  FLOWLINE : SOURCE OF SAMPLE
RM  .OHMM                 0.202 : MUD RESISTIVITY
RMT .DEGF                    75 : RM TEMPERATURE
RMF .OHMM                 0.401 : MUD FILTRATE RESISTIVITY
RMFT.DEGF                    75 : RMF TEMPERATURE
RMC .OHMM                  2.35 : MUD CAKE RESISTIVITY
RMCT.DEGF                    75 : RMC TEMPERATURE
RMFS.                  MEASURED : RMF SOURCE
RMCS.                  MEASURED : RMC SOURCE
RMBH.OHMM                 0.292 : MUD RESISTIVITY AT BHT
BHT .DEGF                   245 : BOTTOM HOLE TEMPERATURE
TIMC.                           : TIME CIRCULATION STOPPED
TIML.                           : TIME LOGGER ON BOTTOM
TMAX.DEGF                   245 : MAXIMUM RECORDED TEMPERATURE
UNIT.                    HL6659 : EQUIPMENT NUMBER
BASE.                 BROUSSARD : BASE LOCATION
ENG .      J.SPENCER/C.BRICONER : RECORDED BY
WIT .                 D. MATHIS : WITNESSED BY
~Curve Information -----------------------------------------
DEPT.F          :DEPTH
CNCF.%          :
DCAL.IN         :
DT.US/F         :
GR.GAPI         :
M2R1.OHMM       :
M2R3.OHMM       :
M2R9.OHMM       :
PORZ.%          :
SP.MV           :
TENS.LBF        :
ZCOR.G/CC       :
~ASCII ------------------------------------------------------
# ...
7160.50000       37.18409       -0.00980        -999.25       80.95721        0.74702        0.41179        0.35943       23.63266      -29.65380        0.80888        0.03682
7161.00000       35.48327       -0.00367        -999.25       82.48470        0.72971        0.41423        0.36796       24.24491      -27.61714        0.80888        0.04344
7161.50000       34.49021        0.02057        -999.25       83.09570        0.71729        0.42537        0.37669       24.85715      -28.02447        0.80888        0.05426
7162.00000       34.04082        0.07200        -999.25       83.40120        0.72289        0.45067        0.39954       24.21429      -29.24647        0.80888        0.06507
7162.50000       33.79592        0.12318        -999.25       84.92870        0.76783        0.47743        0.42753       22.91266      -28.43180        0.80888        0.07305
7163.00000       34.16327        0.18490        -999.25       87.37269        0.82541        0.52428        0.47346       20.44899      -24.76582        0.80888        0.06898
7163.50000       34.77552        0.23633        -999.25       87.67819        0.88523        0.56912        0.51546       18.85715      -22.72916        0.80888        0.06558
7164.00000       35.26531        0.28751        -999.25       85.84519        0.96320        0.62216        0.56117       17.38777      -21.50716        0.80888        0.06100
7164.50000       35.02041        0.35094        -999.25       84.01220        1.02279        0.66438        0.58443       17.14287      -21.09983        0.80888        0.05462
7165.00000       34.40817        0.43273        -999.25       82.48470        0.99909        0.66813        0.56646       17.63266      -20.28517        6.45404        0.05336
7165.50000       34.28572        0.52041        -999.25       81.56821        0.97593        0.63157        0.54904       19.18042      -19.87784       13.30888        0.05336
7166.00000       34.40817        0.61224        -999.25       81.26271        1.01324        0.62385        0.53798       20.73797      -19.06317       20.36532        0.05336
7166.50000       34.89797        0.70408        -999.25       80.65171        1.15640        0.65818        0.56270       22.40817      -18.65584       27.22016        0.05336
7167.00000       35.14286        0.78245        -999.25       76.06923        1.31978        0.68174        0.59166       23.38776      -18.65584       35.48628        0.05336
7167.50000       35.51021        0.84049        -999.25       72.70874        1.40696        0.70614        0.62216       23.38776      -18.65584       42.54273        0.05336
7168.00000       35.38776        0.89829        -999.25       69.95925        1.40261        0.73142        0.63525       22.89797      -19.87784       49.39757        0.05336
7168.50000       34.89797        0.95633        -999.25       69.65375        1.28376        0.72439        0.64395       21.42858      -23.13649       56.45402        0.06206
7169.00000       34.28572        0.97959        -999.25       75.84010        1.08903        0.70660        0.63198       20.20409      -26.39515       63.30885        0.07509
7169.50000       34.72041        0.97959        -999.25       83.67004        0.95906        0.69256        0.62216       19.59185      -23.13649       70.36530        0.08595
7170.00000       35.66572        0.92351        -999.25       87.27187        0.87911        0.67880        0.62973       19.59185      -16.61918       77.22013        0.08935
7170.50000       36.61225        0.85371        -999.25       89.81668        0.84968        0.68180        0.66438       19.59185      -10.50920       81.45400        0.08731
7171.00000       36.24490        0.78367        -999.25       91.64967        0.85890        0.71066        0.70093       19.34695       -8.87987       81.45400        0.08391
7171.50000       34.33470        0.78367        -999.25       96.42156        0.86830        0.74067        0.73956       18.97960       -9.69454       81.45400        0.08114
7172.00000       32.88613        0.78367        -999.25       98.98165        0.87697        0.77195        0.77514       18.48981      -10.10187       81.45400        0.07929
7172.50000       32.32654        0.78367        -999.25       99.28714        0.88523        0.79644        0.79152       17.75511       -6.02855       81.45400        0.07684
7173.00000       33.55103        0.78367        -999.25       98.06515        0.89358        0.82178        0.80818       17.38777        0.08143       81.45400        0.07206
7173.50000       35.02041        0.78367        -999.25       98.37065        0.89870        0.83210        0.82518       17.14287        6.59874       81.45400        0.06725
7174.00000       35.38776        0.78367        -999.25       98.37065        0.90174        0.83210        0.83210       17.38777        9.20566       81.45400        0.06246
7174.50000       35.87756        0.78367        -999.25       98.67615        0.90479        0.83210        0.83210       17.87756        5.94701       81.45400        0.06369
7175.00000       37.86123        0.78367        -999.25       98.67615        0.88648        0.82689        0.82658       18.12246        3.34008       81.45400        0.06639
7175.50000       42.61225        0.78367        -999.25       99.28714        0.85882        0.82070        0.81572       18.00001        4.15475       81.45400        0.06965
7176.00000       46.04082        0.78367        -999.25      100.20364        0.83648        0.81152        0.80681       17.51021        5.37674       81.45400        0.07686
7176.50000       44.87755        0.78367        -999.25      100.50914        0.82588        0.78656        0.78900       17.63266        7.00607       81.45400        0.08407
7177.00000       41.96939        0.78367        -999.25      100.50914        0.81817        0.76238        0.75881       18.48981        7.00607       81.45400        0.09130
7177.50000       38.26531        0.78367        -999.25       96.84315        0.81053        0.73887        0.72971       19.34695        3.74741       81.45400        0.09851
7178.00000       37.34694        0.78367        -999.25       92.87167        0.80146        0.71615        0.70727       20.08164        1.30342       81.45400        0.10094
7178.50000       36.73470        0.77878        -999.25       86.45619        0.83695        0.69412        0.68919       19.95919       -1.95523       81.45400        0.08428
7179.00000       35.87756        0.77388        -999.25       86.15069        0.87393        0.69556        0.68623       19.34695       -6.02855       81.45400        0.06762
7179.50000       34.89797        0.76898        -999.25       88.28918        0.89274        0.70284        0.68334       18.61226       -8.06521       81.45400        0.06485
7180.00000       33.42858        0.76408        -999.25       89.51118        0.88233        0.67855        0.66040       18.85715       -8.06521       81.45400        0.06206
7180.50000       33.30613        0.75918        -999.25       89.51118        0.85850        0.65510        0.63830       18.36736       -8.47254       81.45400        0.06521
7181.00000       34.04082        0.75918        -999.25       88.59468        0.84444        0.64594        0.63056       18.36736      -10.91653       81.45400        0.06984
7181.50000       34.89797        0.75918        -999.25       90.12218        0.85264        0.65081        0.63991       18.85715      -14.17519       81.45400        0.07540
7182.00000       35.11225        0.69796        -999.25       91.64967        0.88523        0.67569        0.66022       19.34695      -14.98985       81.45400        0.08002
7182.50000       35.03511        0.59584        -999.25       93.17717        0.89972        0.69680        0.68122       20.20409      -12.13853       81.45400        0.08731
7183.00000       37.27348        0.49396        -999.25       95.31566        0.87845        0.69955        0.68206       20.20409       -6.02855       81.45400        0.09635
