~Version ---------------------------------------------------
VERS. 2.0 : CWLS LOG ASCII STANDARD - VERSION 2.0
WRAP. NO  : One line per depth step
DLM . SPACE : Column Data Section Delimiter
~Well ------------------------------------------------------
STRT.F       4400.5 : START DEPTH
STOP.F        14502 : STOP DEPTH
STEP.F          0.5 : STEP
NULL.       -999.25 : NULL VALUE
COMP.            PALACE OPERATING COMPANY : COMPANY
WELL.         235305-SL18350-002-18350-29 : WELL
FLD .               BELLE ISLE, SOUTHWEST : FIELD
CNTY.                            ST. MARY : COUNTY
STAT.                           LOUISIANA : STATE
CTRY.                                 USA : COUNTRY
SEC .                                     : SECTION
TWP .                                     : TOWNSHIP
RGE .                                     : RANGE
LOC . LAT 29 29' 27.731" LONG 91 31' 11.823" : LOCATION
EKB .F                       42 : ELEVATION KELLY BUSHING
EDF .F                       41 : ELEVATION DERRICK FLOOR
EGL .F                       -8 : ELEVATION GROUND LEVEL
PDAT.                       MSL : PERMANENT DATUM
EPD .                           : ELEVATION PERMANENT DATUM
APD .                        42 : ABOVE PERMANENT DATUM
LMF .                        KB : LOG MEASURED FROM
DMF .                        KB : DRILLING MEASURED FROM
API .            17101223030000 : API NUMBER
UWI .                           : UWI NUMBER
DIGC.                     NthDS : DIGITIZING COMPANY
~Params ----------------------------------------------------
SRVC.              BAKER HUGHES : LOGGING COMPANY
LOG .         HDIL/ZDEN/CNL/MAA : LOG
DATE.                2007-05-03 : RUN DATE
RUN .                         1 : RUN NUMBER
TDD .F                    12700 : TOTAL DEPTH DRILLER
TDL .F                    12702 : TOTAL DEPTH LOGGER
BOTL.F                    12694 : BOTTOM LOGGED INTERVAL
TOPL.F                     4475 : TOP LOGGED INTERVAL
CSGS.IN                  13.375 : CASING SIZE
CSGD.F                     4510 : CASING DRILLER
CSGL.F                     4514 : CASING LOGGER
BS  .IN                   12.25 : BIT SIZE
MUD .                     LIGNO : MUD TYPE
MUDD.                      10.8 : MUD DENSITY
MUDV.                        42 : MUD VISCOSITY
PH  .                       9.8 : MUD PH
FL  .                       3.8 : FLUID LOSS
MUDS.                       PIT : SOURCE OF SAMPLE
RM  .OHMM                 0.405 : MUD RESISTIVITY
RMT .DEGF                    85 : RM TEMPERATURE
RMF .OHMM                 0.304 : MUD FILTRATE RESISTIVITY
RMFT.DEGF                    85 : RMF TEMPERATURE
RMC .OHMM                 0.506 : MUD CAKE RESISTIVITY
RMCT.DEGF                    85 : RMC TEMPERATURE
RMFS.                CALCULATED : RMF SOURCE
RMCS.                CALCULATED : RMC SOURCE
RMBH.OHMM                 0.282 : MUD RESISTIVITY AT BHT
BHT .DEGF                   191 : BOTTOM HOLE TEMPERATURE
TIMC.                           : TIME CIRCULATION STOPPED
TIML.                           : TIME LOGGER ON BOTTOM
TMAX.DEGF                   191 : MAXIMUM RECORDED TEMPERATURE
UNIT.                    HL4125 : EQUIPMENT NUMBER
BASE.                  PEARLAND : BASE LOCATION
ENG .                      CASE : RECORDED BY
WIT .                    ARDOIN : WITNESSED BY
#
SRVC.              BAKER HUGHES : LOGGING COMPANY
LOG .         HDIL/ZDEN/CNL/MAA : LOG
DATE.                2007-05-11 : RUN DATE
RUN .                         2 : RUN NUMBER
TDD .F                    13580 : TOTAL DEPTH DRILLER
TDL .F                    13588 : TOTAL DEPTH LOGGER
BOTL.F                    13579 : BOTTOM LOGGED INTERVAL
TOPL.F                    11990 : TOP LOGGED INTERVAL
CSGS.IN                   9.625 : CASING SIZE
CSGD.F                    12700 : CASING DRILLER
CSGL.F                    12700 : CASING LOGGER
BS  .IN                     8.5 : BIT SIZE
MUD .           WATER BASED MUD : MUD TYPE
MUDD.                      15.7 : MUD DENSITY
MUDV.                        46 : MUD VISCOSITY
PH  .                      10.8 : MUD PH
FL  .                       2.8 : FLUID LOSS
MUDS.                  FLOWLINE : SOURCE OF SAMPLE
RM  .OHMM                 0.802 : MUD RESISTIVITY
RMT .DEGF                    75 : RM TEMPERATURE
RMF .OHMM                   0.6 : MUD FILTRATE RESISTIVITY
RMFT.DEGF                    75 : RMF TEMPERATURE
RMC .OHMM                   1.0 : MUD CAKE RESISTIVITY
RMCT.DEGF                    75 : RMC TEMPERATURE
RMFS.                  MEASURED : RMF SOURCE
RMCS.                  MEASURED : RMC SOURCE
RMBH.OHMM                  0.29 : MUD RESISTIVITY AT BHT
BHT .DEGF                   220 : BOTTOM HOLE TEMPERATURE
TIMC.                           : TIME CIRCULATION STOPPED
TIML.                           : TIME LOGGER ON BOTTOM
TMAX.DEGF                   220 : MAXIMUM RECORDED TEMPERATURE
UNIT.                    HL6659 : EQUIPMENT NUMBER
BASE.                 BROUSSARD : BASE LOCATION
ENG .                 N.FRAICHE : RECORDED BY
WIT .                  S.VESTAL : WITNESSED BY
#
SRVC.              BAKER HUGHES : LOGGING COMPANY
LOG .         HDIL/ZDEN/CNL/MAA : LOG
DATE.                2007-05-11 : RUN DATE
RUN .                         3 : RUN NUMBER
TDD .F                    14504 : TOTAL DEPTH DRILLER
TDL .F                    14506 : TOTAL DEPTH LOGGER
BOTL.F                    14508 : BOTTOM LOGGED INTERVAL
TOPL.F                    13583 : TOP LOGGED INTERVAL
CSGS.IN                   7.625 : CASING SIZE
CSGD.F                    13575 : CASING DRILLER
CSGL.F                    13583 : CASING LOGGER
BS  .IN                     6.5 : BIT SIZE
MUD .           WATER BASED MUD : MUD TYPE
MUDD.                      17.2 : MUD DENSITY
MUDV.                        49 : MUD VISCOSITY
PH  .                      10.5 : MUD PH
FL  .                      11.2 : FLUID LOSS
MUDS.                  FLOWLINE : SOURCE OF SAMPLE
RM  .OHMM                 0.202 : MUD RESISTIVITY
RMT .DEGF                    75 : RM TEMPERATURE
RMF .OHMM                 0.401 : MUD FILTRATE RESISTIVITY
RMFT.DEGF                    75 : RMF TEMPERATURE
RMC .OHMM                  2.35 : MUD CAKE RESISTIVITY
RMCT.DEGF                    75 : RMC TEMPERATURE
RMFS.                  MEASURED : RMF SOURCE
RMCS.                  MEASURED : RMC SOURCE
RMBH.OHMM                 0.292 : MUD RESISTIVITY AT BHT
BHT .DEGF                   245 : BOTTOM HOLE TEMPERATURE
TIMC.                           : TIME CIRCULATION STOPPED
TIML.                           : TIME LOGGER ON BOTTOM
TMAX.DEGF                   245 : MAXIMUM RECORDED TEMPERATURE
UNIT.                    HL6659 : EQUIPMENT NUMBER
BASE.                 BROUSSARD : BASE LOCATION
ENG .      J.SPENCER/C.BRICONER : RECORDED BY
WIT .                 D. MATHIS : WITNESSED BY
~Curve Information -----------------------------------------
DEPT.F          :DEPTH
CNCF.%          :
DCAL.IN         :
DT.US/F         :
GR.GAPI         :
M2R1.OHMM       :
M2R3.OHMM       :
M2R9.OHMM       :
PORZ.%          :
SP.MV           :
TENS.LBF        :
ZCOR.G/CC       :
~ASCII ------------------------------------------------------
# ...
7827.50000       36.26775       -0.34077        -999.25       64.46027        0.39588        0.28457        0.26549       27.38338      -53.68638       69.96207        0.05092
7828.00000       36.51116       -0.34077        -999.25       64.76577        0.44015        0.30104        0.26932       27.13997      -52.87172       67.94594        0.04277
7828.50000       36.51116       -0.33542        -999.25       65.37677        0.44221        0.30617        0.27163       27.01826      -52.87172       65.92982        0.03462
7829.00000       36.99798       -0.31911        -999.25       66.59876        0.44806        0.30274        0.27771       26.53145      -50.42773       63.71208        0.03882
7829.50000       37.97161       -0.30572        -999.25       68.73725        0.46997        0.31710        0.28642       25.55782      -46.76174       61.69595        0.04609
7830.00000       38.82353       -0.29209        -999.25       69.65375        0.50101        0.33681        0.30419       25.07100      -43.50308       58.06692        0.05336
7830.50000       40.04057       -0.27286        -999.25       69.95925        0.52882        0.35775        0.32310       24.46248      -39.42977       54.23627        0.05798
7831.00000       40.04057       -0.25363        -999.25       73.31974        0.55986        0.37690        0.34619       24.09737      -32.91246       50.20402        0.06263
7831.50000       39.22881       -0.23440        -999.25       76.98572        0.63038        0.45654        0.37580       23.36715      -22.32183       45.56692        0.06817
7832.00000       38.07262       -0.22759        -999.25       78.81872        0.69889        0.47400        0.40795       22.88033      -19.87784       41.73628        0.07281
7832.50000       37.97161       -0.27067        -999.25       78.20772        0.74352        0.52061        0.46519       22.51522      -22.32183       37.70402        0.07509
7833.00000       39.69615       -0.31351        -999.25       77.59672        0.68894        0.53296        0.48752       22.39352      -28.43180       33.87338        0.07149
7833.50000       40.81948       -0.35659        -999.25       76.06923        0.56752        0.47498        0.45228       22.88033      -34.54178       29.84113        0.06436
7834.00000       40.80122       -0.36511        -999.25       73.93074        0.46751        0.41373        0.41959       23.61056      -36.17111       26.01048        0.06151
7834.50000       39.73631       -0.36511        -999.25       71.48674        0.39219        0.36037        0.35775       24.46248      -33.72712       21.97823        0.06151
7835.00000       39.21907       -0.36511        -999.25       70.26475        0.35812        0.31704        0.32682       24.46248      -30.87580       18.14758        0.06116
7835.50000       40.51643       -0.36511        -999.25       69.95925        0.34351        0.29037        0.29854       24.58419      -30.87580       14.11533        0.05947
7836.00000       42.50751       -0.36511        -999.25       68.43175        0.30790        0.25619        0.26207       25.31441      -32.09779       10.28468        0.05778
7836.50000       42.71806       -0.36195        -999.25       61.30447        0.26749        0.22892        0.19813       27.50508      -34.13445        6.25243        0.04929
7837.00000       41.83084       -0.35805        -999.25       50.97555        0.23734        0.19264        0.18180       29.08723      -39.83710        2.42178        0.03910
7837.50000       40.52739       -0.35416        -999.25       43.07535        0.22806        0.18381        0.16684       29.78216      -48.39107        0.80888        0.03420
7838.00000       39.22394       -0.35026        -999.25       41.24235        0.23530        0.17149        0.15990       30.47830      -54.09371        0.80888        0.03778
7838.50000       37.66735       -0.34637        -999.25       43.07535        0.25049        0.16915        0.15936       31.03449      -58.98170        0.80888        0.04077
7839.00000       36.46613       -0.34223        -999.25       44.90834        0.26666        0.17491        0.16528       31.39960      -62.24035        0.80888        0.04766
7839.50000       36.04747       -0.33785        -999.25       47.84724        0.27615        0.18089        0.16939       31.39960      -62.64768        0.80888        0.06587
7840.00000       35.62881       -0.33298        -999.25       50.78308        0.26318        0.18039        0.17052       31.27790      -60.20369        0.80888        0.06733
7840.50000       35.30873       -0.32811        -999.25       52.54581        0.24272        0.16984        0.16368       30.66938      -53.68638        0.80888        0.04666
7841.00000       35.38540       -0.32325        -999.25       52.54581        0.22383        0.17253        0.15969       30.42597      -47.98373        0.80888        0.03910
7841.50000       36.87627       -0.31838        -999.25       53.27901        0.22593        0.18438        0.17375       29.81745      -44.72508        0.80888        0.04929
7842.00000       39.10710       -0.31181        -999.25       58.04479        0.26699        0.21317        0.19813       27.87019      -43.50308        0.80888        0.05947
7842.50000       40.64909       -0.30426        -999.25       67.20976        0.35001        0.25002        0.24533       25.92293      -40.65176        0.80888        0.06187
7843.00000       39.94321       -0.29501        -999.25       72.40324        0.50616        0.30274        0.29767       25.55782      -38.61510        0.80888        0.05263
7843.50000       38.17850       -0.29209        -999.25       72.40324        0.51734        0.33189        0.30359       27.50508      -39.60492        0.80888        0.04466
7844.00000       37.11968       -0.29209        -999.25       70.87575        0.42954        0.30522        0.28297       28.72212      -40.01225        0.80888        0.04132
7844.50000       37.57607       -0.26239        -999.25       69.04275        0.38024        0.28070        0.25764       29.74443      -34.77396        0.80888        0.03910
7845.00000       38.33672       -0.18791        -999.25       69.04275        0.37580        0.26862        0.25127       29.73591      -29.32793        0.80888        0.03910
7845.50000       42.23124       -0.11367        -999.25       71.79224        0.39663        0.30141        0.27128       28.72212      -23.82895        0.80888        0.04165
7846.00000       42.96146       -0.03919        -999.25       77.01016        0.50479        0.33817        0.30989       27.70832      -19.06317        0.80888        0.04420
7846.50000       43.93510        0.00000        -999.25       82.23114        0.61468        0.38624        0.35414       26.04463      -14.58252        0.80888        0.04336
7847.00000       43.81339       -0.06085        -999.25       84.88287        0.71615        0.44110        0.40471       25.31441      -13.76786        1.81695        0.03411
7847.50000       42.96146       -0.12170        -999.25       85.82075        0.75554        0.48461        0.44139       25.31441      -12.13853        4.03469        0.02485
7848.00000       42.23124       -0.18256        -999.25       86.76169        0.75053        0.51885        0.46423       25.55782       -9.28721        6.25243        0.03886
7848.50000       42.23124       -0.24341        -999.25       90.19855        0.72827        0.54663        0.48524       24.46248       -5.62122        8.67178        0.05794
7849.00000       42.35295       -0.24755        -999.25       92.93582        0.70660        0.56222        0.50721       23.24545       -1.54790       10.88952        0.07016
7849.50000       42.47465       -0.25144        -999.25       94.62523        0.68700        0.57827        0.52768       22.75863        4.96941       13.10726        0.07780
7850.00000       44.00447       -0.25558        -999.25       96.31158        0.67335        0.58905        0.53884       23.00204        5.78407       15.52662        0.08187
