~Version ---------------------------------------------------
VERS. 2.0 : CWLS LOG ASCII STANDARD - VERSION 2.0
WRAP. NO  : One line per depth step
DLM . SPACE : Column Data Section Delimiter
~Well ------------------------------------------------------
STRT.F       4400.5 : START DEPTH
STOP.F        14502 : STOP DEPTH
STEP.F          0.5 : STEP
NULL.       -999.25 : NULL VALUE
COMP.            PALACE OPERATING COMPANY : COMPANY
WELL.         235305-SL18350-002-18350-29 : WELL
FLD .               BELLE ISLE, SOUTHWEST : FIELD
CNTY.                            ST. MARY : COUNTY
STAT.                           LOUISIANA : STATE
CTRY.                                 USA : COUNTRY
SEC .                                     : SECTION
TWP .                                     : TOWNSHIP
RGE .                                     : RANGE
LOC . LAT 29 29' 27.731" LONG 91 31' 11.823" : LOCATION
EKB .F                       42 : ELEVATION KELLY BUSHING
EDF .F                       41 : ELEVATION DERRICK FLOOR
EGL .F                       -8 : ELEVATION GROUND LEVEL
PDAT.                       MSL : PERMANENT DATUM
EPD .                           : ELEVATION PERMANENT DATUM
APD .                        42 : ABOVE PERMANENT DATUM
LMF .                        KB : LOG MEASURED FROM
DMF .                        KB : DRILLING MEASURED FROM
API .            17101223030000 : API NUMBER
UWI .                           : UWI NUMBER
DIGC.                     NthDS : DIGITIZING COMPANY
~Params ----------------------------------------------------
SRVC.              BAKER HUGHES : LOGGING COMPANY
LOG .         HDIL/ZDEN/CNL/MAA : LOG
DATE.                2007-05-03 : RUN DATE
RUN .                         1 : RUN NUMBER
TDD .F                    12700 : TOTAL DEPTH DRILLER
TDL .F                    12702 : TOTAL DEPTH LOGGER
BOTL.F                    12694 : BOTTOM LOGGED INTERVAL
TOPL.F                     4475 : TOP LOGGED INTERVAL
CSGS.IN                  13.375 : CASING SIZE
CSGD.F                     4510 : CASING DRILLER
CSGL.F                     4514 : CASING LOGGER
BS  .IN                   12.25 : BIT SIZE
MUD .                     LIGNO : MUD TYPE
MUDD.                      10.8 : MUD DENSITY
MUDV.                        42 : MUD VISCOSITY
PH  .                       9.8 : MUD PH
FL  .                       3.8 : FLUID LOSS
MUDS.                       PIT : SOURCE OF SAMPLE
RM  .OHMM                 0.405 : MUD RESISTIVITY
RMT .DEGF                    85 : RM TEMPERATURE
RMF .OHMM                 0.304 : MUD FILTRATE RESISTIVITY
RMFT.DEGF                    85 : RMF TEMPERATURE
RMC .OHMM                 0.506 : MUD CAKE RESISTIVITY
RMCT.DEGF                    85 : RMC TEMPERATURE
RMFS.                CALCULATED : RMF SOURCE
RMCS.                CALCULATED : RMC SOURCE
RMBH.OHMM                 0.282 : MUD RESISTIVITY AT BHT
BHT .DEGF                   191 : BOTTOM HOLE TEMPERATURE
TIMC.                           : TIME CIRCULATION STOPPED
TIML.                           : TIME LOGGER ON BOTTOM
TMAX.DEGF                   191 : MAXIMUM RECORDED TEMPERATURE
UNIT.                    HL4125 : EQUIPMENT NUMBER
BASE.                  PEARLAND : BASE LOCATION
ENG .                      CASE : RECORDED BY
WIT .                    ARDOIN : WITNESSED BY
#
SRVC.              BAKER HUGHES : LOGGING COMPANY
LOG .         HDIL/ZDEN/CNL/MAA : LOG
DATE.                2007-05-11 : RUN DATE
RUN .                         2 : RUN NUMBER
TDD .F                    13580 : TOTAL DEPTH DRILLER
TDL .F                    13588 : TOTAL DEPTH LOGGER
BOTL.F                    13579 : BOTTOM LOGGED INTERVAL
TOPL.F                    11990 : TOP LOGGED INTERVAL
CSGS.IN                   9.625 : CASING SIZE
CSGD.F                    12700 : CASING DRILLER
CSGL.F                    12700 : CASING LOGGER
BS  .IN                     8.5 : BIT SIZE
MUD .           WATER BASED MUD : MUD TYPE
MUDD.                      15.7 : MUD DENSITY
MUDV.                        46 : MUD VISCOSITY
PH  .                      10.8 : MUD PH
FL  .                       2.8 : FLUID LOSS
MUDS.                  FLOWLINE : SOURCE OF SAMPLE
RM  .OHMM                 0.802 : MUD RESISTIVITY
RMT .DEGF                    75 : RM TEMPERATURE
RMF .OHMM                   0.6 : MUD FILTRATE RESISTIVITY
RMFT.DEGF                    75 : RMF TEMPERATURE
RMC .OHMM                   1.0 : MUD CAKE RESISTIVITY
RMCT.DEGF                    75 : RMC TEMPERATURE
RMFS.                  MEASURED : RMF SOURCE
RMCS.                  MEASURED : RMC SOURCE
RMBH.OHMM                  0.29 : MUD RESISTIVITY AT BHT
BHT .DEGF                   220 : BOTTOM HOLE TEMPERATURE
TIMC.                           : TIME CIRCULATION STOPPED
TIML.                           : TIME LOGGER ON BOTTOM
TMAX.DEGF                   220 : MAXIMUM RECORDED TEMPERATURE
UNIT.                    HL6659 : EQUIPMENT NUMBER
BASE.                 BROUSSARD : BASE LOCATION
ENG .                 N.FRAICHE : RECORDED BY
WIT .                  S.VESTAL : WITNESSED BY
#
SRVC.              BAKER HUGHES : LOGGING COMPANY
LOG .         HDIL/ZDEN/CNL/MAA : LOG
DATE.                2007-05-11 : RUN DATE
RUN .                         3 : RUN NUMBER
TDD .F                    14504 : TOTAL DEPTH DRILLER
TDL .F                    14506 : TOTAL DEPTH LOGGER
BOTL.F                    14508 : BOTTOM LOGGED INTERVAL
TOPL.F                    13583 : TOP LOGGED INTERVAL
CSGS.IN                   7.625 : CASING SIZE
CSGD.F                    13575 : CASING DRILLER
CSGL.F                    13583 : CASING LOGGER
BS  .IN                     6.5 : BIT SIZE
MUD .           WATER BASED MUD : MUD TYPE
MUDD.                      17.2 : MUD DENSITY
MUDV.                        49 : MUD VISCOSITY
PH  .                      10.5 : MUD PH
FL  .                      11.2 : FLUID LOSS
MUDS.                  FLOWLINE : SOURCE OF SAMPLE
RM  .OHMM                 0.202 : MUD RESISTIVITY
RMT .DEGF                    75 : RM TEMPERATURE
RMF .OHMM                 0.401 : MUD FILTRATE RESISTIVITY
RMFT.DEGF                    75 : RMF TEMPERATURE
RMC .OHMM                  2.35 : MUD CAKE RESISTIVITY
RMCT.DEGF                    75 : RMC TEMPERATURE
RMFS.                  MEASURED : RMF SOURCE
RMCS.                  MEASURED : RMC SOURCE
RMBH.OHMM                 0.292 : MUD RESISTIVITY AT BHT
BHT .DEGF                   245 : BOTTOM HOLE TEMPERATURE
TIMC.                           : TIME CIRCULATION STOPPED
TIML.                           : TIME LOGGER ON BOTTOM
TMAX.DEGF                   245 : MAXIMUM RECORDED TEMPERATURE
UNIT.                    HL6659 : EQUIPMENT NUMBER
BASE.                 BROUSSARD : BASE LOCATION
ENG .      J.SPENCER/C.BRICONER : RECORDED BY
WIT .                 D. MATHIS : WITNESSED BY
~Curve Information -----------------------------------------
DEPT.F          :DEPTH
CNCF.%          :
DCAL.IN         :
DT.US/F         :
GR.GAPI         :
M2R1.OHMM       :
M2R3.OHMM       :
M2R9.OHMM       :
PORZ.%          :
SP.MV           :
TENS.LBF        :
ZCOR.G/CC       :
~ASCII ------------------------------------------------------
# ...
11162.50000       42.52546        0.40375        -999.25      109.13263        0.66438        0.78340        0.85264       19.06315        1.22445       47.82003        0.11284
11163.00000       43.25866        0.36660        -999.25      108.36732        0.65467        0.77224        0.84865       19.91854        0.88567       40.54300        0.12522
11163.50000       42.55479        0.37466        -999.25      108.97956        0.64594        0.76131        0.83030       20.52954        1.79588       33.46758        0.13333
11164.00000       40.86477        0.38297        -999.25      110.51018        0.63734        0.75053        0.81694       20.65174        4.94282       26.39216        0.13210
11164.50000       39.17597        0.39104        -999.25      111.35201        0.63907        0.75469        0.81533       20.52954        8.57139       19.11513        0.11918
11165.00000       37.48595        0.32114        -999.25      110.47650        0.64594        0.75888        0.83147       20.28514        7.08567       12.03971        0.10627
11165.50000       37.51528        0.29988        -999.25      109.28569        0.64594        0.76302        0.84785       20.16294        3.93465        6.57718        0.09784
11166.00000       39.95927        0.31112        -999.25      109.13263        0.63800        0.75902        0.82820       20.16294        1.63261        3.53398        0.10745
11166.50000       42.34216        0.34216        -999.25      108.97956        0.63021        0.74962        0.80901       20.40734        0.84486        0.49078        0.11704
11167.00000       45.09165        0.41548        -999.25      108.01222        0.62094        0.73845        0.78656       20.89614        1.00812       -2.55242        0.12857
11167.50000       47.53564        0.47658        -999.25      107.20712        0.62059        0.74583        0.80251       20.77394        1.14282       -5.39400        0.12602
11168.00000       48.75764        0.48318        -999.25      106.40201        0.63127        0.75760        0.81886       20.04074        1.57955       -8.43720        0.11727
11168.50000       46.68025        0.44554        -999.25      106.59181        0.63991        0.76956        0.83116       19.06315        2.46527      -11.48040        0.09922
11169.00000       44.48066        0.41988        -999.25      108.27548        0.63991        0.77711        0.82627       18.32995        3.35506      -15.01127        0.08116
11169.50000       44.48066        0.44212        -999.25      109.09589        0.63991        0.76682        0.82147       17.96335        4.24078      -18.05447        0.07302
11170.00000       44.72505        0.46436        -999.25      108.62752        0.63991        0.75661        0.81663       17.96335        5.13057      -21.09767        0.06735
11170.50000       44.84725        0.53426        -999.25      108.15610        0.63794        0.75053        0.81281       17.96335        5.30608      -24.14087        0.06675
11171.00000       44.48066        0.60391        -999.25      108.60610        0.62802        0.75053        0.80901       18.08555        3.67343      -27.18407        0.06973
11171.50000       43.99186        0.65988        -999.25      109.28569        0.61948        0.74618        0.80712       18.57435        1.95098      -30.22727        0.07710
11172.00000       44.11406        0.64766        -999.25      108.13773        0.61278        0.73555        0.80523       19.06315        1.49792      -33.06886        0.08447
11172.50000       44.96945        0.57434        -999.25      106.98977        0.60620        0.72500        0.80334       19.42975        1.37139      -36.11206        0.09184
11173.00000       45.82485        0.51324        -999.25      106.95303        0.62024        0.73520        0.80146       19.12425        1.74282      -39.15526        0.08673
11173.50000       48.26884        0.47511        -999.25      107.66018        0.63871        0.75088        0.82178       18.66600        2.09792      -14.37613        0.08163
11174.00000       49.12424        0.43674        -999.25      108.36732        0.65694        0.76690        0.84254       18.20775        2.39180       10.40299        0.08759
11174.50000       47.44399        0.39861        -999.25      107.28671        0.67064        0.78325        0.86391       18.20775        2.04078       35.18211        0.09353
11175.00000       42.70876        0.34216        -999.25      106.20610        0.66875        0.78025        0.86027       18.45215        0.74282       39.71568        0.09629
11175.50000       40.81467        0.28106        -999.25      104.91120        0.65737        0.77093        0.85584       18.81875       -0.81637       39.29343        0.09700
11176.00000       43.25866        0.21996        -999.25      105.36120        0.64807        0.76517        0.84730       19.18535        0.40812       38.87117        0.09759
11176.50000       45.58045        0.15886        -999.25      106.19691        0.63889        0.76747        0.83884       19.79634        1.63261       38.44892        0.09680
11177.00000       46.55805        0.12367        -999.25      106.39895        0.62979        0.76971        0.83054       19.91854        0.68976       38.02666        0.09388
11177.50000       45.45825        0.09483        -999.25      106.32548        0.62591        0.77195        0.82279       20.16294       -0.25310       37.60441        0.08759
11178.00000       43.19756        0.06037        -999.25      106.83671        0.62321        0.74821        0.81794       19.91854       -0.11841       37.18215        0.08133
11178.50000       41.46599        0.06623        -999.25      107.34793        0.62567        0.75102        0.82433       19.79634        1.63261       36.75989        0.07924
11179.00000       40.08147        0.09483        -999.25      107.44895        0.63246        0.76045        0.83077       20.10795        1.13465       36.33764        0.08351
11179.50000       39.95927        0.12367        -999.25      107.30814        0.63991        0.77000        0.84065       20.88514       -1.35922       35.91538        0.08775
11180.00000       41.05907        0.14664        -999.25      107.07242        0.64443        0.77776        0.85144       21.50714       -2.50616       35.49313        0.08775
11180.50000       43.50306        0.14664        -999.25      106.83671        0.63692        0.77391        0.84984       22.11814       -1.63269       35.07087        0.08775
11181.00000       45.33605        0.12391        -999.25      105.68875        0.62973        0.76733        0.83994       22.36253        0.11833       34.64862        0.09114
11181.50000       45.58045        0.00978        -999.25      104.54079        0.62274        0.76081        0.83015       22.60693        0.40812       34.14191        0.09535
11182.00000       44.23626       -0.10436        -999.25      104.13671        0.61577        0.75441        0.82047       22.48473       -1.63269       33.71965        0.09957
11182.50000       42.76986       -0.19552        -999.25      104.22548        0.60894        0.74800        0.81091       22.60693       -1.63269       33.29740        0.10380
11183.00000       41.42567       -0.19552        -999.25      104.31426        0.60774        0.74164        0.80146       22.85133        0.66118       32.87514        0.10802
11183.50000       41.30347       -0.19552        -999.25      104.71834        0.61635        0.74492        0.81579       22.85133        2.04078       32.45289        0.10898
11184.00000       42.03666       -0.19552        -999.25      105.54181        0.63097        0.76618        0.82797       22.48473        0.54282       32.03063        0.09265
11184.50000       43.25866       -0.19552        -999.25      106.36528        0.64594        0.78804        0.84033       22.11814       -1.95106       31.60838        0.08004
11185.00000       42.89206       -0.19552        -999.25      107.00201        0.65645        0.79465        0.84523       21.99594       -2.44902       31.18612        0.08231
