~Version ---------------------------------------------------
VERS. 2.0 : CWLS LOG ASCII STANDARD - VERSION 2.0
WRAP. NO  : One line per depth step
DLM . SPACE : Column Data Section Delimiter
~Well ------------------------------------------------------
STRT.F       4400.5 : START DEPTH
STOP.F        14502 : STOP DEPTH
STEP.F          0.5 : STEP
NULL.       -999.25 : NULL VALUE
COMP.            PALACE OPERATING COMPANY : COMPANY
WELL.         235305-SL18350-002-18350-29 : WELL
FLD .               BELLE ISLE, SOUTHWEST : FIELD
CNTY.                            ST. MARY : COUNTY
STAT.                           LOUISIANA : STATE
CTRY.                                 USA : COUNTRY
SEC .                                     : SECTION
TWP .                                     : TOWNSHIP
RGE .                                     : RANGE
LOC . LAT 29 29' 27.731" LONG 91 31' 11.823" : LOCATION
EKB .F                       42 : ELEVATION KELLY BUSHING
EDF .F                       41 : ELEVATION DERRICK FLOOR
EGL .F                       -8 : ELEVATION GROUND LEVEL
PDAT.                       MSL : PERMANENT DATUM
EPD .                           : ELEVATION PERMANENT DATUM
APD .                        42 : ABOVE PERMANENT DATUM
LMF .                        KB : LOG MEASURED FROM
DMF .                        KB : DRILLING MEASURED FROM
API .            17101223030000 : API NUMBER
UWI .                           : UWI NUMBER
DIGC.                     NthDS : DIGITIZING COMPANY
~Params ----------------------------------------------------
SRVC.              BAKER HUGHES : LOGGING COMPANY
LOG .         HDIL/ZDEN/CNL/MAA : LOG
DATE.                2007-05-03 : RUN DATE
RUN .                         1 : RUN NUMBER
TDD .F                    12700 : TOTAL DEPTH DRILLER
TDL .F                    12702 : TOTAL DEPTH LOGGER
BOTL.F                    12694 : BOTTOM LOGGED INTERVAL
TOPL.F                     4475 : TOP LOGGED INTERVAL
CSGS.IN                  13.375 : CASING SIZE
CSGD.F                     4510 : CASING DRILLER
CSGL.F                     4514 : CASING LOGGER
BS  .IN                   12.25 : BIT SIZE
MUD .                     LIGNO : MUD TYPE
MUDD.                      10.8 : MUD DENSITY
MUDV.                        42 : MUD VISCOSITY
PH  .                       9.8 : MUD PH
FL  .                       3.8 : FLUID LOSS
MUDS.                       PIT : SOURCE OF SAMPLE
RM  .OHMM                 0.405 : MUD RESISTIVITY
RMT .DEGF                    85 : RM TEMPERATURE
RMF .OHMM                 0.304 : MUD FILTRATE RESISTIVITY
RMFT.DEGF                    85 : RMF TEMPERATURE
RMC .OHMM                 0.506 : MUD CAKE RESISTIVITY
RMCT.DEGF                    85 : RMC TEMPERATURE
RMFS.                CALCULATED : RMF SOURCE
RMCS.                CALCULATED : RMC SOURCE
RMBH.OHMM                 0.282 : MUD RESISTIVITY AT BHT
BHT .DEGF                   191 : BOTTOM HOLE TEMPERATURE
TIMC.                           : TIME CIRCULATION STOPPED
TIML.                           : TIME LOGGER ON BOTTOM
TMAX.DEGF                   191 : MAXIMUM RECORDED TEMPERATURE
UNIT.                    HL4125 : EQUIPMENT NUMBER
BASE.                  PEARLAND : BASE LOCATION
ENG .                      CASE : RECORDED BY
WIT .                    ARDOIN : WITNESSED BY
#
SRVC.              BAKER HUGHES : LOGGING COMPANY
LOG .         HDIL/ZDEN/CNL/MAA : LOG
DATE.                2007-05-11 : RUN DATE
RUN .                         2 : RUN NUMBER
TDD .F                    13580 : TOTAL DEPTH DRILLER
TDL .F                    13588 : TOTAL DEPTH LOGGER
BOTL.F                    13579 : BOTTOM LOGGED INTERVAL
TOPL.F                    11990 : TOP LOGGED INTERVAL
CSGS.IN                   9.625 : CASING SIZE
CSGD.F                    12700 : CASING DRILLER
CSGL.F                    12700 : CASING LOGGER
BS  .IN                     8.5 : BIT SIZE
MUD .           WATER BASED MUD : MUD TYPE
MUDD.                      15.7 : MUD DENSITY
MUDV.                        46 : MUD VISCOSITY
PH  .                      10.8 : MUD PH
FL  .                       2.8 : FLUID LOSS
MUDS.                  FLOWLINE : SOURCE OF SAMPLE
RM  .OHMM                 0.802 : MUD RESISTIVITY
RMT .DEGF                    75 : RM TEMPERATURE
RMF .OHMM                   0.6 : MUD FILTRATE RESISTIVITY
RMFT.DEGF                    75 : RMF TEMPERATURE
RMC .OHMM                   1.0 : MUD CAKE RESISTIVITY
RMCT.DEGF                    75 : RMC TEMPERATURE
RMFS.                  MEASURED : RMF SOURCE
RMCS.                  MEASURED : RMC SOURCE
RMBH.OHMM                  0.29 : MUD RESISTIVITY AT BHT
BHT .DEGF                   220 : BOTTOM HOLE TEMPERATURE
TIMC.                           : TIME CIRCULATION STOPPED
TIML.                           : TIME LOGGER ON BOTTOM
TMAX.DEGF                   220 : MAXIMUM RECORDED TEMPERATURE
UNIT.                    HL6659 : EQUIPMENT NUMBER
BASE.                 BROUSSARD : BASE LOCATION
ENG .                 N.FRAICHE : RECORDED BY
WIT .                  S.VESTAL : WITNESSED BY
#
SRVC.              BAKER HUGHES : LOGGING COMPANY
LOG .         HDIL/ZDEN/CNL/MAA : LOG
DATE.                2007-05-11 : RUN DATE
RUN .                         3 : RUN NUMBER
TDD .F                    14504 : TOTAL DEPTH DRILLER
TDL .F                    14506 : TOTAL DEPTH LOGGER
BOTL.F                    14508 : BOTTOM LOGGED INTERVAL
TOPL.F                    13583 : TOP LOGGED INTERVAL
CSGS.IN                   7.625 : CASING SIZE
CSGD.F                    13575 : CASING DRILLER
CSGL.F                    13583 : CASING LOGGER
BS  .IN                     6.5 : BIT SIZE
MUD .           WATER BASED MUD : MUD TYPE
MUDD.                      17.2 : MUD DENSITY
MUDV.                        49 : MUD VISCOSITY
PH  .                      10.5 : MUD PH
FL  .                      11.2 : FLUID LOSS
MUDS.                  FLOWLINE : SOURCE OF SAMPLE
RM  .OHMM                 0.202 : MUD RESISTIVITY
RMT .DEGF                    75 : RM TEMPERATURE
RMF .OHMM                 0.401 : MUD FILTRATE RESISTIVITY
RMFT.DEGF                    75 : RMF TEMPERATURE
RMC .OHMM                  2.35 : MUD CAKE RESISTIVITY
RMCT.DEGF                    75 : RMC TEMPERATURE
RMFS.                  MEASURED : RMF SOURCE
RMCS.                  MEASURED : RMC SOURCE
RMBH.OHMM                 0.292 : MUD RESISTIVITY AT BHT
BHT .DEGF                   245 : BOTTOM HOLE TEMPERATURE
TIMC.                           : TIME CIRCULATION STOPPED
TIML.                           : TIME LOGGER ON BOTTOM
TMAX.DEGF                   245 : MAXIMUM RECORDED TEMPERATURE
UNIT.                    HL6659 : EQUIPMENT NUMBER
BASE.                 BROUSSARD : BASE LOCATION
ENG .      J.SPENCER/C.BRICONER : RECORDED BY
WIT .                 D. MATHIS : WITNESSED BY
~Curve Information -----------------------------------------
DEPT.F          :DEPTH
CNCF.%          :
DCAL.IN         :
DT.US/F         :
GR.GAPI         :
M2R1.OHMM       :
M2R3.OHMM       :
M2R9.OHMM       :
PORZ.%          :
SP.MV           :
TENS.LBF        :
ZCOR.G/CC       :
~ASCII ------------------------------------------------------
# ...
13807.50000       35.16122        0.43636      107.61540       85.54284        0.69451        0.65352        0.66599       14.18183      -13.87759        8.32052       -0.00541
13808.00000       33.69698        0.41212      107.08503       85.88569        0.70433        0.66899        0.67200       14.18183      -12.24494       -2.20802       -0.00331
13808.50000       33.69698        0.41212      107.07491       82.99284        0.71429        0.67528        0.67801       14.30304      -10.20412      -12.73656       -0.01084
13809.00000       33.96122        0.41212      107.39880       79.59182        0.71182        0.67528        0.67826       14.30304      -10.20412      -23.26510       -0.01710
13809.50000       35.28364        0.41212      107.72066       78.70100        0.69941        0.66874        0.66999       14.42425      -11.42861      -33.99525       -0.02402
13810.00000       36.60607        0.43636      108.04252       80.37243        0.69451        0.66071        0.66177       14.54547      -13.87759      -44.52379       -0.03108
13810.50000       37.61576        0.41212      108.37653       82.04080        0.69451        0.65272        0.65370       14.42425      -14.28575       10.22077       -0.03514
13811.00000       37.69698        0.43758      108.76722       80.51018        0.68643        0.64483        0.64707       14.30304      -14.28575       55.74042       -0.02720
13811.50000       37.03637        0.46958      109.15588       78.97957        0.67883        0.63709        0.64140       14.18183      -14.28575       56.70378       -0.02033
13812.00000       36.37455        0.50133      109.13361       78.97957        0.67175        0.63246        0.63578       14.18183      -13.46942       57.86875       -0.01445
13812.50000       36.31152        0.53333      108.83604       81.27549        0.66431        0.63246        0.63246       14.30304      -12.24494       58.83210       -0.00978
13813.00000       36.41576        0.52800      108.47774       83.57141        0.67320        0.63246        0.63453       14.30304      -11.42861       59.99707       -0.00510
13813.50000       36.48485        0.52339      108.19839       85.31631        0.68374        0.63643        0.63804       14.30304      -10.61228       60.96043       -0.00043
13814.00000       36.35152        0.51903      108.40082       84.85712        0.69451        0.64038        0.64158       14.42425      -10.20412       62.12540        0.00424
13814.50000       35.68485        0.51442      108.90689       84.39794        0.68804        0.64441        0.64026       14.42425      -10.20412       63.08875        0.00524
13815.00000       35.13576        0.51006      109.80365       83.93875        0.66693        0.62533        0.61985       14.42425       -9.79596       64.25372        0.00331
13815.50000       35.05455        0.50909      110.72875       83.65406        0.64640        0.60677        0.60005       14.42425       -9.79596       65.21708       -0.00063
13816.00000       34.97334        0.50909      110.72875       84.07345        0.62656        0.59401        0.59568       14.42425       -9.38779       66.38205       -0.00398
13816.50000       35.01819        0.50909      110.64171       84.48977        0.63121        0.60241        0.60128       14.42425       -9.38779       67.34541       -0.00612
13817.00000       35.56364        0.50909      110.20851       81.71018        0.63590        0.60870        0.60694       14.42425       -9.38779       68.51038       -0.00167
13817.50000       36.25940        0.50570      109.77531       81.58161        0.64062        0.60609        0.60580       14.30304       -9.38779       69.82769        0.00204
13818.00000       37.55879        0.50036      109.34009       81.45304        0.64525        0.60354        0.60016       14.54547       -9.38779       70.79105       -0.00549
13818.50000       37.88728        0.49479      108.90689       81.58161        0.64961        0.60100        0.59457       14.90910       -8.70616       71.95602       -0.01806
13819.00000       37.99152        0.48824      109.19637       81.77447        0.65480        0.59792        0.59730       15.03031       -8.25310       69.29036       -0.03061
13819.50000       38.22182        0.48485      109.91904       81.96427        0.65431        0.59579        0.60354       14.54547       -8.70616       65.81825       -0.03135
13820.00000       39.03031        0.50909      110.64171       82.04080        0.65047        0.59362        0.60005       14.06062       -9.97963       62.34613       -0.03206
13820.50000       39.57576        0.46061      111.36438       82.04080        0.63757        0.59151        0.59657       13.93941      -11.65310       58.87402       -0.03265
13821.00000       39.72728        0.46061      111.96155       83.62651        0.62486        0.58936        0.59334       13.93941      -12.37963       55.40191       -0.03265
13821.50000       38.78788        0.48485      112.05467       85.60712        0.61713        0.58727        0.59008       14.06062      -10.61228       51.72819       -0.03265
13822.00000       37.57576        0.46061      112.14576       87.58773        0.62838        0.58683        0.58683       14.18183       -9.59187       55.91734       -0.02222
13822.50000       36.61455        0.46061      111.63969       87.75610        0.63978        0.58683        0.59473       14.30304       -9.38779       64.94519       -0.00918
13823.00000       35.53213        0.46061      110.59313       84.91835        0.65193        0.59568        0.61207       14.18183      -10.61228       74.17464        0.00386
13823.50000       34.75758        0.50909      109.41297       81.73467        0.66962        0.61841        0.63092       13.81819      -12.24494       83.20249        0.01351
13824.00000       35.21213        0.50909      108.53037       81.73467        0.69192        0.63739        0.64194       13.69698      -13.87759       92.43194        0.00969
13824.50000       35.03031        0.50909      108.09718       81.73467        0.70104        0.64998        0.65315       13.69698      -14.28575      103.42665        0.00586
13825.00000       34.42425        0.50909      107.66398       83.09386        0.70104        0.66276        0.66462       13.69698      -13.06126      112.45449        0.00204
13825.50000       34.30304        0.50909      107.38867       84.72855        0.71764        0.67845        0.67858       13.57577      -11.42861      121.68395        0.00402
13826.00000       34.88485        0.50909      107.35021       86.08773        0.73175        0.69179        0.69017       13.45456       -9.38779      128.29245        0.00565
13826.50000       35.61213        0.50909      107.66195       86.90814        0.72439        0.69140        0.69127       13.33334       -8.57147      125.22356        0.00731
13827.00000       35.58182        0.50909      107.97167       87.36733        0.71182        0.68753        0.68592       13.09092       -8.57147      122.15468        0.00896
13827.50000       35.36122        0.50909      108.22673       87.12243        0.69941        0.68368        0.68055       12.36365       -8.57147      119.28740        0.01059
13828.00000       35.27273        0.50909      108.44333       86.40916        0.69321        0.67985        0.67528       12.24244       -8.16330      116.21851        0.01224
13828.50000       35.27273        0.50909      108.66195       85.69284        0.69108        0.67604        0.67006       12.36365       -7.75514      113.14963        0.00884
13829.00000       35.27273        0.50909      108.70446       85.54896        0.68888        0.67528        0.66899       12.36365       -7.75514      110.08074        0.00545
13829.50000       34.43879        0.50909      108.70446       85.78467        0.68804        0.67528        0.66899       12.60607       -7.75514      107.01185        0.00204
13830.00000       34.16607        0.50909      108.28746       86.02039        0.69451        0.67769        0.67478       12.72728       -8.57147       91.24140       -0.00137
