~Version ---------------------------------------------------
VERS. 2.0 : CWLS LOG ASCII STANDARD - VERSION 2.0
WRAP. NO  : One line per depth step
DLM . SPACE : Column Data Section Delimiter
~Well ------------------------------------------------------
STRT.F       4400.5 : START DEPTH
STOP.F        14502 : STOP DEPTH
STEP.F          0.5 : STEP
NULL.       -999.25 : NULL VALUE
COMP.            PALACE OPERATING COMPANY : COMPANY
WELL.         235305-SL18350-002-18350-29 : WELL
FLD .               BELLE ISLE, SOUTHWEST : FIELD
CNTY.                            ST. MARY : COUNTY
STAT.                           LOUISIANA : STATE
CTRY.                                 USA : COUNTRY
SEC .                                     : SECTION
TWP .                                     : TOWNSHIP
RGE .                                     : RANGE
LOC . LAT 29 29' 27.731" LONG 91 31' 11.823" : LOCATION
EKB .F                       42 : ELEVATION KELLY BUSHING
EDF .F                       41 : ELEVATION DERRICK FLOOR
EGL .F                       -8 : ELEVATION GROUND LEVEL
PDAT.                       MSL : PERMANENT DATUM
EPD .                           : ELEVATION PERMANENT DATUM
APD .                        42 : ABOVE PERMANENT DATUM
LMF .                        KB : LOG MEASURED FROM
DMF .                        KB : DRILLING MEASURED FROM
API .            17101223030000 : API NUMBER
UWI .                           : UWI NUMBER
DIGC.                     NthDS : DIGITIZING COMPANY
~Params ----------------------------------------------------
SRVC.              BAKER HUGHES : LOGGING COMPANY
LOG .         HDIL/ZDEN/CNL/MAA : LOG
DATE.                2007-05-03 : RUN DATE
RUN .                         1 : RUN NUMBER
TDD .F                    12700 : TOTAL DEPTH DRILLER
TDL .F                    12702 : TOTAL DEPTH LOGGER
BOTL.F                    12694 : BOTTOM LOGGED INTERVAL
TOPL.F                     4475 : TOP LOGGED INTERVAL
CSGS.IN                  13.375 : CASING SIZE
CSGD.F                     4510 : CASING DRILLER
CSGL.F                     4514 : CASING LOGGER
BS  .IN                   12.25 : BIT SIZE
MUD .                     LIGNO : MUD TYPE
MUDD.                      10.8 : MUD DENSITY
MUDV.                        42 : MUD VISCOSITY
PH  .                       9.8 : MUD PH
FL  .                       3.8 : FLUID LOSS
MUDS.                       PIT : SOURCE OF SAMPLE
RM  .OHMM                 0.405 : MUD RESISTIVITY
RMT .DEGF                    85 : RM TEMPERATURE
RMF .OHMM                 0.304 : MUD FILTRATE RESISTIVITY
RMFT.DEGF                    85 : RMF TEMPERATURE
RMC .OHMM                 0.506 : MUD CAKE RESISTIVITY
RMCT.DEGF                    85 : RMC TEMPERATURE
RMFS.                CALCULATED : RMF SOURCE
RMCS.                CALCULATED : RMC SOURCE
RMBH.OHMM                 0.282 : MUD RESISTIVITY AT BHT
BHT .DEGF                   191 : BOTTOM HOLE TEMPERATURE
TIMC.                           : TIME CIRCULATION STOPPED
TIML.                           : TIME LOGGER ON BOTTOM
TMAX.DEGF                   191 : MAXIMUM RECORDED TEMPERATURE
UNIT.                    HL4125 : EQUIPMENT NUMBER
BASE.                  PEARLAND : BASE LOCATION
ENG .                      CASE : RECORDED BY
WIT .                    ARDOIN : WITNESSED BY
#
SRVC.              BAKER HUGHES : LOGGING COMPANY
LOG .         HDIL/ZDEN/CNL/MAA : LOG
DATE.                2007-05-11 : RUN DATE
RUN .                         2 : RUN NUMBER
TDD .F                    13580 : TOTAL DEPTH DRILLER
TDL .F                    13588 : TOTAL DEPTH LOGGER
BOTL.F                    13579 : BOTTOM LOGGED INTERVAL
TOPL.F                    11990 : TOP LOGGED INTERVAL
CSGS.IN                   9.625 : CASING SIZE
CSGD.F                    12700 : CASING DRILLER
CSGL.F                    12700 : CASING LOGGER
BS  .IN                     8.5 : BIT SIZE
MUD .           WATER BASED MUD : MUD TYPE
MUDD.                      15.7 : MUD DENSITY
MUDV.                        46 : MUD VISCOSITY
PH  .                      10.8 : MUD PH
FL  .                       2.8 : FLUID LOSS
MUDS.                  FLOWLINE : SOURCE OF SAMPLE
RM  .OHMM                 0.802 : MUD RESISTIVITY
RMT .DEGF                    75 : RM TEMPERATURE
RMF .OHMM                   0.6 : MUD FILTRATE RESISTIVITY
RMFT.DEGF                    75 : RMF TEMPERATURE
RMC .OHMM                   1.0 : MUD CAKE RESISTIVITY
RMCT.DEGF                    75 : RMC TEMPERATURE
RMFS.                  MEASURED : RMF SOURCE
RMCS.                  MEASURED : RMC SOURCE
RMBH.OHMM                  0.29 : MUD RESISTIVITY AT BHT
BHT .DEGF                   220 : BOTTOM HOLE TEMPERATURE
TIMC.                           : TIME CIRCULATION STOPPED
TIML.                           : TIME LOGGER ON BOTTOM
TMAX.DEGF                   220 : MAXIMUM RECORDED TEMPERATURE
UNIT.                    HL6659 : EQUIPMENT NUMBER
BASE.                 BROUSSARD : BASE LOCATION
ENG .                 N.FRAICHE : RECORDED BY
WIT .                  S.VESTAL : WITNESSED BY
#
SRVC.              BAKER HUGHES : LOGGING COMPANY
LOG .         HDIL/ZDEN/CNL/MAA : LOG
DATE.                2007-05-11 : RUN DATE
RUN .                         3 : RUN NUMBER
TDD .F                    14504 : TOTAL DEPTH DRILLER
TDL .F                    14506 : TOTAL DEPTH LOGGER
BOTL.F                    14508 : BOTTOM LOGGED INTERVAL
TOPL.F                    13583 : TOP LOGGED INTERVAL
CSGS.IN                   7.625 : CASING SIZE
CSGD.F                    13575 : CASING DRILLER
CSGL.F                    13583 : CASING LOGGER
BS  .IN                     6.5 : BIT SIZE
MUD .           WATER BASED MUD : MUD TYPE
MUDD.                      17.2 : MUD DENSITY
MUDV.                        49 : MUD VISCOSITY
PH  .                      10.5 : MUD PH
FL  .                      11.2 : FLUID LOSS
MUDS.                  FLOWLINE : SOURCE OF SAMPLE
RM  .OHMM                 0.202 : MUD RESISTIVITY
RMT .DEGF                    75 : RM TEMPERATURE
RMF .OHMM                 0.401 : MUD FILTRATE RESISTIVITY
RMFT.DEGF                    75 : RMF TEMPERATURE
RMC .OHMM                  2.35 : MUD CAKE RESISTIVITY
RMCT.DEGF                    75 : RMC TEMPERATURE
RMFS.                  MEASURED : RMF SOURCE
RMCS.                  MEASURED : RMC SOURCE
RMBH.OHMM                 0.292 : MUD RESISTIVITY AT BHT
BHT .DEGF                   245 : BOTTOM HOLE TEMPERATURE
TIMC.                           : TIME CIRCULATION STOPPED
TIML.                           : TIME LOGGER ON BOTTOM
TMAX.DEGF                   245 : MAXIMUM RECORDED TEMPERATURE
UNIT.                    HL6659 : EQUIPMENT NUMBER
BASE.                 BROUSSARD : BASE LOCATION
ENG .      J.SPENCER/C.BRICONER : RECORDED BY
WIT .                 D. MATHIS : WITNESSED BY
~Curve Information -----------------------------------------
DEPT.F          :DEPTH
CNCF.%          :
DCAL.IN         :
DT.US/F         :
GR.GAPI         :
M2R1.OHMM       :
M2R3.OHMM       :
M2R9.OHMM       :
PORZ.%          :
SP.MV           :
TENS.LBF        :
ZCOR.G/CC       :
~ASCII ------------------------------------------------------
# ...
13140.50000       41.06884        0.53768      116.12754       76.82925        0.52972        0.52344        0.51696       14.78616       -1.00004       11.47224       -0.03140
13141.00000       40.88066        0.51324      115.78948       76.96644        0.52399        0.51958        0.51093       15.39716       -0.90248        9.20980       -0.03699
13141.50000       40.69247        0.43992      115.14778       78.07620        0.52462        0.51575        0.50787       16.13036       -0.80492        6.74575       -0.03226
13142.00000       39.90184        0.39104      114.05264       78.63108        0.53692        0.52600        0.51841       16.37476       -0.69110        4.28170       -0.02118
13142.50000       39.11121        0.31772      112.95547       77.79876        0.54739        0.53471        0.52704       16.13036       -0.46345        2.01926       -0.01581
13143.00000       38.32058        0.31772      112.61742       77.35669        0.55593        0.54356        0.53471       15.51936       -0.15045       -0.44479       -0.01305
13143.50000       38.16172        0.31772      112.34819       78.46340        0.55593        0.55074        0.54244       15.03056        0.16256       -0.69110       -0.01240
13144.00000       38.84603        0.34216      112.58503       79.57315        0.55593        0.54284        0.54178       14.54176       -0.51630       -0.93742       -0.01494
13144.50000       41.22159        0.31772      113.76519       78.65852        0.54765        0.53316        0.53546       14.54176       -1.05695       -1.23300       -0.03781
13145.00000       43.62526        0.34216      114.94535       77.74388        0.53411        0.52364        0.52418       14.78616       -1.05695       -1.47932       -0.03781
13145.50000       43.77801        0.36660      115.70244       78.42071        0.52095        0.51425        0.51309       14.78616       -1.05695       -1.72563       -0.03781
13146.00000       42.80286        0.39104      116.35426       78.41461        0.51575        0.50507        0.51093       14.66396       -1.05695       -1.97195       -0.05000
13146.50000       40.13646        0.46436      117.00406       75.67071        0.51575        0.50144        0.51093       14.66396       -1.05695       -2.21826       -0.07033
13147.00000       38.00408        0.52546      117.05466       73.47559        0.51381        0.50144        0.50564       14.90836       -1.05695       -2.46458       -0.08760
13147.50000       38.47088        0.58656      117.10527       73.47559        0.50902        0.50144        0.50040       15.03056       -1.05695       -2.71090       -0.08150
13148.00000       39.63666        0.64766      117.15588       73.28352        0.50427        0.50007        0.49522       15.27496       -1.05695       -2.95721       -0.07260
13148.50000       40.65214        0.65108      117.20649       73.04266        0.50247        0.49843        0.49295       15.39716       -1.05695       -3.20353       -0.06372
13149.00000       41.05907        0.63984      116.91701       72.80181        0.50512        0.49675        0.49508       15.88596       -1.02443       -3.44985       -0.05130
13149.50000       42.82363        0.62884      116.62754       72.56096        0.50450        0.49522        0.49596       16.00816       -0.98378       -3.69616       -0.03650
13150.00000       44.23626        0.61760      116.41499       73.17071        0.50172        0.49364        0.49212       15.88596       -0.94719       20.93546       -0.03140
13150.50000       43.47505        0.68154      116.66127       74.69386        0.49839        0.49115        0.48752       15.94322       -1.06535       20.68915       -0.04363
13151.00000       41.71765        0.75456      116.75457       76.22447        0.49429        0.48643        0.48374       16.06492       -1.02453       20.44283       -0.05306
13151.50000       41.10548        0.85193      116.85599       77.38467        0.48812        0.48171        0.48107       16.30833       -0.98371       20.19651       -0.04627
13152.00000       41.25761        0.97363      116.95741       77.06325        0.48207        0.47707        0.47869       16.30833       -0.94290       19.95020       -0.04041
13152.50000       41.41948        1.07221      117.05883       76.73876        0.47846        0.47249        0.47636       16.43003       -0.90616       19.70388       -0.03714
13153.00000       41.62272        1.07878      117.13997       76.41733        0.47846        0.46790        0.47400       16.55173       -0.86535       19.40830       -0.02898
13153.50000       43.10994        1.08511      117.37120       75.75304        0.47846        0.46227        0.46536       16.30833       -0.82453       19.16199       -0.02367
13154.00000       44.30021        1.09144      117.95133       74.57753        0.46838        0.45513        0.45693       16.18662       -0.30616       18.91567       -0.02980
13154.50000       44.30021        1.12771      118.53145       73.39896        0.45847        0.44806        0.44861       16.55173        0.33057       18.66935       -0.03418
13155.00000       43.96552        1.20901      118.76269       74.89896        0.45654        0.44110        0.44043       17.16025        0.97139       20.03594       -0.03163
13155.50000       43.12820        1.29006      118.76269       77.06631        0.45654        0.43973        0.43632       17.28196        0.91833       28.05572       -0.02908
13156.00000       42.02800        1.26572      118.76269       78.57243        0.45654        0.43973        0.43800       17.28196        0.40812       35.87389       -0.02653
13156.50000       40.86207        1.20487      118.45843       79.08059        0.45654        0.43973        0.43973       16.43003       -0.10208       43.89368       -0.02959
13157.00000       40.11360        1.16836      118.53145       78.94284        0.45654        0.43973        0.43973       15.57810       -0.61228       51.71185       -0.03265
13157.50000       40.47262        1.19757      120.41380       78.25406        0.44676        0.42978        0.43075       14.60447       -0.20412       59.73163       -0.06494
13158.00000       41.19067        1.24625      122.18256       77.67855        0.43718        0.41762        0.41618       14.60447        0.48567       67.54980       -0.09184
13158.50000       41.67506        1.29493      123.46857       76.30100        0.42553        0.40349        0.39935       15.57810        0.86935       75.56959       -0.08951
13159.00000       41.80528        1.31440      123.12374       74.38774        0.41959        0.39581        0.39414       16.79514        1.24894       64.79017       -0.06837
13159.50000       41.93550        1.24138      121.34889       74.52549        0.42685        0.39374        0.39570       17.64707        1.63261       52.44712       -0.04722
13160.00000       41.48520        1.14207      119.57404       74.66631        0.44563        0.40588        0.40036       17.28196        1.04894       40.10408       -0.03061
13160.50000       40.64909        1.01014      118.05275       75.42855        0.46519        0.42846        0.43156       16.91685        0.46527       27.76103       -0.03112
13161.00000       39.81177        0.87821      117.16431       76.34692        0.46519        0.45228        0.44388       16.55173       -0.11841       15.41798       -0.05280
13161.50000       39.27506        0.84535      117.22313       77.26529        0.46830        0.45228        0.44563       16.06492       -0.69800       19.80874       -0.05306
13162.00000       39.18865        0.83732      117.28398       76.76018        0.47222        0.45228        0.44735       15.69981       -0.88575       23.99790       -0.04796
13162.50000       40.73794        0.82929      117.34281       75.89998        0.47667        0.46085        0.45740       15.82151       -0.96739       28.38866       -0.04286
13163.00000       42.28601        0.80325      116.23733       75.03672        0.49443        0.47547        0.47342       16.18662       -1.05310       32.77942       -0.03776
