~Version ---------------------------------------------------
VERS. 2.0 : CWLS LOG ASCII STANDARD - VERSION 2.0
WRAP. NO  : One line per depth step
DLM . SPACE : Column Data Section Delimiter
~Well ------------------------------------------------------
STRT.F       4400.5 : START DEPTH
STOP.F        14502 : STOP DEPTH
STEP.F          0.5 : STEP
NULL.       -999.25 : NULL VALUE
COMP.            PALACE OPERATING COMPANY : COMPANY
WELL.         235305-SL18350-002-18350-29 : WELL
FLD .               BELLE ISLE, SOUTHWEST : FIELD
CNTY.                            ST. MARY : COUNTY
STAT.                           LOUISIANA : STATE
CTRY.                                 USA : COUNTRY
SEC .                                     : SECTION
TWP .                                     : TOWNSHIP
RGE .                                     : RANGE
LOC . LAT 29 29' 27.731" LONG 91 31' 11.823" : LOCATION
EKB .F                       42 : ELEVATION KELLY BUSHING
EDF .F                       41 : ELEVATION DERRICK FLOOR
EGL .F                       -8 : ELEVATION GROUND LEVEL
PDAT.                       MSL : PERMANENT DATUM
EPD .                           : ELEVATION PERMANENT DATUM
APD .                        42 : ABOVE PERMANENT DATUM
LMF .                        KB : LOG MEASURED FROM
DMF .                        KB : DRILLING MEASURED FROM
API .            17101223030000 : API NUMBER
UWI .                           : UWI NUMBER
DIGC.                     NthDS : DIGITIZING COMPANY
~Params ----------------------------------------------------
SRVC.              BAKER HUGHES : LOGGING COMPANY
LOG .         HDIL/ZDEN/CNL/MAA : LOG
DATE.                2007-05-03 : RUN DATE
RUN .                         1 : RUN NUMBER
TDD .F                    12700 : TOTAL DEPTH DRILLER
TDL .F                    12702 : TOTAL DEPTH LOGGER
BOTL.F                    12694 : BOTTOM LOGGED INTERVAL
TOPL.F                     4475 : TOP LOGGED INTERVAL
CSGS.IN                  13.375 : CASING SIZE
CSGD.F                     4510 : CASING DRILLER
CSGL.F                     4514 : CASING LOGGER
BS  .IN                   12.25 : BIT SIZE
MUD .                     LIGNO : MUD TYPE
MUDD.                      10.8 : MUD DENSITY
MUDV.                        42 : MUD VISCOSITY
PH  .                       9.8 : MUD PH
FL  .                       3.8 : FLUID LOSS
MUDS.                       PIT : SOURCE OF SAMPLE
RM  .OHMM                 0.405 : MUD RESISTIVITY
RMT .DEGF                    85 : RM TEMPERATURE
RMF .OHMM                 0.304 : MUD FILTRATE RESISTIVITY
RMFT.DEGF                    85 : RMF TEMPERATURE
RMC .OHMM                 0.506 : MUD CAKE RESISTIVITY
RMCT.DEGF                    85 : RMC TEMPERATURE
RMFS.                CALCULATED : RMF SOURCE
RMCS.                CALCULATED : RMC SOURCE
RMBH.OHMM                 0.282 : MUD RESISTIVITY AT BHT
BHT .DEGF                   191 : BOTTOM HOLE TEMPERATURE
TIMC.                           : TIME CIRCULATION STOPPED
TIML.                           : TIME LOGGER ON BOTTOM
TMAX.DEGF                   191 : MAXIMUM RECORDED TEMPERATURE
UNIT.                    HL4125 : EQUIPMENT NUMBER
BASE.                  PEARLAND : BASE LOCATION
ENG .                      CASE : RECORDED BY
WIT .                    ARDOIN : WITNESSED BY
#
SRVC.              BAKER HUGHES : LOGGING COMPANY
LOG .         HDIL/ZDEN/CNL/MAA : LOG
DATE.                2007-05-11 : RUN DATE
RUN .                         2 : RUN NUMBER
TDD .F                    13580 : TOTAL DEPTH DRILLER
TDL .F                    13588 : TOTAL DEPTH LOGGER
BOTL.F                    13579 : BOTTOM LOGGED INTERVAL
TOPL.F                    11990 : TOP LOGGED INTERVAL
CSGS.IN                   9.625 : CASING SIZE
CSGD.F                    12700 : CASING DRILLER
CSGL.F                    12700 : CASING LOGGER
BS  .IN                     8.5 : BIT SIZE
MUD .           WATER BASED MUD : MUD TYPE
MUDD.                      15.7 : MUD DENSITY
MUDV.                        46 : MUD VISCOSITY
PH  .                      10.8 : MUD PH
FL  .                       2.8 : FLUID LOSS
MUDS.                  FLOWLINE : SOURCE OF SAMPLE
RM  .OHMM                 0.802 : MUD RESISTIVITY
RMT .DEGF                    75 : RM TEMPERATURE
RMF .OHMM                   0.6 : MUD FILTRATE RESISTIVITY
RMFT.DEGF                    75 : RMF TEMPERATURE
RMC .OHMM                   1.0 : MUD CAKE RESISTIVITY
RMCT.DEGF                    75 : RMC TEMPERATURE
RMFS.                  MEASURED : RMF SOURCE
RMCS.                  MEASURED : RMC SOURCE
RMBH.OHMM                  0.29 : MUD RESISTIVITY AT BHT
BHT .DEGF                   220 : BOTTOM HOLE TEMPERATURE
TIMC.                           : TIME CIRCULATION STOPPED
TIML.                           : TIME LOGGER ON BOTTOM
TMAX.DEGF                   220 : MAXIMUM RECORDED TEMPERATURE
UNIT.                    HL6659 : EQUIPMENT NUMBER
BASE.                 BROUSSARD : BASE LOCATION
ENG .                 N.FRAICHE : RECORDED BY
WIT .                  S.VESTAL : WITNESSED BY
#
SRVC.              BAKER HUGHES : LOGGING COMPANY
LOG .         HDIL/ZDEN/CNL/MAA : LOG
DATE.                2007-05-11 : RUN DATE
RUN .                         3 : RUN NUMBER
TDD .F                    14504 : TOTAL DEPTH DRILLER
TDL .F                    14506 : TOTAL DEPTH LOGGER
BOTL.F                    14508 : BOTTOM LOGGED INTERVAL
TOPL.F                    13583 : TOP LOGGED INTERVAL
CSGS.IN                   7.625 : CASING SIZE
CSGD.F                    13575 : CASING DRILLER
CSGL.F                    13583 : CASING LOGGER
BS  .IN                     6.5 : BIT SIZE
MUD .           WATER BASED MUD : MUD TYPE
MUDD.                      17.2 : MUD DENSITY
MUDV.                        49 : MUD VISCOSITY
PH  .                      10.5 : MUD PH
FL  .                      11.2 : FLUID LOSS
MUDS.                  FLOWLINE : SOURCE OF SAMPLE
RM  .OHMM                 0.202 : MUD RESISTIVITY
RMT .DEGF                    75 : RM TEMPERATURE
RMF .OHMM                 0.401 : MUD FILTRATE RESISTIVITY
RMFT.DEGF                    75 : RMF TEMPERATURE
RMC .OHMM                  2.35 : MUD CAKE RESISTIVITY
RMCT.DEGF                    75 : RMC TEMPERATURE
RMFS.                  MEASURED : RMF SOURCE
RMCS.                  MEASURED : RMC SOURCE
RMBH.OHMM                 0.292 : MUD RESISTIVITY AT BHT
BHT .DEGF                   245 : BOTTOM HOLE TEMPERATURE
TIMC.                           : TIME CIRCULATION STOPPED
TIML.                           : TIME LOGGER ON BOTTOM
TMAX.DEGF                   245 : MAXIMUM RECORDED TEMPERATURE
UNIT.                    HL6659 : EQUIPMENT NUMBER
BASE.                 BROUSSARD : BASE LOCATION
ENG .      J.SPENCER/C.BRICONER : RECORDED BY
WIT .                 D. MATHIS : WITNESSED BY
~Curve Information -----------------------------------------
DEPT.F          :DEPTH
CNCF.%          :
DCAL.IN         :
DT.US/F         :
GR.GAPI         :
M2R1.OHMM       :
M2R3.OHMM       :
M2R9.OHMM       :
PORZ.%          :
SP.MV           :
TENS.LBF        :
ZCOR.G/CC       :
~ASCII ------------------------------------------------------
# ...
6516.50000       35.75758        0.42352        -999.25       85.84519        0.74786        0.44911        0.39414       22.78789      -14.98985      -14.20445        0.05269
6517.00000       37.33334        0.45091        -999.25       85.23419        0.70284        0.44284        0.39171       23.63637      -18.24851      -16.87011        0.04165
6517.50000       38.30304        0.52364        -999.25       84.31770        0.66022        0.43768        0.38966       25.33334      -23.13649      -19.53577        0.03910
6518.00000       38.42425        0.57455        -999.25       84.01220        0.66232        0.43809        0.39171       26.06061      -26.80248      -22.20144        0.06287
6518.50000       38.78788        0.53818        -999.25       85.23419        0.73658        0.47103        0.41179       23.87880      -25.17315      -24.86710        0.08316
6519.00000       36.47152        0.50909        -999.25       86.76169        0.82766        0.52828        0.44525       21.57577      -19.87784      -27.53276        0.09079
6519.50000       34.90910        0.50909        -999.25       87.67819        0.88499        0.55818        0.48116       20.72728      -16.61918      -23.14200        0.09715
6520.00000       34.30304        0.50909        -999.25       88.28918        0.88027        0.57395        0.50993       20.84849      -16.61918       -8.26740        0.10564
6520.50000       35.63637        0.46594        -999.25       88.59468        0.85987        0.57935        0.50493       22.06062      -17.84118        9.58212        0.11409
6521.00000       37.39395        0.41212        -999.25       88.90018        0.83994        0.58022        0.49993       22.54546      -18.24851       24.45672        0.11686
6521.50000       39.51516        0.24679        -999.25       87.98368        0.81411        0.57416        0.49503       22.90910      -19.47050       29.04910        0.11183
6522.00000       39.51516        0.08145        -999.25       87.06719        0.76474        0.53712        0.48844       23.15152      -20.69250       26.78666        0.09511
6522.50000       37.96607        0.02206        -999.25       85.11199        0.65069        0.48397        0.46141       23.87880      -23.13649       24.32261        0.07839
6523.00000       36.28243       -0.01091        -999.25       82.02646        0.54919        0.41396        0.41156       25.45455      -28.43180       22.06017        0.06059
6523.50000       35.72243       -0.00242        -999.25       77.06210        0.44890        0.34946        0.36709       27.39395      -36.57844       19.79773        0.04206
6524.00000       36.84849        0.03394        -999.25       72.09774        0.36623        0.29500        0.32377       28.81334      -43.09575       17.53529        0.02790
6524.50000       36.53334        0.06473        -999.25       68.43175        0.29656        0.25318        0.27301       30.28607      -40.65176       15.27285        0.02026
6525.00000       35.74546        0.09164        -999.25       68.12626        0.26375        0.23208        0.23021       31.75758      -36.98577       12.35632        0.02383
6525.50000       36.40364        0.12388        -999.25       67.20976        0.25564        0.23075        0.21587       32.84849      -33.72712       10.09388        0.03232
6526.00000       37.81819        0.14545        -999.25       67.82076        0.28033        0.24429        0.23579       32.36364      -33.72712        7.83144        0.04079
6526.50000       37.35031        0.09091        -999.25       69.34825        0.32483        0.27685        0.26681       30.30304      -36.57844        7.58512        0.04929
6527.00000       36.71152        0.00000        -999.25       69.95925        0.35842        0.28722        0.28833       29.09092      -38.61510        7.33881        0.03458
6527.50000       36.63637       -0.07273        -999.25       68.73725        0.35028        0.28096        0.28297       29.47152      -37.39311        7.09249        0.02578
6528.00000       36.60607       -0.07273        -999.25       66.90426        0.32268        0.27481        0.27319       30.77092      -35.35645        6.84617        0.04067
6528.50000       37.98788       -0.07273        -999.25       67.38084        0.30217        0.27102        0.26375       30.54546      -34.13445        6.59986        0.05556
6529.00000       39.45455       -0.07273        -999.25       69.75457        0.30830        0.27615        0.26417       29.81819      -33.72712        6.35354        0.05446
6529.50000       39.12485       -0.05818        -999.25       69.34825        0.31668        0.27691        0.27112       29.33334      -35.35645        2.02572        0.04271
6530.00000       37.84485       -0.03394        -999.25       64.15477        0.30585        0.26038        0.25946       29.45455      -37.39311       -2.45446        0.03096
6530.50000       37.51516        0.00000        -999.25       60.48878        0.28033        0.24482        0.24397       30.54546      -34.94911       -6.73302        0.02804
6531.00000       37.53576        0.04048        -999.25       59.26679        0.27383        0.23021        0.22942       31.75758      -33.31979      -11.21319        0.03798
6531.50000       36.24243        0.06570        -999.25       59.26679        0.27255        0.23506        0.22593       33.09092      -36.98577      -15.49175        0.06020
6532.00000       36.27273        0.05988        -999.25       58.35029        0.27685        0.23783        0.22950       33.81819      -39.02243      -19.77031        0.07301
6532.50000       37.73698        0.03855        -999.25       58.35029        0.27255        0.23199        0.22509       34.30304      -39.02243      -24.25048        0.08200
6533.00000       39.35394        0.01721        -999.25       59.26679        0.26499        0.22632        0.21884       34.42425      -38.61510      -28.52904        0.09098
6533.50000       40.00000        0.00000        -999.25       59.87779        0.25861        0.21967        0.21158       34.06061      -38.61510      -33.00921        0.09715
6534.00000       38.67758        0.00000        -999.25       61.09978        0.27102        0.23238        0.22347       32.72728      -36.57844      -34.91769        0.09206
6534.50000       37.02425        0.00000        -999.25       63.23827        0.30847        0.26529        0.24883       30.18183      -32.50512      -31.33338        0.08697
6535.00000       36.12122        0.00000        -999.25       65.52952        0.36180        0.30285        0.28564       28.12122      -28.83914      -27.74906        0.07627
6535.50000       36.48485        0.00000        -999.25       71.18124        0.47846        0.34571        0.33659       26.30304      -26.39515      -24.16474        0.06417
6536.00000       37.45455        0.00000        -999.25       74.23623        0.48297        0.36658        0.36796       25.33334      -27.61714      -20.37882        0.05210
6536.50000       38.40728        0.00000        -999.25       73.21892        0.44230        0.36589        0.36112       26.78789      -32.91246      -16.79450        0.04236
6537.00000       39.35879        0.00000        -999.25       69.81872        0.36027        0.33646        0.31600       28.72728      -36.98577      -13.21019        0.03422
6537.50000       40.72728        0.01721        -999.25       65.82279        0.31080        0.29442        0.27652       30.78789      -37.80044       -9.62587        0.03132
6538.00000       40.70061        0.03806        -999.25       61.09978        0.28698        0.25764        0.25363       31.63637      -36.98577       -5.83994        0.03204
6538.50000       40.63273        0.04848        -999.25       59.72504        0.29434        0.25764        0.25411       31.39395      -37.80044       -1.49844        0.03263
6539.00000       41.69697        0.04848        -999.25       60.79428        0.32535        0.28086        0.27301       31.27273      -37.39311       -0.13186        0.03969
