~Version ---------------------------------------------------
VERS. 2.0 : CWLS LOG ASCII STANDARD - VERSION 2.0
WRAP. NO  : One line per depth step
DLM . SPACE : Column Data Section Delimiter
~Well ------------------------------------------------------
STRT.F       4400.5 : START DEPTH
STOP.F        14502 : STOP DEPTH
STEP.F          0.5 : STEP
NULL.       -999.25 : NULL VALUE
COMP.            PALACE OPERATING COMPANY : COMPANY
WELL.         235305-SL18350-002-18350-29 : WELL
FLD .               BELLE ISLE, SOUTHWEST : FIELD
CNTY.                            ST. MARY : COUNTY
STAT.                           LOUISIANA : STATE
CTRY.                                 USA : COUNTRY
SEC .                                     : SECTION
TWP .                                     : TOWNSHIP
RGE .                                     : RANGE
LOC . LAT 29 29' 27.731" LONG 91 31' 11.823" : LOCATION
EKB .F                       42 : ELEVATION KELLY BUSHING
EDF .F                       41 : ELEVATION DERRICK FLOOR
EGL .F                       -8 : ELEVATION GROUND LEVEL
PDAT.                       MSL : PERMANENT DATUM
EPD .                           : ELEVATION PERMANENT DATUM
APD .                        42 : ABOVE PERMANENT DATUM
LMF .                        KB : LOG MEASURED FROM
DMF .                        KB : DRILLING MEASURED FROM
API .            17101223030000 : API NUMBER
UWI .                           : UWI NUMBER
DIGC.                     NthDS : DIGITIZING COMPANY
~Params ----------------------------------------------------
SRVC.              BAKER HUGHES : LOGGING COMPANY
LOG .         HDIL/ZDEN/CNL/MAA : LOG
DATE.                2007-05-03 : RUN DATE
RUN .                         1 : RUN NUMBER
TDD .F                    12700 : TOTAL DEPTH DRILLER
TDL .F                    12702 : TOTAL DEPTH LOGGER
BOTL.F                    12694 : BOTTOM LOGGED INTERVAL
TOPL.F                     4475 : TOP LOGGED INTERVAL
CSGS.IN                  13.375 : CASING SIZE
CSGD.F                     4510 : CASING DRILLER
CSGL.F                     4514 : CASING LOGGER
BS  .IN                   12.25 : BIT SIZE
MUD .                     LIGNO : MUD TYPE
MUDD.                      10.8 : MUD DENSITY
MUDV.                        42 : MUD VISCOSITY
PH  .                       9.8 : MUD PH
FL  .                       3.8 : FLUID LOSS
MUDS.                       PIT : SOURCE OF SAMPLE
RM  .OHMM                 0.405 : MUD RESISTIVITY
RMT .DEGF                    85 : RM TEMPERATURE
RMF .OHMM                 0.304 : MUD FILTRATE RESISTIVITY
RMFT.DEGF                    85 : RMF TEMPERATURE
RMC .OHMM                 0.506 : MUD CAKE RESISTIVITY
RMCT.DEGF                    85 : RMC TEMPERATURE
RMFS.                CALCULATED : RMF SOURCE
RMCS.                CALCULATED : RMC SOURCE
RMBH.OHMM                 0.282 : MUD RESISTIVITY AT BHT
BHT .DEGF                   191 : BOTTOM HOLE TEMPERATURE
TIMC.                           : TIME CIRCULATION STOPPED
TIML.                           : TIME LOGGER ON BOTTOM
TMAX.DEGF                   191 : MAXIMUM RECORDED TEMPERATURE
UNIT.                    HL4125 : EQUIPMENT NUMBER
BASE.                  PEARLAND : BASE LOCATION
ENG .                      CASE : RECORDED BY
WIT .                    ARDOIN : WITNESSED BY
#
SRVC.              BAKER HUGHES : LOGGING COMPANY
LOG .         HDIL/ZDEN/CNL/MAA : LOG
DATE.                2007-05-11 : RUN DATE
RUN .                         2 : RUN NUMBER
TDD .F                    13580 : TOTAL DEPTH DRILLER
TDL .F                    13588 : TOTAL DEPTH LOGGER
BOTL.F                    13579 : BOTTOM LOGGED INTERVAL
TOPL.F                    11990 : TOP LOGGED INTERVAL
CSGS.IN                   9.625 : CASING SIZE
CSGD.F                    12700 : CASING DRILLER
CSGL.F                    12700 : CASING LOGGER
BS  .IN                     8.5 : BIT SIZE
MUD .           WATER BASED MUD : MUD TYPE
MUDD.                      15.7 : MUD DENSITY
MUDV.                        46 : MUD VISCOSITY
PH  .                      10.8 : MUD PH
FL  .                       2.8 : FLUID LOSS
MUDS.                  FLOWLINE : SOURCE OF SAMPLE
RM  .OHMM                 0.802 : MUD RESISTIVITY
RMT .DEGF                    75 : RM TEMPERATURE
RMF .OHMM                   0.6 : MUD FILTRATE RESISTIVITY
RMFT.DEGF                    75 : RMF TEMPERATURE
RMC .OHMM                   1.0 : MUD CAKE RESISTIVITY
RMCT.DEGF                    75 : RMC TEMPERATURE
RMFS.                  MEASURED : RMF SOURCE
RMCS.                  MEASURED : RMC SOURCE
RMBH.OHMM                  0.29 : MUD RESISTIVITY AT BHT
BHT .DEGF                   220 : BOTTOM HOLE TEMPERATURE
TIMC.                           : TIME CIRCULATION STOPPED
TIML.                           : TIME LOGGER ON BOTTOM
TMAX.DEGF                   220 : MAXIMUM RECORDED TEMPERATURE
UNIT.                    HL6659 : EQUIPMENT NUMBER
BASE.                 BROUSSARD : BASE LOCATION
ENG .                 N.FRAICHE : RECORDED BY
WIT .                  S.VESTAL : WITNESSED BY
#
SRVC.              BAKER HUGHES : LOGGING COMPANY
LOG .         HDIL/ZDEN/CNL/MAA : LOG
DATE.                2007-05-11 : RUN DATE
RUN .                         3 : RUN NUMBER
TDD .F                    14504 : TOTAL DEPTH DRILLER
TDL .F                    14506 : TOTAL DEPTH LOGGER
BOTL.F                    14508 : BOTTOM LOGGED INTERVAL
TOPL.F                    13583 : TOP LOGGED INTERVAL
CSGS.IN                   7.625 : CASING SIZE
CSGD.F                    13575 : CASING DRILLER
CSGL.F                    13583 : CASING LOGGER
BS  .IN                     6.5 : BIT SIZE
MUD .           WATER BASED MUD : MUD TYPE
MUDD.                      17.2 : MUD DENSITY
MUDV.                        49 : MUD VISCOSITY
PH  .                      10.5 : MUD PH
FL  .                      11.2 : FLUID LOSS
MUDS.                  FLOWLINE : SOURCE OF SAMPLE
RM  .OHMM                 0.202 : MUD RESISTIVITY
RMT .DEGF                    75 : RM TEMPERATURE
RMF .OHMM                 0.401 : MUD FILTRATE RESISTIVITY
RMFT.DEGF                    75 : RMF TEMPERATURE
RMC .OHMM                  2.35 : MUD CAKE RESISTIVITY
RMCT.DEGF                    75 : RMC TEMPERATURE
RMFS.                  MEASURED : RMF SOURCE
RMCS.                  MEASURED : RMC SOURCE
RMBH.OHMM                 0.292 : MUD RESISTIVITY AT BHT
BHT .DEGF                   245 : BOTTOM HOLE TEMPERATURE
TIMC.                           : TIME CIRCULATION STOPPED
TIML.                           : TIME LOGGER ON BOTTOM
TMAX.DEGF                   245 : MAXIMUM RECORDED TEMPERATURE
UNIT.                    HL6659 : EQUIPMENT NUMBER
BASE.                 BROUSSARD : BASE LOCATION
ENG .      J.SPENCER/C.BRICONER : RECORDED BY
WIT .                 D. MATHIS : WITNESSED BY
~Curve Information -----------------------------------------
DEPT.F          :DEPTH
CNCF.%          :
DCAL.IN         :
DT.US/F         :
GR.GAPI         :
M2R1.OHMM       :
M2R3.OHMM       :
M2R9.OHMM       :
PORZ.%          :
SP.MV           :
TENS.LBF        :
ZCOR.G/CC       :
~ASCII ------------------------------------------------------
# ...
14474.50000       31.12654        0.06267        -999.25        -999.25        0.84883        0.81961        0.80926       14.69637      -17.82672       67.13101       -0.06041
14475.00000       31.16695        0.06097        -999.25        -999.25        0.84527        0.81961        0.80579       14.45345      -18.55231       33.62082       -0.05994
14475.50000       31.20858        0.05927        -999.25        -999.25        0.84922        0.81961        0.80790       14.33200      -15.31840        0.30983       -0.05939
14476.00000       31.22450        0.05709        -999.25        -999.25        0.85767        0.81961        0.81373       14.45345      -11.04401      -33.20035       -0.05885
14476.50000       31.22450        0.05538        -999.25        -999.25        0.86686        0.81961        0.81961       14.21054       -8.44573      -19.30035       -0.05822
14477.00000       31.22450        0.05344        -999.25        -999.25        0.86686        0.81686        0.81640       13.96762       -8.04582       -5.20114       -0.05759
14477.50000       31.22450        0.05174        -999.25        -999.25        0.86686        0.81335        0.81328       13.72471       -8.05076        8.69886       -0.05735
14478.00000       31.50735        0.05004        -999.25        -999.25        0.86686        0.80994        0.81579       13.96762       -8.86641       22.79807       -0.05868
14478.50000       32.35470        0.04275        -999.25        -999.25        0.86686        0.80647        0.82214       14.45345       -8.87136       20.16427       -0.06002
14479.00000       33.06123        0.01360        -999.25        -999.25        0.86848        0.80745        0.82861       14.57491       -8.47145       12.10332       -0.06136
14479.50000       32.32654       -0.01555        -999.25        -999.25        0.87663        0.81503        0.83280       14.45345       -8.07154        5.48547       -0.06267
14480.00000       31.10205       -0.04470        -999.25        -999.25        0.88155        0.81708        0.82183       14.21054       -7.67163       -1.13238       -0.06401
14480.50000       30.61225       -0.07385        -999.25        -999.25        0.88081        0.81579        0.82622       14.33200       -7.67657       -7.75023       -0.06534
14481.00000       31.27960       -0.10081        -999.25        -999.25        0.91683        0.83897        0.83452       14.69637       -7.68152      -14.56729       -0.06668
14481.50000       31.94817       -0.11951        -999.25        -999.25        0.91683        0.83506        0.84290       14.69637       -7.68647      -10.22900       -0.06555
14482.00000       32.32654       -0.13822        -999.25        -999.25        0.89650        0.82537        0.82730       14.33200       -7.69141       -3.10188       -0.06279
14482.50000       32.08164       -0.16081        -999.25        -999.25        0.86362        0.81579        0.81199       13.96762       -7.29150        3.82604       -0.06032
14483.00000       31.62246       -0.17927        -999.25        -999.25        0.84606        0.81655        0.80820       13.72471       -7.29744       10.95316       -0.05830
14483.50000        -999.25       -0.19555        -999.25        -999.25        0.86080        0.82421        0.80444       13.48179       -7.30238       18.08028       -0.05587
14484.00000        -999.25       -0.20186        -999.25        -999.25        0.86686        0.83195        0.81609       13.48179       -7.71219       25.00819       -0.05385
14484.50000        -999.25       -0.20794        -999.25        -999.25        0.90129        0.83976        0.83024       13.36034       -7.31228       32.13531       -0.05358
14485.00000        -999.25       -0.21425        -999.25        -999.25        0.88048        0.84764        0.82985       13.36034       -7.31722       39.06323       -0.05451
14485.50000        -999.25       -0.22057        -999.25        -999.25        0.87499        0.84448        0.82129       13.36034       -7.32217       39.76720       -0.05543
14486.00000        -999.25       -0.22664        -999.25        -999.25        0.85767        0.83663        0.81282       13.23888       -6.92325       37.13339       -0.05636
14486.50000        -999.25       -0.23296        -999.25        -999.25        0.85384        0.82885        0.80444       12.87451       -7.26323       34.30039       -0.05561
14487.00000        -999.25       -0.23927        -999.25        -999.25        0.85880        0.82591        0.80129       12.31945       -7.68923       31.66659       -0.04826
14487.50000        -999.25       -0.24291        -999.25        -999.25        0.85312        0.82414        0.79822       11.84212       -8.11928       28.83358       -0.04089
14488.00000        -999.25       -0.24291        -999.25        -999.25        0.85344        0.82237        0.80039       11.69272       -8.63129       26.19978       -0.04134
14488.50000        -999.25       -0.24291        -999.25        -999.25        0.85791        0.82068        0.80617       11.77289       -8.86295       23.36678       -0.04176
14489.00000        -999.25       -0.24291        -999.25        -999.25        0.85129        0.81961        0.81199       11.85426       -8.32944       20.73297       -0.04221
14489.50000        -999.25       -0.24291        -999.25        -999.25        0.84196        0.81961        0.80376       11.78139       -7.79592       22.28242       -0.04265
14490.00000        -999.25       -0.24291        -999.25        -999.25        0.83094        0.81961        0.79696       11.47774        -999.25       25.02709       -0.04494
14490.50000        -999.25       -0.24291        -999.25        -999.25        0.83506        0.81961        0.80481       11.35629        -999.25       27.77175       -0.04494
14491.00000        -999.25       -0.24291        -999.25        -999.25        0.85145        0.82145        0.81282       11.50811        -999.25       30.71562       -0.04494
14491.50000        -999.25       -0.24291        -999.25        -999.25        0.86823        0.82368        0.82083       11.65993        -999.25       33.46029       -0.04607
14492.00000        -999.25       -0.24291        -999.25        -999.25        0.87499        0.82591        0.82406       11.81175        -999.25       36.75389       -0.04741
14492.50000        -999.25       -0.24291        -999.25        -999.25        0.86767        0.82730        0.80820       11.90285        -999.25       38.30334       -0.04854
14493.00000        -999.25       -0.24291        -999.25        -999.25        0.85559        0.82730        0.79265       11.90285        -999.25       38.05996       -0.04747
14493.50000        -999.25       -0.24291        -999.25        -999.25        0.85081        0.82730        0.79451       11.90285        -999.25       37.81659       -0.04494
14494.00000        -999.25       -0.24291        -999.25        -999.25        0.85081        0.82045        0.79080       11.94050        -999.25       34.98359       -0.04375
14494.50000        -999.25       -0.24291        -999.25        -999.25        0.81199        0.80024        0.77856       12.12754        -999.25       28.56494       -0.04792
14495.00000        -999.25       -0.24291        -999.25        -999.25        0.80444        0.78382        0.76852       12.31337        -999.25       22.14629       -0.05209
14495.50000        -999.25       -0.24291        -999.25        -999.25        -999.25        -999.25        -999.25       12.27936        -999.25       15.72764       -0.05626
14496.00000        -999.25       -0.24291        -999.25        -999.25        -999.25        -999.25        -999.25       12.09718        -999.25        9.10979       -0.05506
14496.50000        -999.25       -0.24291        -999.25        -999.25        -999.25        -999.25        -999.25       12.27693        -999.25        2.69114       -0.05253
14497.00000        -999.25       -0.24291        -999.25        -999.25        -999.25        -999.25        -999.25       12.69718        -999.25       11.21267       -0.05237
