~Version ---------------------------------------------------
VERS. 2.0 : CWLS LOG ASCII STANDARD - VERSION 2.0
WRAP. NO  : One line per depth step
DLM . SPACE : Column Data Section Delimiter
~Well ------------------------------------------------------
STRT.F       4400.5 : START DEPTH
STOP.F        14502 : STOP DEPTH
STEP.F          0.5 : STEP
NULL.       -999.25 : NULL VALUE
COMP.            PALACE OPERATING COMPANY : COMPANY
WELL.         235305-SL18350-002-18350-29 : WELL
FLD .               BELLE ISLE, SOUTHWEST : FIELD
CNTY.                            ST. MARY : COUNTY
STAT.                           LOUISIANA : STATE
CTRY.                                 USA : COUNTRY
SEC .                                     : SECTION
TWP .                                     : TOWNSHIP
RGE .                                     : RANGE
LOC . LAT 29 29' 27.731" LONG 91 31' 11.823" : LOCATION
EKB .F                       42 : ELEVATION KELLY BUSHING
EDF .F                       41 : ELEVATION DERRICK FLOOR
EGL .F                       -8 : ELEVATION GROUND LEVEL
PDAT.                       MSL : PERMANENT DATUM
EPD .                           : ELEVATION PERMANENT DATUM
APD .                        42 : ABOVE PERMANENT DATUM
LMF .                        KB : LOG MEASURED FROM
DMF .                        KB : DRILLING MEASURED FROM
API .            17101223030000 : API NUMBER
UWI .                           : UWI NUMBER
DIGC.                     NthDS : DIGITIZING COMPANY
~Params ----------------------------------------------------
SRVC.              BAKER HUGHES : LOGGING COMPANY
LOG .         HDIL/ZDEN/CNL/MAA : LOG
DATE.                2007-05-03 : RUN DATE
RUN .                         1 : RUN NUMBER
TDD .F                    12700 : TOTAL DEPTH DRILLER
TDL .F                    12702 : TOTAL DEPTH LOGGER
BOTL.F                    12694 : BOTTOM LOGGED INTERVAL
TOPL.F                     4475 : TOP LOGGED INTERVAL
CSGS.IN                  13.375 : CASING SIZE
CSGD.F                     4510 : CASING DRILLER
CSGL.F                     4514 : CASING LOGGER
BS  .IN                   12.25 : BIT SIZE
MUD .                     LIGNO : MUD TYPE
MUDD.                      10.8 : MUD DENSITY
MUDV.                        42 : MUD VISCOSITY
PH  .                       9.8 : MUD PH
FL  .                       3.8 : FLUID LOSS
MUDS.                       PIT : SOURCE OF SAMPLE
RM  .OHMM                 0.405 : MUD RESISTIVITY
RMT .DEGF                    85 : RM TEMPERATURE
RMF .OHMM                 0.304 : MUD FILTRATE RESISTIVITY
RMFT.DEGF                    85 : RMF TEMPERATURE
RMC .OHMM                 0.506 : MUD CAKE RESISTIVITY
RMCT.DEGF                    85 : RMC TEMPERATURE
RMFS.                CALCULATED : RMF SOURCE
RMCS.                CALCULATED : RMC SOURCE
RMBH.OHMM                 0.282 : MUD RESISTIVITY AT BHT
BHT .DEGF                   191 : BOTTOM HOLE TEMPERATURE
TIMC.                           : TIME CIRCULATION STOPPED
TIML.                           : TIME LOGGER ON BOTTOM
TMAX.DEGF                   191 : MAXIMUM RECORDED TEMPERATURE
UNIT.                    HL4125 : EQUIPMENT NUMBER
BASE.                  PEARLAND : BASE LOCATION
ENG .                      CASE : RECORDED BY
WIT .                    ARDOIN : WITNESSED BY
#
SRVC.              BAKER HUGHES : LOGGING COMPANY
LOG .         HDIL/ZDEN/CNL/MAA : LOG
DATE.                2007-05-11 : RUN DATE
RUN .                         2 : RUN NUMBER
TDD .F                    13580 : TOTAL DEPTH DRILLER
TDL .F                    13588 : TOTAL DEPTH LOGGER
BOTL.F                    13579 : BOTTOM LOGGED INTERVAL
TOPL.F                    11990 : TOP LOGGED INTERVAL
CSGS.IN                   9.625 : CASING SIZE
CSGD.F                    12700 : CASING DRILLER
CSGL.F                    12700 : CASING LOGGER
BS  .IN                     8.5 : BIT SIZE
MUD .           WATER BASED MUD : MUD TYPE
MUDD.                      15.7 : MUD DENSITY
MUDV.                        46 : MUD VISCOSITY
PH  .                      10.8 : MUD PH
FL  .                       2.8 : FLUID LOSS
MUDS.                  FLOWLINE : SOURCE OF SAMPLE
RM  .OHMM                 0.802 : MUD RESISTIVITY
RMT .DEGF                    75 : RM TEMPERATURE
RMF .OHMM                   0.6 : MUD FILTRATE RESISTIVITY
RMFT.DEGF                    75 : RMF TEMPERATURE
RMC .OHMM                   1.0 : MUD CAKE RESISTIVITY
RMCT.DEGF                    75 : RMC TEMPERATURE
RMFS.                  MEASURED : RMF SOURCE
RMCS.                  MEASURED : RMC SOURCE
RMBH.OHMM                  0.29 : MUD RESISTIVITY AT BHT
BHT .DEGF                   220 : BOTTOM HOLE TEMPERATURE
TIMC.                           : TIME CIRCULATION STOPPED
TIML.                           : TIME LOGGER ON BOTTOM
TMAX.DEGF                   220 : MAXIMUM RECORDED TEMPERATURE
UNIT.                    HL6659 : EQUIPMENT NUMBER
BASE.                 BROUSSARD : BASE LOCATION
ENG .                 N.FRAICHE : RECORDED BY
WIT .                  S.VESTAL : WITNESSED BY
#
SRVC.              BAKER HUGHES : LOGGING COMPANY
LOG .         HDIL/ZDEN/CNL/MAA : LOG
DATE.                2007-05-11 : RUN DATE
RUN .                         3 : RUN NUMBER
TDD .F                    14504 : TOTAL DEPTH DRILLER
TDL .F                    14506 : TOTAL DEPTH LOGGER
BOTL.F                    14508 : BOTTOM LOGGED INTERVAL
TOPL.F                    13583 : TOP LOGGED INTERVAL
CSGS.IN                   7.625 : CASING SIZE
CSGD.F                    13575 : CASING DRILLER
CSGL.F                    13583 : CASING LOGGER
BS  .IN                     6.5 : BIT SIZE
MUD .           WATER BASED MUD : MUD TYPE
MUDD.                      17.2 : MUD DENSITY
MUDV.                        49 : MUD VISCOSITY
PH  .                      10.5 : MUD PH
FL  .                      11.2 : FLUID LOSS
MUDS.                  FLOWLINE : SOURCE OF SAMPLE
RM  .OHMM                 0.202 : MUD RESISTIVITY
RMT .DEGF                    75 : RM TEMPERATURE
RMF .OHMM                 0.401 : MUD FILTRATE RESISTIVITY
RMFT.DEGF                    75 : RMF TEMPERATURE
RMC .OHMM                  2.35 : MUD CAKE RESISTIVITY
RMCT.DEGF                    75 : RMC TEMPERATURE
RMFS.                  MEASURED : RMF SOURCE
RMCS.                  MEASURED : RMC SOURCE
RMBH.OHMM                 0.292 : MUD RESISTIVITY AT BHT
BHT .DEGF                   245 : BOTTOM HOLE TEMPERATURE
TIMC.                           : TIME CIRCULATION STOPPED
TIML.                           : TIME LOGGER ON BOTTOM
TMAX.DEGF                   245 : MAXIMUM RECORDED TEMPERATURE
UNIT.                    HL6659 : EQUIPMENT NUMBER
BASE.                 BROUSSARD : BASE LOCATION
ENG .      J.SPENCER/C.BRICONER : RECORDED BY
WIT .                 D. MATHIS : WITNESSED BY
~Curve Information -----------------------------------------
DEPT.F          :DEPTH
CNCF.%          :
DCAL.IN         :
DT.US/F         :
GR.GAPI         :
M2R1.OHMM       :
M2R3.OHMM       :
M2R9.OHMM       :
PORZ.%          :
SP.MV           :
TENS.LBF        :
ZCOR.G/CC       :
~ASCII ------------------------------------------------------
# ...
5182.50000       41.41701        0.65879        -999.25       82.79020        0.89694        0.63674        0.60207       23.07693       -1.95523       55.86656        0.03440
5183.00000       38.98786        0.70445        -999.25       86.76169        0.83601        0.63836        0.60111       22.83402       -0.32591       57.41601        0.03988
5183.50000       40.23280        0.74988        -999.25       87.67819        0.76834        0.63198        0.58044       23.19839        2.81462       58.76626        0.04377
5184.00000       44.93928        0.74381        -999.25       88.28918        0.70727        0.59366        0.54632       23.68422        6.01625       60.11651        0.04521
5184.50000       48.58300        0.66000        -999.25       89.51118        0.64898        0.55928        0.51093       25.62754        9.21788       61.66596        0.05921
5185.00000       49.79757        0.57619        -999.25       90.12218        0.60325        0.52912        0.47784       26.59920       10.94497       63.21541        0.08228
5185.50000       49.59474        0.49263        -999.25       90.42768        0.57180        0.50649        0.46193       26.72066       11.48672       64.76486        0.11894
5186.00000       47.67207        0.40883        -999.25       90.73317        0.63394        0.50821        0.45654       26.84211        7.82073       66.51351        0.14175
5186.50000       45.10932        0.32502        -999.25       85.53969        0.70946        0.50993        0.45122       27.08503        2.00811       68.26216        0.12436
5187.00000       41.70851        0.27692        -999.25       79.42972        0.79398        0.49476        0.43156       28.29960       -3.73120       70.16134        0.07780
5187.50000       38.10729        0.25263        -999.25       74.28817        0.80901        0.45654        0.39292       30.48584      -10.91653       71.91000        0.01670
5188.00000       35.14130        0.22834        -999.25       71.69143        0.78656        0.41959        0.35775       31.82187      -16.21185       73.45945        0.01263
5188.50000       34.51094        0.20405        -999.25       69.84927        0.70139        0.38562        0.32572       31.21458      -21.50716       75.20810        0.02077
5189.00000       34.59839        0.17976        -999.25       69.29326        0.62567        0.35497        0.30379       30.48584      -23.13649       76.95675        0.02688
5189.50000       36.19434        0.17247        -999.25       68.73725        0.62567        0.35775        0.30076       29.14981      -19.06317       78.50620        0.02892
5190.00000       38.31984        0.17660        -999.25       71.38593        0.69863        0.39838        0.32496       27.08503      -16.00818       79.45805        0.02892
5190.50000       41.59919        0.18146        -999.25       74.03155        0.81106        0.44363        0.36112       25.26317      -12.95319       79.21467        0.03299
5191.00000       43.23887        0.18534        -999.25       76.68023        0.92600        0.49401        0.40130       24.77734      -10.50920       78.97130        0.03707
5191.50000       42.75304        0.18947        -999.25       76.68023        0.97319        0.52551        0.43318       24.41296       -8.06521       78.72793        0.03910
5192.00000       42.48341        0.19360        -999.25       76.68023        0.95960        0.54218        0.44764       24.04859       -5.62122       78.48456        0.04521
5192.50000       42.75304        0.17004        -999.25       77.44397        0.94886        0.55944        0.46301       23.56276       -3.58456       78.24118        0.04521
5193.00000       42.31944        0.13968        -999.25       78.51322        0.94886        0.57718        0.47959       23.44130       -5.39311       77.99781        0.05132
5193.50000       41.05264        0.10931        -999.25       79.42972        0.94886        0.59550        0.49675       23.07693       -6.84322       77.75444        0.05336
5194.00000       39.59515        0.11174        -999.25       81.56821        0.96682        0.61404        0.51454       22.95547       -4.26480       77.51107        0.05336
5194.50000       40.29353        0.13603        -999.25       82.79020        0.96005        0.63513        0.53672       23.07693       -1.03874       77.26770        0.04521
5195.00000       43.63361        0.16032        -999.25       82.17921        0.91392        0.64292        0.55593       23.80568        0.89609       77.02432        0.03707
5195.50000       46.74535        0.18462        -999.25       80.95721        0.84595        0.63543        0.56428       24.53442        0.89609       76.73228        0.03707
5196.00000       49.31174        0.20891        -999.25       79.40528        0.78311        0.60643        0.55198       25.26317        2.03662       76.48890        0.04114
5196.50000       49.31174        0.22154        -999.25       78.58348        0.72486        0.57373        0.53990       25.74900        3.46228       76.24553        0.04521
5197.00000       45.50648        0.22640        -999.25       77.76169        0.68334        0.57546        0.53226       25.74900        1.98367       76.00216        0.04929
5197.50000       42.75304        0.23126        -999.25       76.17004        0.70369        0.60015        0.54142       25.74900       -0.22407       75.75879        0.04521
5198.00000       43.70405        0.23611        -999.25       73.87575        0.73797        0.62585        0.55074       25.62754       -0.93690       75.51541        0.04318
5198.50000       46.63968        0.24097        -999.25       71.23623        0.79547        0.65270        0.57046       25.50608        0.59059       75.27204        0.04725
5199.00000       47.65142        0.25798        -999.25       69.04275        0.85745        0.66388        0.59088       25.50608        0.08143       75.02867        0.04929
5199.50000       47.22996        0.28324        -999.25       68.73725        0.91050        0.67114        0.60974       24.96317       -0.73324       74.78530        0.05132
5200.00000       47.57126        0.30826        -999.25       69.04275        0.92626        0.68046        0.62755       24.46276       -0.73324       81.41912        0.05132
5200.50000       50.00041        0.33838        -999.25       69.65375        0.91821        0.70165        0.65264       23.86276        0.48876       81.17281        0.05132
5201.00000       51.61944        0.36364        -999.25       70.57025        0.94123        0.73486        0.68719       23.31985        2.11809       80.92649        0.04929
5201.50000       50.64778        0.38866        -999.25       71.18124        0.96682        0.80394        0.72357       23.19839        2.93275       80.68018        0.04521
5202.00000       49.31174        0.40081        -999.25       73.15477        0.95933        0.82953        0.76188       22.83402        4.96941       80.43386        0.04318
5202.50000       49.06883        0.41296        -999.25       76.44499        0.90692        0.82914        0.79197       22.71256        6.59874       80.13828        0.04318
5203.00000       50.45952        0.42510        -999.25       79.73521        0.84714        0.81137        0.78186       22.95547        9.45006       79.89196        0.04114
5203.50000       51.72996        0.43725        -999.25       80.60894        0.82047        0.79398        0.77195       23.31985       12.70871       74.40373        0.04114
5204.00000       53.37207        0.43433        -999.25       81.32381        0.83382        0.81350        0.79532       23.31985       14.33804       65.08486        0.04114
5204.50000       54.65587        0.43142        -999.25       81.93481        0.87845        0.83358        0.81940       23.44130       15.56004       55.96761        0.04725
5205.00000       54.89879        0.42826        -999.25       83.32483        0.91392        0.85408        0.83468       23.31985       16.37470       46.85036        0.05132
