~Version ---------------------------------------------------
VERS. 2.0 : CWLS LOG ASCII STANDARD - VERSION 2.0
WRAP. NO  : One line per depth step
DLM . SPACE : Column Data Section Delimiter
~Well ------------------------------------------------------
STRT.F       4400.5 : START DEPTH
STOP.F        14502 : STOP DEPTH
STEP.F          0.5 : STEP
NULL.       -999.25 : NULL VALUE
COMP.            PALACE OPERATING COMPANY : COMPANY
WELL.         235305-SL18350-002-18350-29 : WELL
FLD .               BELLE ISLE, SOUTHWEST : FIELD
CNTY.                            ST. MARY : COUNTY
STAT.                           LOUISIANA : STATE
CTRY.                                 USA : COUNTRY
SEC .                                     : SECTION
TWP .                                     : TOWNSHIP
RGE .                                     : RANGE
LOC . LAT 29 29' 27.731" LONG 91 31' 11.823" : LOCATION
EKB .F                       42 : ELEVATION KELLY BUSHING
EDF .F                       41 : ELEVATION DERRICK FLOOR
EGL .F                       -8 : ELEVATION GROUND LEVEL
PDAT.                       MSL : PERMANENT DATUM
EPD .                           : ELEVATION PERMANENT DATUM
APD .                        42 : ABOVE PERMANENT DATUM
LMF .                        KB : LOG MEASURED FROM
DMF .                        KB : DRILLING MEASURED FROM
API .            17101223030000 : API NUMBER
UWI .                           : UWI NUMBER
DIGC.                     NthDS : DIGITIZING COMPANY
~Params ----------------------------------------------------
SRVC.              BAKER HUGHES : LOGGING COMPANY
LOG .         HDIL/ZDEN/CNL/MAA : LOG
DATE.                2007-05-03 : RUN DATE
RUN .                         1 : RUN NUMBER
TDD .F                    12700 : TOTAL DEPTH DRILLER
TDL .F                    12702 : TOTAL DEPTH LOGGER
BOTL.F                    12694 : BOTTOM LOGGED INTERVAL
TOPL.F                     4475 : TOP LOGGED INTERVAL
CSGS.IN                  13.375 : CASING SIZE
CSGD.F                     4510 : CASING DRILLER
CSGL.F                     4514 : CASING LOGGER
BS  .IN                   12.25 : BIT SIZE
MUD .                     LIGNO : MUD TYPE
MUDD.                      10.8 : MUD DENSITY
MUDV.                        42 : MUD VISCOSITY
PH  .                       9.8 : MUD PH
FL  .                       3.8 : FLUID LOSS
MUDS.                       PIT : SOURCE OF SAMPLE
RM  .OHMM                 0.405 : MUD RESISTIVITY
RMT .DEGF                    85 : RM TEMPERATURE
RMF .OHMM                 0.304 : MUD FILTRATE RESISTIVITY
RMFT.DEGF                    85 : RMF TEMPERATURE
RMC .OHMM                 0.506 : MUD CAKE RESISTIVITY
RMCT.DEGF                    85 : RMC TEMPERATURE
RMFS.                CALCULATED : RMF SOURCE
RMCS.                CALCULATED : RMC SOURCE
RMBH.OHMM                 0.282 : MUD RESISTIVITY AT BHT
BHT .DEGF                   191 : BOTTOM HOLE TEMPERATURE
TIMC.                           : TIME CIRCULATION STOPPED
TIML.                           : TIME LOGGER ON BOTTOM
TMAX.DEGF                   191 : MAXIMUM RECORDED TEMPERATURE
UNIT.                    HL4125 : EQUIPMENT NUMBER
BASE.                  PEARLAND : BASE LOCATION
ENG .                      CASE : RECORDED BY
WIT .                    ARDOIN : WITNESSED BY
#
SRVC.              BAKER HUGHES : LOGGING COMPANY
LOG .         HDIL/ZDEN/CNL/MAA : LOG
DATE.                2007-05-11 : RUN DATE
RUN .                         2 : RUN NUMBER
TDD .F                    13580 : TOTAL DEPTH DRILLER
TDL .F                    13588 : TOTAL DEPTH LOGGER
BOTL.F                    13579 : BOTTOM LOGGED INTERVAL
TOPL.F                    11990 : TOP LOGGED INTERVAL
CSGS.IN                   9.625 : CASING SIZE
CSGD.F                    12700 : CASING DRILLER
CSGL.F                    12700 : CASING LOGGER
BS  .IN                     8.5 : BIT SIZE
MUD .           WATER BASED MUD : MUD TYPE
MUDD.                      15.7 : MUD DENSITY
MUDV.                        46 : MUD VISCOSITY
PH  .                      10.8 : MUD PH
FL  .                       2.8 : FLUID LOSS
MUDS.                  FLOWLINE : SOURCE OF SAMPLE
RM  .OHMM                 0.802 : MUD RESISTIVITY
RMT .DEGF                    75 : RM TEMPERATURE
RMF .OHMM                   0.6 : MUD FILTRATE RESISTIVITY
RMFT.DEGF                    75 : RMF TEMPERATURE
RMC .OHMM                   1.0 : MUD CAKE RESISTIVITY
RMCT.DEGF                    75 : RMC TEMPERATURE
RMFS.                  MEASURED : RMF SOURCE
RMCS.                  MEASURED : RMC SOURCE
RMBH.OHMM                  0.29 : MUD RESISTIVITY AT BHT
BHT .DEGF                   220 : BOTTOM HOLE TEMPERATURE
TIMC.                           : TIME CIRCULATION STOPPED
TIML.                           : TIME LOGGER ON BOTTOM
TMAX.DEGF                   220 : MAXIMUM RECORDED TEMPERATURE
UNIT.                    HL6659 : EQUIPMENT NUMBER
BASE.                 BROUSSARD : BASE LOCATION
ENG .                 N.FRAICHE : RECORDED BY
WIT .                  S.VESTAL : WITNESSED BY
#
SRVC.              BAKER HUGHES : LOGGING COMPANY
LOG .         HDIL/ZDEN/CNL/MAA : LOG
DATE.                2007-05-11 : RUN DATE
RUN .                         3 : RUN NUMBER
TDD .F                    14504 : TOTAL DEPTH DRILLER
TDL .F                    14506 : TOTAL DEPTH LOGGER
BOTL.F                    14508 : BOTTOM LOGGED INTERVAL
TOPL.F                    13583 : TOP LOGGED INTERVAL
CSGS.IN                   7.625 : CASING SIZE
CSGD.F                    13575 : CASING DRILLER
CSGL.F                    13583 : CASING LOGGER
BS  .IN                     6.5 : BIT SIZE
MUD .           WATER BASED MUD : MUD TYPE
MUDD.                      17.2 : MUD DENSITY
MUDV.                        49 : MUD VISCOSITY
PH  .                      10.5 : MUD PH
FL  .                      11.2 : FLUID LOSS
MUDS.                  FLOWLINE : SOURCE OF SAMPLE
RM  .OHMM                 0.202 : MUD RESISTIVITY
RMT .DEGF                    75 : RM TEMPERATURE
RMF .OHMM                 0.401 : MUD FILTRATE RESISTIVITY
RMFT.DEGF                    75 : RMF TEMPERATURE
RMC .OHMM                  2.35 : MUD CAKE RESISTIVITY
RMCT.DEGF                    75 : RMC TEMPERATURE
RMFS.                  MEASURED : RMF SOURCE
RMCS.                  MEASURED : RMC SOURCE
RMBH.OHMM                 0.292 : MUD RESISTIVITY AT BHT
BHT .DEGF                   245 : BOTTOM HOLE TEMPERATURE
TIMC.                           : TIME CIRCULATION STOPPED
TIML.                           : TIME LOGGER ON BOTTOM
TMAX.DEGF                   245 : MAXIMUM RECORDED TEMPERATURE
UNIT.                    HL6659 : EQUIPMENT NUMBER
BASE.                 BROUSSARD : BASE LOCATION
ENG .      J.SPENCER/C.BRICONER : RECORDED BY
WIT .                 D. MATHIS : WITNESSED BY
~Curve Information -----------------------------------------
DEPT.F          :DEPTH
CNCF.%          :
DCAL.IN         :
DT.US/F         :
GR.GAPI         :
M2R1.OHMM       :
M2R3.OHMM       :
M2R9.OHMM       :
PORZ.%          :
SP.MV           :
TENS.LBF        :
ZCOR.G/CC       :
~ASCII ------------------------------------------------------
# ...
4515.50000       49.95913        0.67966        -999.25       45.55408        0.61060        0.18759        0.19628       36.04981      -39.95941       -6.59360        0.02888
4516.00000       47.81875        0.84614        -999.25       46.72203        0.34136        0.18906        0.18381       36.20168      -41.24274       -0.46534        0.03616
4516.50000       46.01701        1.01261        -999.25       47.83521        0.33976        0.18324        0.16854       36.13053      -41.76186        5.86452        0.04344
4517.00000       45.24398        1.14770        -999.25       49.16980        0.37563        0.18095        0.15616       36.10058      -39.53712       11.99277        0.05003
4517.50000       43.73903        1.21696        -999.25       49.43783        0.37174        0.18250        0.15428       36.09665      -37.17823       18.12103        0.05390
4518.00000       42.86596        1.20258        -999.25       49.77211        0.34723        0.18605        0.15489       36.09337      -37.40688       43.20081        0.05775
4518.50000       44.31545        1.18797        -999.25       49.42180        0.32654        0.18968        0.15495       35.86949      -39.54386       42.07103        0.06062
4519.00000       43.98552        1.17359        -999.25       49.00082        0.31550        0.19264        0.15418       35.31591      -43.03854       40.79594        0.06282
4519.50000       41.73584        1.31655        -999.25       48.64747        0.30482        0.19467        0.15343       34.84718      -42.76499       39.66616        0.05915
4520.00000       41.40549        1.53551        -999.25       48.29717        0.29787        0.19641        0.15267       34.79057      -41.35324       38.73799        0.05401
4520.50000       44.79088        1.71798        -999.25       47.94686        0.30579        0.19929        0.15507       35.00790      -40.25857       37.60821        0.04888
4521.00000       48.17584        1.90046        -999.25       47.59351        0.31255        0.20511        0.15849       35.26820      -40.44029       36.47843        0.04882
4521.50000       50.59307        2.02572        -999.25       48.56977        0.32268        0.21112        0.16200       35.48552      -40.62202       35.55026        0.05320
4522.00000       50.54257        2.11292        -999.25       49.36044        0.31880        0.21462        0.16271       35.70285      -40.66554       34.42048        0.05978
4522.50000       49.20982        2.20036        -999.25       50.15110        0.31499        0.21635        0.16271       35.48260      -41.08303       33.29070        0.05948
4523.00000       48.31818        2.23121        -999.25       50.94176        0.31120        0.21811        0.16502       35.26357      -40.68753       32.36253        0.05774
4523.50000       49.13260        2.24447        -999.25       51.08436        0.30749        0.21987        0.16893       35.10514      -39.47903       31.23275        0.05600
4524.00000       48.98533        2.25797        -999.25       50.79490        0.30379        0.22167        0.17294       35.21393      -37.45974       30.10297        0.05348
4524.50000       47.65258        2.28263        -999.25       50.44999        0.30017        0.22347        0.17704       35.30398      -37.06424       29.17481        0.04796
4525.00000       46.58596        2.35261        -999.25       49.74979        0.29656        0.22678        0.18124       35.65100      -37.88823       28.04503        0.04244
4525.50000       46.58385        2.42260        -999.25       48.77879        0.29656        0.23056        0.18554       36.06226      -38.30572       27.52008        0.04059
4526.00000       47.98090        2.54229        -999.25       48.23984        0.29656        0.23437        0.18874       36.47352      -38.72322       27.80159        0.04121
4526.50000       48.91308        2.77580        -999.25       48.35505        0.29656        0.23906        0.19264       36.88478      -40.36021       28.13939        0.04184
4527.00000       50.29241        2.97039        -999.25       48.46722        0.30181        0.24301        0.19595       36.88150      -41.99720       28.42090        0.04427
4527.50000       52.50278        3.16498        -999.25       47.80048        0.30807        0.24706        0.19933       36.87823      -43.63419       28.70240        0.04791
4528.00000       55.07727        3.35655        -999.25       46.93598        0.31582        0.25115        0.20352       36.79374      -43.64518       28.98391        0.05228
4528.50000       58.15981        3.49854        -999.25       46.07452        0.32374        0.25533        0.21100       36.62859      -44.06488       29.26541        0.05592
4529.00000       59.48229        3.58671        -999.25       45.21001        0.33189        0.25955        0.21878       37.23136      -45.29317       29.54691        0.06540
4529.50000       58.13987        3.59416        -999.25       45.05139        0.33903        0.26385        0.22685       37.83414      -46.11936       29.82842        0.07726
4530.00000       55.54906        3.60294        -999.25       48.24197        0.34636        0.26824        0.23521       38.43691      -46.53686       30.10992        0.07956
4530.50000       53.56751        3.60880        -999.25       50.50828        0.34782        0.27001        0.24386       39.16938      -46.54785       30.39143        0.08184
4531.00000       52.22992        3.59879        -999.25       50.82126        0.34782        0.27001        0.25285       40.41820      -45.33936       30.67293        0.09750
4531.50000       52.13061        3.56720        -999.25       50.18495        0.34564        0.27001        0.25776       41.66702      -43.72436       30.95443        0.11084
4532.00000       52.06360        3.46677        -999.25       49.81943        0.33947        0.26741        0.26274       42.01945      -42.92236       31.23594        0.10155
4532.50000       51.66188        3.30586        -999.25       50.54012        0.32947        0.26355        0.26887       40.72351      -42.93336       31.51744        0.09225
4533.00000       50.99003        3.21524        -999.25       51.68676        0.32135        0.26038        0.27406       38.47112      -44.16385       31.79895        0.08203
4533.50000       50.15083        3.14343        -999.25       53.06465        0.31346        0.25725        0.27857       36.59514      -45.39434       32.13675        0.07182
4534.00000       49.81364        3.10250        -999.25       53.61494        0.30574        0.25416        0.28297       35.98581      -44.59234       32.41826        0.05955
4534.50000       52.10990        3.04594        -999.25       51.95937        0.29820        0.25110        0.28744       35.47345      -42.97735       32.69976        0.05527
4535.00000       56.09886        2.98599        -999.25       49.89304        0.29050        0.25148        0.29236       35.10654      -42.98834       32.98127        0.05097
4535.50000       55.44679        2.92604        -999.25       47.70128        0.28244        0.25273        0.29896       34.72807      -43.81454       33.26277        0.05004
4536.00000       51.54307        2.91458        -999.25       47.28708        0.27870        0.25397        0.30571       34.63873      -43.41904       33.54427        0.05135
4536.50000       50.04460        2.91537        -999.25       48.03210        0.28120        0.25523        0.31261       35.24150      -43.02353       33.82578        0.05263
4537.00000       49.19572        2.91602        -999.25       49.33392        0.28374        0.25523        0.31967       35.84427      -43.44103       34.10728        0.05705
4537.50000       49.33514        2.91668        -999.25       50.63574        0.28628        0.25285        0.32398       36.34644      -44.26502       34.38879        0.06352
4538.00000       50.03826        2.90230        -999.25       51.15257        0.28760        0.24990        0.32618       36.44377      -46.31071       34.67029        0.07001
