~Version ---------------------------------------------------
VERS. 2.0 : CWLS LOG ASCII STANDARD - VERSION 2.0
WRAP. NO  : One line per depth step
DLM . SPACE : Column Data Section Delimiter
~Well ------------------------------------------------------
STRT.F         1790 : START DEPTH
STOP.F        12744 : STOP DEPTH
STEP.F          0.5 : STEP
NULL.       -999.25 : NULL VALUE
COMP.            AMOCO PRODUCTION COMPANY : COMPANY
WELL.             155847-SL862-011-862-30 : WELL
FLD .                  VERMILION BLOCK 15 : FIELD
CNTY.                           VERMILION : COUNTY
STAT.                           LOUISIANA : STATE
CTRY.                                 USA : COUNTRY
SEC .                                     : SECTION
TWP .                                     : TOWNSHIP
RGE .                                     : RANGE
LOC .                                     : LOCATION
EKB .F                    44.35 : ELEVATION KELLY BUSHING
EDF .F                     44.5 : ELEVATION DERRICK FLOOR
EGL .F                          : ELEVATION GROUND LEVEL
PDAT.                       BHF : PERMANENT DATUM
EPD .                           : ELEVATION PERMANENT DATUM
APD .                        33 : ABOVE PERMANENT DATUM
LMF .                       RKB : LOG MEASURED FROM
DMF .                       RKB : DRILLING MEASURED FROM
API .            17705200940000 : API NUMBER
UWI .                           : UWI NUMBER
DIGC.                     NthDS : DIGITIZING COMPANY
~Params ----------------------------------------------------
SRVC.                     WELEX : LOGGING COMPANY
LOG .                       IEL : LOG
DATE.                1977-09-15 : RUN DATE
RUN .                         1 : RUN NUMBER
TDD .F                    11102 : TOTAL DEPTH DRILLER
TDL .F                    11116 : TOTAL DEPTH LOGGER
BOTL.F                    11110 : BOTTOM LOGGED INTERVAL
TOPL.F                     1790 : TOP LOGGED INTERVAL
CSGS.IN                  13.375 : CASING SIZE
CSGD.F                     1800 : CASING DRILLER
CSGL.F                     1790 : CASING LOGGER
BS  .IN                   12.25 : BIT SIZE
MUD .             LIGNO LIGNITE : MUD TYPE
MUDD.                      10.5 : MUD DENSITY
MUDV.                        43 : MUD VISCOSITY
PH  .                      10.5 : MUD PH
FL  .                       6.2 : FLUID LOSS
MUDS.                       PIT : SOURCE OF SAMPLE
RM  .OHMM                  1.08 : MUD RESISTIVITY
RMT .DEGF                    82 : RM TEMPERATURE
RMF .OHMM                  0.93 : MUD FILTRATE RESISTIVITY
RMFT.DEGF                    82 : RMF TEMPERATURE
RMC .OHMM                  1.37 : MUD CAKE RESISTIVITY
RMCT.DEGF                    82 : RMC TEMPERATURE
RMFS.                      MEAS : RMF SOURCE
RMCS.                      MEAS : RMC SOURCE
RMBH.OHMM                  0.46 : MUD RESISTIVITY AT BHT
BHT .DEGF                   194 : BOTTOM HOLE TEMPERATURE
TIMC.                           : TIME CIRCULATION STOPPED
TIML.                           : TIME LOGGER ON BOTTOM
TMAX.DEGF                   194 : MAXIMUM RECORDED TEMPERATURE
UNIT.                      2844 : EQUIPMENT NUMBER
BASE.                     HOUMA : BASE LOCATION
ENG .          KNOLES, MOBERLEY : RECORDED BY
WIT .               MR. HUBBARD : WITNESSED BY
#
SRVC.                     WELEX : LOGGING COMPANY
LOG .                       IEL : LOG
DATE.                1977-10-19 : RUN DATE
RUN .                         2 : RUN NUMBER
TDD .F                    11644 : TOTAL DEPTH DRILLER
TDL .F                    11647 : TOTAL DEPTH LOGGER
BOTL.F                    11641 : BOTTOM LOGGED INTERVAL
TOPL.F                    11110 : TOP LOGGED INTERVAL
CSGS.IN                   9.625 : CASING SIZE
CSGD.F                    11110 : CASING DRILLER
CSGL.F                    11110 : CASING LOGGER
BS  .IN                     8.5 : BIT SIZE
MUD .             LIGNO LIGNITE : MUD TYPE
MUDD.                        16 : MUD DENSITY
MUDV.                        43 : MUD VISCOSITY
PH  .                        11 : MUD PH
FL  .                      17.4 : FLUID LOSS
MUDS.                       PIT : SOURCE OF SAMPLE
RM  .OHMM                  1.30 : MUD RESISTIVITY
RMT .DEGF                    72 : RM TEMPERATURE
RMF .OHMM                  0.91 : MUD FILTRATE RESISTIVITY
RMFT.DEGF                    72 : RMF TEMPERATURE
RMC .OHMM                  2.64 : MUD CAKE RESISTIVITY
RMCT.DEGF                    72 : RMC TEMPERATURE
RMFS.                      MEAS : RMF SOURCE
RMCS.                      MEAS : RMC SOURCE
RMBH.OHMM                  0.44 : MUD RESISTIVITY AT BHT
BHT .DEGF                  2189 : BOTTOM HOLE TEMPERATURE
TIMC.                           : TIME CIRCULATION STOPPED
TIML.                           : TIME LOGGER ON BOTTOM
TMAX.DEGF                   218 : MAXIMUM RECORDED TEMPERATURE
UNIT.                      2844 : EQUIPMENT NUMBER
BASE.                     HOUMA : BASE LOCATION
ENG .                    KNOLES : RECORDED BY
WIT .        HUBBARD, HENDERSON : WITNESSED BY
#
SRVC.                     WELEX : LOGGING COMPANY
LOG .                       IEL : LOG
DATE.                1977-12-07 : RUN DATE
RUN .                         3 : RUN NUMBER
TDD .F                    12749 : TOTAL DEPTH DRILLER
TDL .F                    12750 : TOTAL DEPTH LOGGER
BOTL.F                    12744 : BOTTOM LOGGED INTERVAL
TOPL.F                    11618 : TOP LOGGED INTERVAL
CSGS.IN                   7.625 : CASING SIZE
CSGD.F                    11626 : CASING DRILLER
CSGL.F                    11618 : CASING LOGGER
BS  .IN                     6.5 : BIT SIZE
MUD .             LIGNO LIGNITE : MUD TYPE
MUDD.                      16.4 : MUD DENSITY
MUDV.                        50 : MUD VISCOSITY
PH  .                      11.5 : MUD PH
FL  .                       3.5 : FLUID LOSS
MUDS.                       PIT : SOURCE OF SAMPLE
RM  .OHMM                  0.98 : MUD RESISTIVITY
RMT .DEGF                    82 : RM TEMPERATURE
RMF .OHMM                  0.57 : MUD FILTRATE RESISTIVITY
RMFT.DEGF                    50 : RMF TEMPERATURE
RMC .OHMM                  2.48 : MUD CAKE RESISTIVITY
RMCT.DEGF                    50 : RMC TEMPERATURE
RMFS.                      MEAS : RMF SOURCE
RMCS.                      MEAS : RMC SOURCE
RMBH.OHMM                  0.34 : MUD RESISTIVITY AT BHT
BHT .DEGF                   235 : BOTTOM HOLE TEMPERATURE
TIMC.                           : TIME CIRCULATION STOPPED
TIML.                           : TIME LOGGER ON BOTTOM
TMAX.DEGF                   235 : MAXIMUM RECORDED TEMPERATURE
UNIT.                      2844 : EQUIPMENT NUMBER
BASE.                     HOUMA : BASE LOCATION
ENG .                  CROTHERS : RECORDED BY
WIT .                   HUBBARD : WITNESSED BY
~Curve Information -----------------------------------------
DEPT.F          :DEPTH
ASN.OHMM        :
CILD.MMHO       :
ILD.OHMM        :
SP.MV           :
~ASCII ------------------------------------------------------
# ...
4671.50000        0.44763     1826.54160        0.51957      -99.30235
4672.00000        0.42541     1813.07919        0.49644     -107.19397
4672.50000        0.40316     2212.50364        0.47312     -115.08559
4673.00000        0.41984     2336.82924        0.44980     -122.97721
4673.50000        0.43652     2461.15484        0.42668     -130.86883
4674.00000        0.45324     2585.48043        0.40336     -138.76045
4674.50000        0.46992     4012.30798        0.38024     -139.79975
4675.00000        0.48660     4070.82557        0.35692     -140.83904
4675.50000        0.50328     4129.26301        0.33360     -142.91763
4676.00000        0.52000     3996.72802        0.31047     -143.95692
4676.50000        0.53668     4246.21805        0.28715     -144.99622
4677.00000        0.55336     4304.73565        0.26383     -146.03551
4677.50000        0.53953     4363.17309        0.24071     -147.07480
4678.00000        0.52569     4421.69069        0.21739     -148.11410
4678.50000        0.51186     4400.13254        0.22134     -149.15339
4679.00000        0.49802     4378.57439        0.22530     -148.57920
4679.50000        0.48419     4357.01623        0.22925     -148.00103
4680.00000        0.47036     4335.45808        0.23320     -147.42684
4680.50000        0.48881     4313.89993        0.23715     -146.84866
4681.00000        0.50723     4292.34178        0.24111     -146.27447
4681.50000        0.52569     4270.78362        0.24506     -145.69630
4682.00000        0.54415     4249.22547        0.24901     -145.12211
4682.50000        0.56257     4227.66732        0.25296     -144.54393
4683.00000        0.58103     4206.10917        0.25692     -143.96974
4683.50000        0.56759     4219.01805        0.26087     -143.39157
4684.00000        0.55415     4231.92694        0.26482     -142.81738
4684.50000        0.54071     4244.83583        0.26877     -143.38657
4685.00000        0.52727     4257.74471        0.27273     -143.95178
4685.50000        0.51383     4270.65360        0.27668     -144.52097
4686.00000        0.52107     4249.33592        0.28063     -145.09016
4686.50000        0.52834     4228.09839        0.28458     -145.65537
4687.00000        0.53557     4206.78070        0.28854     -146.22456
4687.50000        0.54281     4185.46302        0.29249     -146.79375
4688.00000        0.55008     4164.22549        0.29644     -147.35896
4688.50000        0.55731     4142.90780        0.30040     -147.92815
4689.00000        0.52684     4170.24476        0.30435     -148.49735
4689.50000        0.49632     4197.58171        0.30830     -149.06255
4690.00000        0.46585     4224.91866        0.31225     -149.63175
4690.50000        0.43534     4252.25561        0.31621     -148.59941
4691.00000        0.40486     4279.59256        0.31581     -147.56707
4691.50000        0.37435     4306.92951        0.31561     -146.53472
4692.00000        0.34387     4334.26646        0.31522     -145.50238
4692.50000        0.34237     4361.60341        0.31482     -144.47004
4693.00000        0.34091     4388.94036        0.31462     -143.43770
4693.50000        0.33941     4416.27731        0.31423     -142.40536
4694.00000        0.33794     4413.71610        0.31383     -141.37302
4694.50000        0.33644     4411.07474        0.31344     -140.34068
4695.00000        0.33498     4408.51354        0.31324     -139.30834
4695.50000        0.33348     4351.36617        0.31285     -140.15243
4696.00000        0.33202     4294.13864        0.31245     -140.99651
4696.50000        0.33202     4236.99126        0.31225     -141.84059
4697.00000        0.33202     4179.84389        0.31186     -142.68467
4697.50000        0.33202     4122.69651        0.31146     -143.53274
4698.00000        0.33202     4065.46898        0.31126     -144.37682
4698.50000        0.34040     4008.32161        0.31087     -145.22090
4699.00000        0.34881     4008.40555        0.31047     -146.06498
4699.50000        0.35719     4008.48949        0.31008     -146.90907
4700.00000        0.36561     4116.02666        0.30988     -144.71976
4700.50000        0.36609     4240.35226        0.26996     -143.62766
4701.00000        0.37451     4364.67785        0.26957     -142.53556
4701.50000        0.38289     4489.00345        0.26937     -141.44346
4702.00000        0.39130     4445.48258        0.26897     -140.35136
4702.50000        0.37680     4401.88155        0.26858     -139.25926
4703.00000        0.36233     4358.36068        0.26838     -138.16716
4703.50000        0.34783     4314.75965        0.26798     -137.07507
4704.00000        0.33332     4271.23878        0.26759     -138.07452
4704.50000        0.31885     4227.63776        0.26739     -139.07397
4705.00000        0.30435     4184.11689        0.26700     -140.07343
4705.50000        0.31423     4140.51586        0.26660     -141.07288
4706.00000        0.32411     4096.99499        0.26621     -142.07234
4706.50000        0.33399     4142.52733        0.26601     -143.07179
4707.00000        0.34387     4187.97952        0.26561     -144.07125
4707.50000        0.35375     4233.51186        0.26522     -145.07070
4708.00000        0.36364     4279.04420        0.26502     -146.07016
4708.50000        0.37352     4370.02872        0.26462     -147.06961
4709.00000        0.38340     4415.56106        0.26423     -148.06906
4709.50000        0.39328     4461.01325        0.26403     -149.06852
4710.00000        0.40316     4506.54559        0.26364     -148.51823
4710.50000        0.40316     4485.54853        0.26324     -147.96795
4711.00000        0.40316     4464.63162        0.26304     -147.41766
4711.50000        0.40316     4443.63456        0.26265     -146.86339
4712.00000        0.40316     4422.71766        0.26225     -146.31310
4712.50000        0.39083     4401.72059        0.26186     -145.76281
4713.00000        0.37846     4380.80369        0.26166     -145.21253
4713.50000        0.36613     4359.80663        0.26126     -144.66224
4714.00000        0.35375     4338.88972        0.26087     -144.11195
4714.50000        0.34142     4360.37529        0.26067     -143.56167
4715.00000        0.32905     4381.78071        0.26028     -143.01138
4715.50000        0.31672     4403.26627        0.25988     -142.45711
4716.00000        0.30435     4424.75184        0.25968     -141.90682
4716.50000        0.32016     4446.15726        0.25929     -141.35653
4717.00000        0.33597     4467.64283        0.25889     -140.80625
4717.50000        0.35178     4304.76981        0.25850     -140.25596
4718.00000        0.34190     4141.81664        0.25830     -139.97864
4718.50000        0.33202     4003.18980        0.25791     -139.70567
4719.00000        0.32213     3947.16461        0.25751     -139.15539
4719.50000        0.31225     3983.03536        0.25731     -138.60510
4720.00000        0.34652     3987.12710        0.25692     -138.05083
4720.50000        0.38075     4105.52495        0.25692     -137.50054
4721.00000        0.41502     4164.68379        0.25692     -136.95025
4721.50000        0.40949     4223.92279        0.25692     -136.39997
4722.00000        0.40395     4283.08164        0.25692     -137.20023
4722.50000        0.39842     4342.32064        0.25692     -138.00049
4723.00000        0.39289     4401.47948        0.25692     -138.80074
4723.50000        0.38735     4460.71848        0.25692     -139.60100
4724.00000        0.38182     4535.58788        0.25692     -140.40126
4724.50000        0.37628     4610.53744        0.25692     -141.20152
4725.00000        0.36522     4685.40684        0.25692     -142.00178
4725.50000        0.35968     4659.44012        0.25692     -143.60230
4726.00000        0.37221     4633.47339        0.25692     -144.40256
4726.50000        0.38470     4607.50666        0.25692     -145.20282
4727.00000        0.39723     4581.53994        0.25692     -144.83579
4727.50000        0.40976     4555.57321        0.25692     -144.46478
