~Version ---------------------------------------------------
VERS. 2.0 : CWLS LOG ASCII STANDARD - VERSION 2.0
WRAP. NO  : One line per depth step
DLM . SPACE : Column Data Section Delimiter
~Well ------------------------------------------------------
STRT.F         1790 : START DEPTH
STOP.F        12744 : STOP DEPTH
STEP.F          0.5 : STEP
NULL.       -999.25 : NULL VALUE
COMP.            AMOCO PRODUCTION COMPANY : COMPANY
WELL.             155847-SL862-011-862-30 : WELL
FLD .                  VERMILION BLOCK 15 : FIELD
CNTY.                           VERMILION : COUNTY
STAT.                           LOUISIANA : STATE
CTRY.                                 USA : COUNTRY
SEC .                                     : SECTION
TWP .                                     : TOWNSHIP
RGE .                                     : RANGE
LOC .                                     : LOCATION
EKB .F                    44.35 : ELEVATION KELLY BUSHING
EDF .F                     44.5 : ELEVATION DERRICK FLOOR
EGL .F                          : ELEVATION GROUND LEVEL
PDAT.                       BHF : PERMANENT DATUM
EPD .                           : ELEVATION PERMANENT DATUM
APD .                        33 : ABOVE PERMANENT DATUM
LMF .                       RKB : LOG MEASURED FROM
DMF .                       RKB : DRILLING MEASURED FROM
API .            17705200940000 : API NUMBER
UWI .                           : UWI NUMBER
DIGC.                     NthDS : DIGITIZING COMPANY
~Params ----------------------------------------------------
SRVC.                     WELEX : LOGGING COMPANY
LOG .                       IEL : LOG
DATE.                1977-09-15 : RUN DATE
RUN .                         1 : RUN NUMBER
TDD .F                    11102 : TOTAL DEPTH DRILLER
TDL .F                    11116 : TOTAL DEPTH LOGGER
BOTL.F                    11110 : BOTTOM LOGGED INTERVAL
TOPL.F                     1790 : TOP LOGGED INTERVAL
CSGS.IN                  13.375 : CASING SIZE
CSGD.F                     1800 : CASING DRILLER
CSGL.F                     1790 : CASING LOGGER
BS  .IN                   12.25 : BIT SIZE
MUD .             LIGNO LIGNITE : MUD TYPE
MUDD.                      10.5 : MUD DENSITY
MUDV.                        43 : MUD VISCOSITY
PH  .                      10.5 : MUD PH
FL  .                       6.2 : FLUID LOSS
MUDS.                       PIT : SOURCE OF SAMPLE
RM  .OHMM                  1.08 : MUD RESISTIVITY
RMT .DEGF                    82 : RM TEMPERATURE
RMF .OHMM                  0.93 : MUD FILTRATE RESISTIVITY
RMFT.DEGF                    82 : RMF TEMPERATURE
RMC .OHMM                  1.37 : MUD CAKE RESISTIVITY
RMCT.DEGF                    82 : RMC TEMPERATURE
RMFS.                      MEAS : RMF SOURCE
RMCS.                      MEAS : RMC SOURCE
RMBH.OHMM                  0.46 : MUD RESISTIVITY AT BHT
BHT .DEGF                   194 : BOTTOM HOLE TEMPERATURE
TIMC.                           : TIME CIRCULATION STOPPED
TIML.                           : TIME LOGGER ON BOTTOM
TMAX.DEGF                   194 : MAXIMUM RECORDED TEMPERATURE
UNIT.                      2844 : EQUIPMENT NUMBER
BASE.                     HOUMA : BASE LOCATION
ENG .          KNOLES, MOBERLEY : RECORDED BY
WIT .               MR. HUBBARD : WITNESSED BY
#
SRVC.                     WELEX : LOGGING COMPANY
LOG .                       IEL : LOG
DATE.                1977-10-19 : RUN DATE
RUN .                         2 : RUN NUMBER
TDD .F                    11644 : TOTAL DEPTH DRILLER
TDL .F                    11647 : TOTAL DEPTH LOGGER
BOTL.F                    11641 : BOTTOM LOGGED INTERVAL
TOPL.F                    11110 : TOP LOGGED INTERVAL
CSGS.IN                   9.625 : CASING SIZE
CSGD.F                    11110 : CASING DRILLER
CSGL.F                    11110 : CASING LOGGER
BS  .IN                     8.5 : BIT SIZE
MUD .             LIGNO LIGNITE : MUD TYPE
MUDD.                        16 : MUD DENSITY
MUDV.                        43 : MUD VISCOSITY
PH  .                        11 : MUD PH
FL  .                      17.4 : FLUID LOSS
MUDS.                       PIT : SOURCE OF SAMPLE
RM  .OHMM                  1.30 : MUD RESISTIVITY
RMT .DEGF                    72 : RM TEMPERATURE
RMF .OHMM                  0.91 : MUD FILTRATE RESISTIVITY
RMFT.DEGF                    72 : RMF TEMPERATURE
RMC .OHMM                  2.64 : MUD CAKE RESISTIVITY
RMCT.DEGF                    72 : RMC TEMPERATURE
RMFS.                      MEAS : RMF SOURCE
RMCS.                      MEAS : RMC SOURCE
RMBH.OHMM                  0.44 : MUD RESISTIVITY AT BHT
BHT .DEGF                  2189 : BOTTOM HOLE TEMPERATURE
TIMC.                           : TIME CIRCULATION STOPPED
TIML.                           : TIME LOGGER ON BOTTOM
TMAX.DEGF                   218 : MAXIMUM RECORDED TEMPERATURE
UNIT.                      2844 : EQUIPMENT NUMBER
BASE.                     HOUMA : BASE LOCATION
ENG .                    KNOLES : RECORDED BY
WIT .        HUBBARD, HENDERSON : WITNESSED BY
#
SRVC.                     WELEX : LOGGING COMPANY
LOG .                       IEL : LOG
DATE.                1977-12-07 : RUN DATE
RUN .                         3 : RUN NUMBER
TDD .F                    12749 : TOTAL DEPTH DRILLER
TDL .F                    12750 : TOTAL DEPTH LOGGER
BOTL.F                    12744 : BOTTOM LOGGED INTERVAL
TOPL.F                    11618 : TOP LOGGED INTERVAL
CSGS.IN                   7.625 : CASING SIZE
CSGD.F                    11626 : CASING DRILLER
CSGL.F                    11618 : CASING LOGGER
BS  .IN                     6.5 : BIT SIZE
MUD .             LIGNO LIGNITE : MUD TYPE
MUDD.                      16.4 : MUD DENSITY
MUDV.                        50 : MUD VISCOSITY
PH  .                      11.5 : MUD PH
FL  .                       3.5 : FLUID LOSS
MUDS.                       PIT : SOURCE OF SAMPLE
RM  .OHMM                  0.98 : MUD RESISTIVITY
RMT .DEGF                    82 : RM TEMPERATURE
RMF .OHMM                  0.57 : MUD FILTRATE RESISTIVITY
RMFT.DEGF                    50 : RMF TEMPERATURE
RMC .OHMM                  2.48 : MUD CAKE RESISTIVITY
RMCT.DEGF                    50 : RMC TEMPERATURE
RMFS.                      MEAS : RMF SOURCE
RMCS.                      MEAS : RMC SOURCE
RMBH.OHMM                  0.34 : MUD RESISTIVITY AT BHT
BHT .DEGF                   235 : BOTTOM HOLE TEMPERATURE
TIMC.                           : TIME CIRCULATION STOPPED
TIML.                           : TIME LOGGER ON BOTTOM
TMAX.DEGF                   235 : MAXIMUM RECORDED TEMPERATURE
UNIT.                      2844 : EQUIPMENT NUMBER
BASE.                     HOUMA : BASE LOCATION
ENG .                  CROTHERS : RECORDED BY
WIT .                   HUBBARD : WITNESSED BY
~Curve Information -----------------------------------------
DEPT.F          :DEPTH
ASN.OHMM        :
CILD.MMHO       :
ILD.OHMM        :
SP.MV           :
~ASCII ------------------------------------------------------
# ...
6140.50000        0.79208     1524.72894        0.65347      -71.45091
6141.00000        0.78416     1510.55021        0.64990      -70.29507
6141.50000        0.77624     1496.37149        0.64634      -69.13923
6142.00000        0.76832     1482.19277        0.64257      -67.98339
6142.50000        0.76040     1468.01405        0.63901      -66.82755
6143.00000        0.75180     1453.83533        0.63545      -68.10587
6143.50000        0.74325     1439.65660        0.63188      -69.38420
6144.00000        0.73465     1425.47788        0.62832      -70.66253
6144.50000        0.72606     1446.83505        0.62475      -71.94086
6145.00000        0.71750     1468.11254        0.62099      -73.21919
6145.50000        0.70891     1489.46971        0.61743      -73.48959
6146.00000        0.70032     1510.82688        0.61386      -73.75600
6146.50000        0.69176     1532.10437        0.61030      -74.02640
6147.00000        0.68317     1553.46154        0.60673      -73.05780
6147.50000        0.67457     1574.81871        0.60297      -72.08522
6148.00000        0.66602     1596.09620        0.59941      -71.11662
6148.50000        0.65743     1617.45337        0.59584      -70.14404
6149.00000        0.66851     1610.36589        0.59228      -69.17544
6149.50000        0.67960     1603.27841        0.58871      -68.20286
6150.00000        0.70178     1596.19094        0.58139      -67.23426
6150.50000        0.71287     1589.10346        0.57782      -66.26168
6151.00000        0.70269     1582.01598        0.57426      -65.29309
6151.50000        0.69251     1574.92850        0.57426      -65.91805
6152.00000        0.68234     1567.84102        0.57426      -66.53904
6152.50000        0.67212     1560.75354        0.57426      -67.16400
6153.00000        0.66194     1553.66606        0.57426      -67.78498
6153.50000        0.65176     1546.57858        0.57426      -68.40995
6154.00000        0.64158     1561.72095        0.57426      -69.03093
6154.50000        0.64752     1576.86332        0.57426      -69.65590
6155.00000        0.65347     1592.00570        0.57426      -70.27688
6155.50000        0.65941     1607.14807        0.57426      -70.90185
6156.00000        0.66535     1622.21076        0.57426      -70.25993
6156.50000        0.67129     1637.35314        0.57426      -69.61403
6157.00000        0.67723     1652.49551        0.57426      -68.97212
6157.50000        0.68317     1667.63788        0.57426      -68.32622
6158.00000        0.68911     1682.78025        0.57426      -67.68430
6158.50000        0.69505     1676.88793        0.58693      -67.03840
6159.00000        0.70099     1670.99560        0.59980      -66.39648
6159.50000        0.70693     1665.10327        0.61248      -65.75058
6160.00000        0.71287     1659.21095        0.62515      -66.19627
6160.50000        0.71881     1635.39132        0.63782      -66.64196
6161.00000        0.72475     1611.57170        0.65069      -67.08765
6161.50000        0.73992     1587.75207        0.66337      -67.53334
6162.00000        0.75513     1563.93245        0.67604      -67.98302
6162.50000        0.77030     1540.11282        0.68891      -68.42871
6163.00000        0.78547     1516.29320        0.70158      -68.87440
6163.50000        0.80067     1492.47357        0.71426      -69.32009
6164.00000        0.81584     1468.65394        0.72693      -69.76578
6164.50000        0.80677     1444.83432        0.73980      -69.00833
6165.00000        0.79774     1421.01469        0.75248      -68.25088
6165.50000        0.78867     1397.19507        0.73861      -67.49343
6166.00000        0.77964     1373.37544        0.72475      -66.73598
6166.50000        0.77057     1349.55582        0.71089      -65.97853
6167.00000        0.76154     1369.55848        0.69703      -65.22506
6167.50000        0.75248     1389.56114        0.68317      -64.46761
6168.00000        0.74341     1409.56380        0.66931      -63.71016
6168.50000        0.73438     1429.56647        0.65545      -62.95271
6169.00000        0.72531     1449.56913        0.64158      -62.19526
6169.50000        0.71628     1469.57179        0.62772      -61.43781
6170.00000        0.70721     1489.57445        0.61386      -62.03888
6170.50000        0.69818     1509.57711        0.61762      -62.63994
6171.00000        0.68911     1529.57978        0.62139      -63.24100
6171.50000        0.69552     1549.58244        0.62495      -63.84207
6172.00000        0.70198     1569.58510        0.62871      -64.44313
6172.50000        0.70840     1589.58776        0.63248      -65.04419
6173.00000        0.71485     1580.50836        0.63624      -65.64526
6173.50000        0.72127     1571.34928        0.63980      -66.24632
6174.00000        0.72772     1562.26988        0.64356      -66.84738
6174.50000        0.73414     1553.11080        0.64733      -67.44845
6175.00000        0.73674     1544.03140        0.65109      -68.04951
6175.50000        0.74023     1534.95200        0.65465      -68.65057
6176.00000        0.74455     1525.79292        0.65842      -68.65405
6176.50000        0.73465     1516.71352        0.66218      -68.65753
6177.00000        0.72475     1507.63412        0.66594      -68.66100
6177.50000        0.71485     1498.47504        0.66950      -68.66448
6178.00000        0.70495     1489.39564        0.67327      -68.66796
6178.50000        0.71129     1480.23656        0.66970      -68.67143
6179.00000        0.71762     1471.15716        0.66634      -68.67491
6179.50000        0.72396     1467.89417        0.66277      -68.67839
6180.00000        0.73030     1464.71086        0.65921      -68.68186
6180.50000        0.73663     1461.44787        0.65584      -68.68534
6181.00000        0.74297     1458.18488        0.65228      -68.68882
6181.50000        0.74931     1455.00157        0.64871      -68.69229
6182.00000        0.75564     1451.73858        0.64535      -68.69577
6182.50000        0.76198     1448.47559        0.64178      -68.69925
6183.00000        0.76832     1445.29228        0.63842      -68.70272
6183.50000        0.75774     1442.02929        0.63485      -68.70620
6184.00000        0.74721     1438.76630        0.63129      -68.70968
6184.50000        0.73663     1435.58299        0.62792      -68.71315
6185.00000        0.72606     1432.32000        0.62436      -68.71663
6185.50000        0.71552     1469.61255        0.62079      -68.72011
6186.00000        0.70495     1506.82542        0.61743      -69.71956
6186.50000        0.69438     1544.11796        0.61386      -70.71902
6187.00000        0.68384     1581.41051        0.63624      -71.71847
6187.50000        0.67327     1618.62338        0.65842      -72.71792
6188.00000        0.72871     1655.91593        0.68079      -73.71738
6188.50000        0.78416     1617.03737        0.70297      -74.71683
6189.00000        0.87921     1578.15881        0.72535      -80.09859
6189.50000        0.97426     1539.28026        0.74752      -90.86210
6190.00000        1.06931     1500.40170        0.76990      -96.24386
6190.50000        1.16436     1461.60282        0.79208      -96.76126
6191.00000        1.25941     1422.72426        0.76792      -97.27468
6191.50000        1.18020     1383.84570        0.74376      -97.79208
6192.00000        1.10099     1344.96715        0.71941      -98.30550
6192.50000        1.02178     1306.08859        0.69525      -98.82290
6193.00000        0.94257     1407.12265        0.67109      -99.33632
6193.50000        0.90297     1508.07703        0.64693      -99.85372
6194.00000        0.86337     1609.11108        0.62257      -97.03260
6194.50000        0.82376     1710.14514        0.59842      -94.21148
6195.00000        0.78416     1811.09952        0.57426      -91.39037
6195.50000        0.77624     1912.13357        0.58079      -88.56925
6196.00000        0.76832     1870.06794        0.58752      -87.20912
6196.50000        0.76040     1828.08198        0.59406      -85.74814
