~Version ---------------------------------------------------
VERS. 2.0 : CWLS LOG ASCII STANDARD - VERSION 2.0
WRAP. NO  : One line per depth step
DLM . SPACE : Column Data Section Delimiter
~Well ------------------------------------------------------
STRT.F         1790 : START DEPTH
STOP.F        12744 : STOP DEPTH
STEP.F          0.5 : STEP
NULL.       -999.25 : NULL VALUE
COMP.            AMOCO PRODUCTION COMPANY : COMPANY
WELL.             155847-SL862-011-862-30 : WELL
FLD .                  VERMILION BLOCK 15 : FIELD
CNTY.                           VERMILION : COUNTY
STAT.                           LOUISIANA : STATE
CTRY.                                 USA : COUNTRY
SEC .                                     : SECTION
TWP .                                     : TOWNSHIP
RGE .                                     : RANGE
LOC .                                     : LOCATION
EKB .F                    44.35 : ELEVATION KELLY BUSHING
EDF .F                     44.5 : ELEVATION DERRICK FLOOR
EGL .F                          : ELEVATION GROUND LEVEL
PDAT.                       BHF : PERMANENT DATUM
EPD .                           : ELEVATION PERMANENT DATUM
APD .                        33 : ABOVE PERMANENT DATUM
LMF .                       RKB : LOG MEASURED FROM
DMF .                       RKB : DRILLING MEASURED FROM
API .            17705200940000 : API NUMBER
UWI .                           : UWI NUMBER
DIGC.                     NthDS : DIGITIZING COMPANY
~Params ----------------------------------------------------
SRVC.                     WELEX : LOGGING COMPANY
LOG .                       IEL : LOG
DATE.                1977-09-15 : RUN DATE
RUN .                         1 : RUN NUMBER
TDD .F                    11102 : TOTAL DEPTH DRILLER
TDL .F                    11116 : TOTAL DEPTH LOGGER
BOTL.F                    11110 : BOTTOM LOGGED INTERVAL
TOPL.F                     1790 : TOP LOGGED INTERVAL
CSGS.IN                  13.375 : CASING SIZE
CSGD.F                     1800 : CASING DRILLER
CSGL.F                     1790 : CASING LOGGER
BS  .IN                   12.25 : BIT SIZE
MUD .             LIGNO LIGNITE : MUD TYPE
MUDD.                      10.5 : MUD DENSITY
MUDV.                        43 : MUD VISCOSITY
PH  .                      10.5 : MUD PH
FL  .                       6.2 : FLUID LOSS
MUDS.                       PIT : SOURCE OF SAMPLE
RM  .OHMM                  1.08 : MUD RESISTIVITY
RMT .DEGF                    82 : RM TEMPERATURE
RMF .OHMM                  0.93 : MUD FILTRATE RESISTIVITY
RMFT.DEGF                    82 : RMF TEMPERATURE
RMC .OHMM                  1.37 : MUD CAKE RESISTIVITY
RMCT.DEGF                    82 : RMC TEMPERATURE
RMFS.                      MEAS : RMF SOURCE
RMCS.                      MEAS : RMC SOURCE
RMBH.OHMM                  0.46 : MUD RESISTIVITY AT BHT
BHT .DEGF                   194 : BOTTOM HOLE TEMPERATURE
TIMC.                           : TIME CIRCULATION STOPPED
TIML.                           : TIME LOGGER ON BOTTOM
TMAX.DEGF                   194 : MAXIMUM RECORDED TEMPERATURE
UNIT.                      2844 : EQUIPMENT NUMBER
BASE.                     HOUMA : BASE LOCATION
ENG .          KNOLES, MOBERLEY : RECORDED BY
WIT .               MR. HUBBARD : WITNESSED BY
#
SRVC.                     WELEX : LOGGING COMPANY
LOG .                       IEL : LOG
DATE.                1977-10-19 : RUN DATE
RUN .                         2 : RUN NUMBER
TDD .F                    11644 : TOTAL DEPTH DRILLER
TDL .F                    11647 : TOTAL DEPTH LOGGER
BOTL.F                    11641 : BOTTOM LOGGED INTERVAL
TOPL.F                    11110 : TOP LOGGED INTERVAL
CSGS.IN                   9.625 : CASING SIZE
CSGD.F                    11110 : CASING DRILLER
CSGL.F                    11110 : CASING LOGGER
BS  .IN                     8.5 : BIT SIZE
MUD .             LIGNO LIGNITE : MUD TYPE
MUDD.                        16 : MUD DENSITY
MUDV.                        43 : MUD VISCOSITY
PH  .                        11 : MUD PH
FL  .                      17.4 : FLUID LOSS
MUDS.                       PIT : SOURCE OF SAMPLE
RM  .OHMM                  1.30 : MUD RESISTIVITY
RMT .DEGF                    72 : RM TEMPERATURE
RMF .OHMM                  0.91 : MUD FILTRATE RESISTIVITY
RMFT.DEGF                    72 : RMF TEMPERATURE
RMC .OHMM                  2.64 : MUD CAKE RESISTIVITY
RMCT.DEGF                    72 : RMC TEMPERATURE
RMFS.                      MEAS : RMF SOURCE
RMCS.                      MEAS : RMC SOURCE
RMBH.OHMM                  0.44 : MUD RESISTIVITY AT BHT
BHT .DEGF                  2189 : BOTTOM HOLE TEMPERATURE
TIMC.                           : TIME CIRCULATION STOPPED
TIML.                           : TIME LOGGER ON BOTTOM
TMAX.DEGF                   218 : MAXIMUM RECORDED TEMPERATURE
UNIT.                      2844 : EQUIPMENT NUMBER
BASE.                     HOUMA : BASE LOCATION
ENG .                    KNOLES : RECORDED BY
WIT .        HUBBARD, HENDERSON : WITNESSED BY
#
SRVC.                     WELEX : LOGGING COMPANY
LOG .                       IEL : LOG
DATE.                1977-12-07 : RUN DATE
RUN .                         3 : RUN NUMBER
TDD .F                    12749 : TOTAL DEPTH DRILLER
TDL .F                    12750 : TOTAL DEPTH LOGGER
BOTL.F                    12744 : BOTTOM LOGGED INTERVAL
TOPL.F                    11618 : TOP LOGGED INTERVAL
CSGS.IN                   7.625 : CASING SIZE
CSGD.F                    11626 : CASING DRILLER
CSGL.F                    11618 : CASING LOGGER
BS  .IN                     6.5 : BIT SIZE
MUD .             LIGNO LIGNITE : MUD TYPE
MUDD.                      16.4 : MUD DENSITY
MUDV.                        50 : MUD VISCOSITY
PH  .                      11.5 : MUD PH
FL  .                       3.5 : FLUID LOSS
MUDS.                       PIT : SOURCE OF SAMPLE
RM  .OHMM                  0.98 : MUD RESISTIVITY
RMT .DEGF                    82 : RM TEMPERATURE
RMF .OHMM                  0.57 : MUD FILTRATE RESISTIVITY
RMFT.DEGF                    50 : RMF TEMPERATURE
RMC .OHMM                  2.48 : MUD CAKE RESISTIVITY
RMCT.DEGF                    50 : RMC TEMPERATURE
RMFS.                      MEAS : RMF SOURCE
RMCS.                      MEAS : RMC SOURCE
RMBH.OHMM                  0.34 : MUD RESISTIVITY AT BHT
BHT .DEGF                   235 : BOTTOM HOLE TEMPERATURE
TIMC.                           : TIME CIRCULATION STOPPED
TIML.                           : TIME LOGGER ON BOTTOM
TMAX.DEGF                   235 : MAXIMUM RECORDED TEMPERATURE
UNIT.                      2844 : EQUIPMENT NUMBER
BASE.                     HOUMA : BASE LOCATION
ENG .                  CROTHERS : RECORDED BY
WIT .                   HUBBARD : WITNESSED BY
~Curve Information -----------------------------------------
DEPT.F          :DEPTH
ASN.OHMM        :
CILD.MMHO       :
ILD.OHMM        :
SP.MV           :
~ASCII ------------------------------------------------------
# ...
3993.50000        0.63458     1965.45807        0.55874      -74.17683
3994.00000        0.62998     1989.10784        0.54676      -74.87817
3994.50000        0.62542     2012.67747        0.53477      -80.92584
3995.00000        0.62082     2036.32725        0.52279      -86.96952
3995.50000        0.67682     2059.97702        0.51081      -93.01718
3996.00000        0.73281     2000.34482        0.52927     -105.10852
3996.50000        0.78880     1940.63245        0.54774     -111.15619
3997.00000        0.84479     1881.00025        0.56601     -111.08068
3997.50000        1.25670     1821.28788        0.58448     -111.00518
3998.00000        1.26786     1761.65567        0.60295     -110.92967
3998.50000        1.27898     1701.94331        0.62141     -110.85417
3999.00000        1.29010     1642.31110        0.63969     -110.77866
3999.50000        1.30126     1582.59874        0.65815     -105.69804
4000.00000        0.89980     1522.20929        0.67662     -100.92282
4000.50000        0.88142     1462.49692        0.69921      -90.63513
4001.00000        0.85771     1402.86472        0.71759      -80.77929
4001.50000        0.83399     1432.36587        0.73617      -70.92344
4002.00000        0.81028     1461.78688        0.75474      -71.83992
4002.50000        0.83162     1491.28804        0.77332      -72.75240
4003.00000        0.85296     1439.27064        0.79170      -73.66888
4003.50000        0.87431     1387.25324        0.81028      -74.58137
4004.00000        0.89565     1446.89302        0.77866      -75.49784
4004.50000        0.91700     1506.53280        0.74704      -76.41033
4005.00000        0.90514     1566.17258        0.71541      -77.32680
4005.50000        0.89328     1625.73221        0.68379      -80.57382
4006.00000        0.88142     1685.37199        0.65217      -83.82483
4006.50000        0.86957     1745.01177        0.62055      -87.07185
4007.00000        0.85771     1804.65155        0.58893      -90.31887
4007.50000        0.84585     1870.46333        0.55731      -93.56589
4008.00000        0.83399     1936.27512        0.52569      -96.81689
4008.50000        0.83597     2067.89869        0.49407     -100.06392
4009.00000        0.83794     2133.71047        0.51166      -95.60618
4009.50000        0.83992     2048.26806        0.52925      -91.14845
4010.00000        0.84190     2006.08723        0.54684      -86.69072
4010.50000        0.81949     1962.90581        0.56443      -82.23298
4011.00000        0.79711     1877.46340        0.58182      -77.77525
4011.50000        0.77470     1792.02099        0.59941      -77.69974
4012.00000        0.75229     1706.65874        0.61700      -77.62424
4012.50000        0.72992     1621.21633        0.63458      -77.54873
4013.00000        0.70751     1686.78765        0.65217      -77.47323
4013.50000        0.68707     1752.27881        0.63814      -77.39772
4014.00000        0.66668     1817.85012        0.62391      -77.94370
4014.50000        0.64624     1883.42144        0.60988      -78.48569
4015.00000        0.62581     2014.48392        0.59565      -79.03166
4015.50000        0.60541     1985.70423        0.58162      -79.57764
4016.00000        0.58498     1959.34044        0.56739      -80.12361
4016.50000        0.61490     1904.19697        0.55336      -80.66560
4017.00000        0.64482     1849.05349        0.56759      -81.21158
4017.50000        0.67474     1793.91001        0.58182      -81.75755
4018.00000        0.70470     1738.84669        0.59624      -82.29955
4018.50000        0.73462     1683.70321        0.61047      -82.84552
4019.00000        0.76455     1628.55974        0.62470      -83.39150
4019.50000        0.79447     1573.41626        0.63893      -83.93747
4020.00000        0.77569     1518.27278        0.65336      -84.47946
4020.50000        0.75692     1547.21285        0.66759      -85.02544
4021.00000        0.73814     1576.15292        0.68182      -84.08942
4021.50000        0.71937     1605.09299        0.69605      -83.14942
4022.00000        0.73411     1634.03306        0.71028      -82.21341
4022.50000        0.74881     1662.97312        0.72470      -81.27739
4023.00000        0.76356     1584.90506        0.73893      -80.33739
4023.50000        0.77830     1506.83699        0.75316      -77.32181
4024.00000        0.79304     1428.76893        0.76739      -76.05115
4024.50000        0.80775     1350.70086        0.78182      -74.78049
4025.00000        0.82249     1432.94461        0.79605      -73.50984
4025.50000        0.83723     1515.18835        0.81028      -77.69704
4026.00000        0.85198     1597.43210        0.77648      -81.88425
4026.50000        0.86668     1679.67584        0.74249      -86.07146
4027.00000        0.88142     1727.85333        0.70870      -90.25867
4027.50000        0.83664     1776.03081        0.67470      -94.44588
4028.00000        0.79182     1824.20830        0.64091      -98.63309
4028.50000        0.74704     1920.56327        0.60692      -92.58182
4029.00000        0.71016     1968.74076        0.57312      -86.53054
4029.50000        0.67324     1879.58295        0.58794      -80.47927
4030.00000        0.63636     1797.85215        0.60277      -74.42800
4030.50000        0.75099     1626.88339        0.61759      -68.37673
4031.00000        0.86561     1455.99479        0.63241      -72.44442
4031.50000        0.86561     1478.36207        0.64723      -76.51212
4032.00000        0.86561     1500.72935        0.66206      -80.57981
4032.50000        0.86561     1523.01648        0.67688      -84.64750
4033.00000        0.86561     1545.38377        0.69170      -88.71520
4033.50000        0.83992     1567.75105        0.68182      -85.23350
4034.00000        0.81423     1590.11833        0.67194      -81.75181
4034.50000        0.78854     1612.40546        0.66206      -78.27012
4035.00000        0.76285     1634.77275        0.65217      -74.78843
4035.50000        0.75692     1657.14003        0.63004      -81.40578
4036.00000        0.75099     1879.09931        0.60771      -88.02314
4036.50000        0.74506     1990.03886        0.58557      -94.64049
4037.00000        0.73913     2100.97842        0.56324     -107.87520
4037.50000        0.73814     2211.99814        0.54111     -107.34952
4038.00000        0.73715     2322.93770        0.51877     -106.81986
4038.50000        0.73617     2341.69797        0.49664     -106.29418
4039.00000        0.73518     2360.53839        0.47431     -105.57968
4039.50000        0.75889     2379.29866        0.47826     -104.90400
4040.00000        0.78261     2297.46327        0.48221     -103.51383
4040.50000        0.82688     2215.62787        0.48617     -102.12366
4041.00000        0.87115     2133.71232        0.49012     -100.73348
4041.50000        0.91541     2051.87693        0.49407      -99.34331
4042.00000        0.95968     1970.04154        0.51957      -97.95313
4042.50000        1.00395     1888.20614        0.54486      -96.56296
4043.00000        1.04447     1806.29059        0.57036      -95.17279
4043.50000        1.08498     1764.56048        0.59565      -93.58342
4044.00000        1.12549     1724.45520        0.62115      -91.99406
4044.50000        1.16601     1642.61981        0.64644      -90.40469
4045.00000        1.13834     1579.94168        0.67194      -88.81533
4045.50000        1.11067     1517.18339        0.69743      -87.22596
4046.00000        1.08300     1454.50526        0.72273      -85.63659
4046.50000        1.05534     1391.82712        0.74822      -84.04723
4047.00000        1.02767     1329.06884        0.77352      -82.45786
4047.50000        0.89130     1266.39070        0.79901      -80.86850
4048.00000        0.88142     1333.80561        0.82431      -85.02782
4048.50000        0.87154     1401.22051        0.84980      -89.18714
4049.00000        0.86166     1468.63541        0.78775      -93.34646
4049.50000        0.85178     1536.05032        0.72549      -97.50180
