~Version ---------------------------------------------------
VERS. 2.0 : CWLS LOG ASCII STANDARD - VERSION 2.0
WRAP. NO  : One line per depth step
DLM . SPACE : Column Data Section Delimiter
~Well ------------------------------------------------------
STRT.F         1790 : START DEPTH
STOP.F        12744 : STOP DEPTH
STEP.F          0.5 : STEP
NULL.       -999.25 : NULL VALUE
COMP.            AMOCO PRODUCTION COMPANY : COMPANY
WELL.             155847-SL862-011-862-30 : WELL
FLD .                  VERMILION BLOCK 15 : FIELD
CNTY.                           VERMILION : COUNTY
STAT.                           LOUISIANA : STATE
CTRY.                                 USA : COUNTRY
SEC .                                     : SECTION
TWP .                                     : TOWNSHIP
RGE .                                     : RANGE
LOC .                                     : LOCATION
EKB .F                    44.35 : ELEVATION KELLY BUSHING
EDF .F                     44.5 : ELEVATION DERRICK FLOOR
EGL .F                          : ELEVATION GROUND LEVEL
PDAT.                       BHF : PERMANENT DATUM
EPD .                           : ELEVATION PERMANENT DATUM
APD .                        33 : ABOVE PERMANENT DATUM
LMF .                       RKB : LOG MEASURED FROM
DMF .                       RKB : DRILLING MEASURED FROM
API .            17705200940000 : API NUMBER
UWI .                           : UWI NUMBER
DIGC.                     NthDS : DIGITIZING COMPANY
~Params ----------------------------------------------------
SRVC.                     WELEX : LOGGING COMPANY
LOG .                       IEL : LOG
DATE.                1977-09-15 : RUN DATE
RUN .                         1 : RUN NUMBER
TDD .F                    11102 : TOTAL DEPTH DRILLER
TDL .F                    11116 : TOTAL DEPTH LOGGER
BOTL.F                    11110 : BOTTOM LOGGED INTERVAL
TOPL.F                     1790 : TOP LOGGED INTERVAL
CSGS.IN                  13.375 : CASING SIZE
CSGD.F                     1800 : CASING DRILLER
CSGL.F                     1790 : CASING LOGGER
BS  .IN                   12.25 : BIT SIZE
MUD .             LIGNO LIGNITE : MUD TYPE
MUDD.                      10.5 : MUD DENSITY
MUDV.                        43 : MUD VISCOSITY
PH  .                      10.5 : MUD PH
FL  .                       6.2 : FLUID LOSS
MUDS.                       PIT : SOURCE OF SAMPLE
RM  .OHMM                  1.08 : MUD RESISTIVITY
RMT .DEGF                    82 : RM TEMPERATURE
RMF .OHMM                  0.93 : MUD FILTRATE RESISTIVITY
RMFT.DEGF                    82 : RMF TEMPERATURE
RMC .OHMM                  1.37 : MUD CAKE RESISTIVITY
RMCT.DEGF                    82 : RMC TEMPERATURE
RMFS.                      MEAS : RMF SOURCE
RMCS.                      MEAS : RMC SOURCE
RMBH.OHMM                  0.46 : MUD RESISTIVITY AT BHT
BHT .DEGF                   194 : BOTTOM HOLE TEMPERATURE
TIMC.                           : TIME CIRCULATION STOPPED
TIML.                           : TIME LOGGER ON BOTTOM
TMAX.DEGF                   194 : MAXIMUM RECORDED TEMPERATURE
UNIT.                      2844 : EQUIPMENT NUMBER
BASE.                     HOUMA : BASE LOCATION
ENG .          KNOLES, MOBERLEY : RECORDED BY
WIT .               MR. HUBBARD : WITNESSED BY
#
SRVC.                     WELEX : LOGGING COMPANY
LOG .                       IEL : LOG
DATE.                1977-10-19 : RUN DATE
RUN .                         2 : RUN NUMBER
TDD .F                    11644 : TOTAL DEPTH DRILLER
TDL .F                    11647 : TOTAL DEPTH LOGGER
BOTL.F                    11641 : BOTTOM LOGGED INTERVAL
TOPL.F                    11110 : TOP LOGGED INTERVAL
CSGS.IN                   9.625 : CASING SIZE
CSGD.F                    11110 : CASING DRILLER
CSGL.F                    11110 : CASING LOGGER
BS  .IN                     8.5 : BIT SIZE
MUD .             LIGNO LIGNITE : MUD TYPE
MUDD.                        16 : MUD DENSITY
MUDV.                        43 : MUD VISCOSITY
PH  .                        11 : MUD PH
FL  .                      17.4 : FLUID LOSS
MUDS.                       PIT : SOURCE OF SAMPLE
RM  .OHMM                  1.30 : MUD RESISTIVITY
RMT .DEGF                    72 : RM TEMPERATURE
RMF .OHMM                  0.91 : MUD FILTRATE RESISTIVITY
RMFT.DEGF                    72 : RMF TEMPERATURE
RMC .OHMM                  2.64 : MUD CAKE RESISTIVITY
RMCT.DEGF                    72 : RMC TEMPERATURE
RMFS.                      MEAS : RMF SOURCE
RMCS.                      MEAS : RMC SOURCE
RMBH.OHMM                  0.44 : MUD RESISTIVITY AT BHT
BHT .DEGF                  2189 : BOTTOM HOLE TEMPERATURE
TIMC.                           : TIME CIRCULATION STOPPED
TIML.                           : TIME LOGGER ON BOTTOM
TMAX.DEGF                   218 : MAXIMUM RECORDED TEMPERATURE
UNIT.                      2844 : EQUIPMENT NUMBER
BASE.                     HOUMA : BASE LOCATION
ENG .                    KNOLES : RECORDED BY
WIT .        HUBBARD, HENDERSON : WITNESSED BY
#
SRVC.                     WELEX : LOGGING COMPANY
LOG .                       IEL : LOG
DATE.                1977-12-07 : RUN DATE
RUN .                         3 : RUN NUMBER
TDD .F                    12749 : TOTAL DEPTH DRILLER
TDL .F                    12750 : TOTAL DEPTH LOGGER
BOTL.F                    12744 : BOTTOM LOGGED INTERVAL
TOPL.F                    11618 : TOP LOGGED INTERVAL
CSGS.IN                   7.625 : CASING SIZE
CSGD.F                    11626 : CASING DRILLER
CSGL.F                    11618 : CASING LOGGER
BS  .IN                     6.5 : BIT SIZE
MUD .             LIGNO LIGNITE : MUD TYPE
MUDD.                      16.4 : MUD DENSITY
MUDV.                        50 : MUD VISCOSITY
PH  .                      11.5 : MUD PH
FL  .                       3.5 : FLUID LOSS
MUDS.                       PIT : SOURCE OF SAMPLE
RM  .OHMM                  0.98 : MUD RESISTIVITY
RMT .DEGF                    82 : RM TEMPERATURE
RMF .OHMM                  0.57 : MUD FILTRATE RESISTIVITY
RMFT.DEGF                    50 : RMF TEMPERATURE
RMC .OHMM                  2.48 : MUD CAKE RESISTIVITY
RMCT.DEGF                    50 : RMC TEMPERATURE
RMFS.                      MEAS : RMF SOURCE
RMCS.                      MEAS : RMC SOURCE
RMBH.OHMM                  0.34 : MUD RESISTIVITY AT BHT
BHT .DEGF                   235 : BOTTOM HOLE TEMPERATURE
TIMC.                           : TIME CIRCULATION STOPPED
TIML.                           : TIME LOGGER ON BOTTOM
TMAX.DEGF                   235 : MAXIMUM RECORDED TEMPERATURE
UNIT.                      2844 : EQUIPMENT NUMBER
BASE.                     HOUMA : BASE LOCATION
ENG .                  CROTHERS : RECORDED BY
WIT .                   HUBBARD : WITNESSED BY
~Curve Information -----------------------------------------
DEPT.F          :DEPTH
ASN.OHMM        :
CILD.MMHO       :
ILD.OHMM        :
SP.MV           :
~ASCII ------------------------------------------------------
# ...
12670.50000        2.55211      658.97491        1.59877      -55.00181
12671.00000        2.70105      643.94306        1.56228      -56.09997
12671.50000        2.85020      628.83153        1.52560      -57.19813
12672.00000        2.99914      613.79968        1.59108      -58.29331
12672.50000        3.14809      598.68814        1.65676      -59.39147
12673.00000        3.29703      583.65629        1.72224      -60.48963
12673.50000        3.36389      568.54476        1.78772      -61.58481
12674.00000        3.43075      553.51291        1.85340      -62.68297
12674.50000        3.49761      538.40138        1.91888      -63.73034
12675.00000        3.56447      523.36952        1.98437      -64.77770
12675.50000        3.63133      508.25799        2.05004      -65.82507
12676.00000        4.11689      493.22614        2.11553      -66.87244
12676.50000        4.60225      478.11461        2.15699      -74.19462
12677.00000        5.08781      463.08276        2.19846      -81.51680
12677.50000        5.20585      447.97122        2.23993      -96.16116
12678.00000        5.32389      432.93937        2.28139      -99.89773
12678.50000        5.44193      417.82784        2.32306     -103.63430
12679.00000        5.55997      402.79599        2.36452     -107.37087
12679.50000        5.49101      409.67635        2.40599     -111.10744
12680.00000        5.42204      416.47703        2.44745     -108.17180
12680.50000        5.35308      423.35739        2.48892     -105.23317
12681.00000        5.28411      430.23775        2.46641     -102.29752
12681.50000        5.21514      437.11811        2.44371      -99.36187
12682.00000        5.14618      443.91879        2.42120      -96.42324
12682.50000        5.07721      450.79915        2.39869      -93.48760
12683.00000        5.00825      457.67951        2.37618      -92.79295
12683.50000        4.96704      464.48019        2.35347      -92.09533
12684.00000        4.92583      471.36055        2.33096      -91.40069
12684.50000        4.88462      478.24091        2.33089      -90.70604
12685.00000        4.84341      485.12127        2.33082      -90.00842
12685.50000        4.80220      491.92195        2.33075      -89.31377
12686.00000        4.76079      498.80231        2.33069      -88.61913
12686.50000        4.71958      490.30428        2.33062      -87.92150
12687.00000        4.67837      481.80625        2.33055      -87.22686
12687.50000        4.63716      473.30822        2.35725      -86.53222
12688.00000        4.59595      464.73051        2.38376      -85.83459
12688.50000        4.55474      456.23249        2.41046      -85.13995
12689.00000        4.44975      447.73446        2.43716      -90.66933
12689.50000        4.34456      439.23643        2.46387      -96.19870
12690.00000        4.23957      430.73840        2.49037      -97.29687
12690.50000        4.13458      422.24037        2.51707      -98.39204
12691.00000        4.02940      413.74234        2.54378      -99.49021
12691.50000        3.92441      405.16463        2.57028     -100.58837
12692.00000        3.81942      396.66661        2.59699     -101.68354
12692.50000        3.71423      388.16858        2.62369     -102.78171
12693.00000        3.60924      379.67055        2.65039     -100.39287
12693.50000        3.67394      384.24017        2.67690      -98.00402
12694.00000        3.73844      388.80978        2.70360      -95.61518
12694.50000        3.80313      393.37940        2.68227      -93.22634
12695.00000        3.86763      398.02870        2.66075      -90.83750
12695.50000        3.93232      402.59832        2.63942      -88.44866
12696.00000        3.99682      407.16794        2.59656      -89.34663
12696.50000        4.06152      411.73755        2.57524      -90.24460
12697.00000        4.08113      416.30717        2.55391      -91.14256
12697.50000        4.10075      420.87679        2.53238      -92.04053
12698.00000        4.12036      425.44641        2.51105      -92.93850
12698.50000        4.13998      430.09571        2.48973      -93.83646
12699.00000        4.15960      434.66532        2.46820      -90.17772
12699.50000        4.01386      439.23494        2.44687      -86.51898
12700.00000        3.86812      443.80456        2.40434      -83.14180
12700.50000        3.69899      434.30324        2.39259      -79.48306
12701.00000        3.55238      435.77410        2.38103      -75.82431
12701.50000        3.40578      437.32511        2.36948      -72.16557
12702.00000        3.49066      438.79597        2.35773      -68.50683
12702.50000        3.57534      440.26683        2.34617      -64.84808
12703.00000        3.66023      441.73769        2.33462      -68.03785
12703.50000        3.74491      443.20854        2.32287      -71.22463
12704.00000        3.82979      444.67940        2.31131      -74.41440
12704.50000        3.91447      446.23042        2.29976      -72.02556
12705.00000        3.99935      447.70128        2.28801      -69.63672
12705.50000        3.88047      449.17214        2.27645      -67.24788
12706.00000        3.76159      444.79133        2.27638      -64.85904
12706.50000        3.87697      440.41052        2.27631      -66.95220
12707.00000        3.99254      436.02971        2.27625      -69.04537
12707.50000        4.10792      431.64890        2.27618      -71.13854
12708.00000        4.22329      427.26809        2.27611      -73.23171
12708.50000        4.33887      422.88728        2.30634      -77.16848
12709.00000        4.45424      418.50648        2.33676      -81.10226
12709.50000        4.56962      414.12567        2.36699      -85.03903
12710.00000        4.68519      409.74486        2.39722      -88.97580
12710.50000        4.80057      405.36405        2.42764      -92.90958
12711.00000        4.91594      400.98324        2.45787      -96.84635
12711.50000        5.03152      396.60243        2.48810      -95.10590
12712.00000        5.14689      392.22163        2.51852      -93.36247
12712.50000        5.04781      387.84082        2.54875      -91.62203
12713.00000        4.94874      383.46001        2.57898      -89.88159
12713.50000        4.84966      379.07920        2.60940      -88.13816
12714.00000        4.75058      374.69839        2.63963      -86.39771
12714.50000        4.65150      370.31758        2.66986      -84.09552
12715.00000        4.55242      365.93677        2.70029      -81.79035
12715.50000        4.45334      361.55597        2.73051      -79.48816
12716.00000        4.35427      366.15306        2.73044      -77.18298
12716.50000        4.37400      370.75015        2.73037      -74.88080
12717.00000        4.39373      375.34724        2.73031      -72.57562
12717.50000        4.41346      380.02449        2.73024      -70.27343
12718.00000        4.43320      384.62158        2.69056      -73.56180
12718.50000        4.36877      389.21867        2.65089      -76.85017
12719.00000        4.30435      393.81576        2.61122      -80.13854
12719.50000        4.23992      398.41285        2.57155      -83.42692
12720.00000        4.17550      403.00994        2.53187      -83.32988
12720.50000        4.11107      407.60703        2.49220      -83.22985
12721.00000        4.04665      412.28428        2.45253      -83.13281
12721.50000        3.98222      416.88137        2.41285      -79.24997
12722.00000        3.91780      421.47846        2.37318      -75.36712
12722.50000        3.85337      426.07555        2.33351      -71.48428
12723.00000        3.78894      427.70673        2.34334      -67.60144
12723.50000        3.72452      429.33791        2.35317      -65.58198
12724.00000        3.66009      430.96908        2.36300      -63.71859
12724.50000        3.74913      432.60026        2.37284      -63.57076
12725.00000        3.83817      434.23144        2.38267      -63.42292
12725.50000        3.77533      435.86262        2.39250      -63.27508
12726.00000        3.71269      437.49379        2.37659      -63.12725
