~Version ---------------------------------------------------
VERS. 2.0 : CWLS LOG ASCII STANDARD - VERSION 2.0
WRAP. NO  : One line per depth step
DLM . SPACE : Column Data Section Delimiter
~Well ------------------------------------------------------
STRT.F         1790 : START DEPTH
STOP.F        12744 : STOP DEPTH
STEP.F          0.5 : STEP
NULL.       -999.25 : NULL VALUE
COMP.            AMOCO PRODUCTION COMPANY : COMPANY
WELL.             155847-SL862-011-862-30 : WELL
FLD .                  VERMILION BLOCK 15 : FIELD
CNTY.                           VERMILION : COUNTY
STAT.                           LOUISIANA : STATE
CTRY.                                 USA : COUNTRY
SEC .                                     : SECTION
TWP .                                     : TOWNSHIP
RGE .                                     : RANGE
LOC .                                     : LOCATION
EKB .F                    44.35 : ELEVATION KELLY BUSHING
EDF .F                     44.5 : ELEVATION DERRICK FLOOR
EGL .F                          : ELEVATION GROUND LEVEL
PDAT.                       BHF : PERMANENT DATUM
EPD .                           : ELEVATION PERMANENT DATUM
APD .                        33 : ABOVE PERMANENT DATUM
LMF .                       RKB : LOG MEASURED FROM
DMF .                       RKB : DRILLING MEASURED FROM
API .            17705200940000 : API NUMBER
UWI .                           : UWI NUMBER
DIGC.                     NthDS : DIGITIZING COMPANY
~Params ----------------------------------------------------
SRVC.                     WELEX : LOGGING COMPANY
LOG .                       IEL : LOG
DATE.                1977-09-15 : RUN DATE
RUN .                         1 : RUN NUMBER
TDD .F                    11102 : TOTAL DEPTH DRILLER
TDL .F                    11116 : TOTAL DEPTH LOGGER
BOTL.F                    11110 : BOTTOM LOGGED INTERVAL
TOPL.F                     1790 : TOP LOGGED INTERVAL
CSGS.IN                  13.375 : CASING SIZE
CSGD.F                     1800 : CASING DRILLER
CSGL.F                     1790 : CASING LOGGER
BS  .IN                   12.25 : BIT SIZE
MUD .             LIGNO LIGNITE : MUD TYPE
MUDD.                      10.5 : MUD DENSITY
MUDV.                        43 : MUD VISCOSITY
PH  .                      10.5 : MUD PH
FL  .                       6.2 : FLUID LOSS
MUDS.                       PIT : SOURCE OF SAMPLE
RM  .OHMM                  1.08 : MUD RESISTIVITY
RMT .DEGF                    82 : RM TEMPERATURE
RMF .OHMM                  0.93 : MUD FILTRATE RESISTIVITY
RMFT.DEGF                    82 : RMF TEMPERATURE
RMC .OHMM                  1.37 : MUD CAKE RESISTIVITY
RMCT.DEGF                    82 : RMC TEMPERATURE
RMFS.                      MEAS : RMF SOURCE
RMCS.                      MEAS : RMC SOURCE
RMBH.OHMM                  0.46 : MUD RESISTIVITY AT BHT
BHT .DEGF                   194 : BOTTOM HOLE TEMPERATURE
TIMC.                           : TIME CIRCULATION STOPPED
TIML.                           : TIME LOGGER ON BOTTOM
TMAX.DEGF                   194 : MAXIMUM RECORDED TEMPERATURE
UNIT.                      2844 : EQUIPMENT NUMBER
BASE.                     HOUMA : BASE LOCATION
ENG .          KNOLES, MOBERLEY : RECORDED BY
WIT .               MR. HUBBARD : WITNESSED BY
#
SRVC.                     WELEX : LOGGING COMPANY
LOG .                       IEL : LOG
DATE.                1977-10-19 : RUN DATE
RUN .                         2 : RUN NUMBER
TDD .F                    11644 : TOTAL DEPTH DRILLER
TDL .F                    11647 : TOTAL DEPTH LOGGER
BOTL.F                    11641 : BOTTOM LOGGED INTERVAL
TOPL.F                    11110 : TOP LOGGED INTERVAL
CSGS.IN                   9.625 : CASING SIZE
CSGD.F                    11110 : CASING DRILLER
CSGL.F                    11110 : CASING LOGGER
BS  .IN                     8.5 : BIT SIZE
MUD .             LIGNO LIGNITE : MUD TYPE
MUDD.                        16 : MUD DENSITY
MUDV.                        43 : MUD VISCOSITY
PH  .                        11 : MUD PH
FL  .                      17.4 : FLUID LOSS
MUDS.                       PIT : SOURCE OF SAMPLE
RM  .OHMM                  1.30 : MUD RESISTIVITY
RMT .DEGF                    72 : RM TEMPERATURE
RMF .OHMM                  0.91 : MUD FILTRATE RESISTIVITY
RMFT.DEGF                    72 : RMF TEMPERATURE
RMC .OHMM                  2.64 : MUD CAKE RESISTIVITY
RMCT.DEGF                    72 : RMC TEMPERATURE
RMFS.                      MEAS : RMF SOURCE
RMCS.                      MEAS : RMC SOURCE
RMBH.OHMM                  0.44 : MUD RESISTIVITY AT BHT
BHT .DEGF                  2189 : BOTTOM HOLE TEMPERATURE
TIMC.                           : TIME CIRCULATION STOPPED
TIML.                           : TIME LOGGER ON BOTTOM
TMAX.DEGF                   218 : MAXIMUM RECORDED TEMPERATURE
UNIT.                      2844 : EQUIPMENT NUMBER
BASE.                     HOUMA : BASE LOCATION
ENG .                    KNOLES : RECORDED BY
WIT .        HUBBARD, HENDERSON : WITNESSED BY
#
SRVC.                     WELEX : LOGGING COMPANY
LOG .                       IEL : LOG
DATE.                1977-12-07 : RUN DATE
RUN .                         3 : RUN NUMBER
TDD .F                    12749 : TOTAL DEPTH DRILLER
TDL .F                    12750 : TOTAL DEPTH LOGGER
BOTL.F                    12744 : BOTTOM LOGGED INTERVAL
TOPL.F                    11618 : TOP LOGGED INTERVAL
CSGS.IN                   7.625 : CASING SIZE
CSGD.F                    11626 : CASING DRILLER
CSGL.F                    11618 : CASING LOGGER
BS  .IN                     6.5 : BIT SIZE
MUD .             LIGNO LIGNITE : MUD TYPE
MUDD.                      16.4 : MUD DENSITY
MUDV.                        50 : MUD VISCOSITY
PH  .                      11.5 : MUD PH
FL  .                       3.5 : FLUID LOSS
MUDS.                       PIT : SOURCE OF SAMPLE
RM  .OHMM                  0.98 : MUD RESISTIVITY
RMT .DEGF                    82 : RM TEMPERATURE
RMF .OHMM                  0.57 : MUD FILTRATE RESISTIVITY
RMFT.DEGF                    50 : RMF TEMPERATURE
RMC .OHMM                  2.48 : MUD CAKE RESISTIVITY
RMCT.DEGF                    50 : RMC TEMPERATURE
RMFS.                      MEAS : RMF SOURCE
RMCS.                      MEAS : RMC SOURCE
RMBH.OHMM                  0.34 : MUD RESISTIVITY AT BHT
BHT .DEGF                   235 : BOTTOM HOLE TEMPERATURE
TIMC.                           : TIME CIRCULATION STOPPED
TIML.                           : TIME LOGGER ON BOTTOM
TMAX.DEGF                   235 : MAXIMUM RECORDED TEMPERATURE
UNIT.                      2844 : EQUIPMENT NUMBER
BASE.                     HOUMA : BASE LOCATION
ENG .                  CROTHERS : RECORDED BY
WIT .                   HUBBARD : WITNESSED BY
~Curve Information -----------------------------------------
DEPT.F          :DEPTH
ASN.OHMM        :
CILD.MMHO       :
ILD.OHMM        :
SP.MV           :
~ASCII ------------------------------------------------------
# ...
8344.00000        0.94466     1164.83296        0.89506      -52.57190
8344.50000        0.95206     1164.86094        0.90336      -52.49829
8345.00000        0.95949     1164.88892        0.91186      -52.42866
8345.50000        0.96688     1164.91690        0.92036      -52.35505
8346.00000        0.97431     1164.94489        0.92885      -52.28144
8346.50000        0.98170     1172.98885        0.92292      -52.20783
8347.00000        0.98913     1181.03281        0.91719      -52.13820
8347.50000        0.99652     1189.07677        0.91126      -52.06459
8348.00000        1.00395     1197.12074        0.90534      -51.99098
8348.50000        0.98352     1205.16470        0.89960      -52.34765
8349.00000        0.96312     1213.20866        0.89368      -52.70829
8349.50000        0.94269     1221.25262        0.88794      -53.06496
8350.00000        0.90186     1229.29658        0.87609      -53.42560
8350.50000        0.88142     1237.34055        0.87036      -53.78227
8351.00000        0.89668     1245.38451        0.86443      -54.14291
8351.50000        0.91190     1253.42847        0.85850      -54.49958
8352.00000        0.92715     1261.47243        0.85277      -54.86022
8352.50000        0.94241     1269.51640        0.84684      -55.21689
8353.00000        0.95767     1277.56036        0.84111      -55.57753
8353.50000        0.97289     1285.60432        0.83518      -55.93419
8354.00000        0.98814     1293.64828        0.82925      -56.29484
8354.50000        0.96245     1301.69225        0.82352      -56.65150
8355.00000        0.93676     1309.73621        0.81759      -57.01215
8355.50000        0.91107     1317.78017        0.81166      -57.36881
8356.00000        0.88538     1325.82413        0.80593      -57.72946
8356.50000        0.90154     1333.86810        0.80000      -58.08612
8357.00000        0.91771     1341.91206        0.79427      -58.44677
8357.50000        0.93387     1349.95602        0.78834      -58.80343
8358.00000        0.95004     1357.99998        0.78241      -58.61429
8358.50000        0.96621     1338.54913        0.77668      -58.42912
8359.00000        0.98241     1319.09828        0.77075      -58.23998
8359.50000        0.99858     1299.64742        0.79289      -58.05482
8360.00000        1.01474     1280.27673        0.81522      -57.86567
8360.50000        1.03091     1260.82588        0.83735      -57.67652
8361.00000        1.04707     1241.37502        0.85968      -57.49136
8361.50000        1.06324     1221.92417        0.88182      -57.30221
8362.00000        1.05435     1202.47332        0.90415      -57.11307
8362.50000        1.04545     1183.02246        0.92628      -56.92791
8363.00000        1.03656     1163.57161        0.94862      -56.73876
8363.50000        1.02767     1144.20092        0.95138      -56.55360
8364.00000        1.03794     1124.75006        0.95435      -56.36445
8364.50000        1.04822     1105.29921        0.95711      -56.17530
8365.00000        1.05850     1085.84836        0.95988      -55.99014
8365.50000        1.06877     1113.93227        0.96265      -55.80100
8366.00000        1.07905     1142.01619        0.96561      -55.61185
8366.50000        1.05929     1135.39091        0.96838      -55.42669
8367.00000        1.03953     1128.68546        0.95692      -55.23754
8367.50000        1.01976     1122.06018        0.94526      -55.05238
8368.00000        1.02668     1115.43490        0.93379      -54.86323
8368.50000        1.03360     1108.72945        0.92233      -54.99679
8369.00000        1.04051     1132.43256        0.91067      -55.13433
8369.50000        1.04743     1162.76095        0.89921      -55.26789
8370.00000        1.02569     1193.00918        0.88775      -55.40145
8370.50000        1.00395     1223.33757        0.87609      -55.53899
8371.00000        0.98221     1253.66596        0.86462      -55.67255
8371.50000        0.96047     1283.99435        0.85316      -55.80611
8372.00000        0.93873     1314.24258        0.84150      -55.94365
8372.50000        0.91700     1344.57097        0.83004      -56.07721
8373.00000        0.89526     1374.89936        0.84644      -56.21077
8373.50000        0.87352     1348.55476        0.86304      -56.34831
8374.00000        0.88877     1322.29033        0.87945      -56.48187
8374.50000        0.90399     1295.94573        0.89585      -56.61543
8375.00000        0.91925     1269.68129        0.91245      -56.75297
8375.50000        0.93451     1243.33670        0.92885      -56.88653
8376.00000        0.94976     1217.07226        0.92391      -57.02008
8376.50000        0.96498     1190.72766        0.91897      -57.15763
8377.00000        0.98024     1197.72955        0.91403      -57.29119
8377.50000        0.98300     1204.81159        0.90909      -57.42474
8378.00000        0.98577     1211.81348        0.90415      -57.56229
8378.50000        0.98854     1218.89552        0.89921      -57.69584
8379.00000        0.99130     1225.89741        0.89427      -57.82940
8379.50000        0.99407     1232.97945        0.88933      -57.96694
8380.00000        0.99684     1239.98133        0.88439      -58.10050
8380.50000        0.99960     1247.06338        0.87945      -58.06673
8381.00000        1.00237     1245.08737        0.87451      -58.02898
8381.50000        1.00514     1243.11135        0.86957      -57.99521
8382.00000        1.00790     1241.13534        0.88281      -57.96144
8382.50000        1.02372     1239.15932        0.89585      -57.92369
8383.00000        1.03953     1213.69648        0.90909      -57.88992
8383.50000        1.07115     1188.23364        0.93538      -57.85216
8384.00000        1.08696     1162.69065        0.94862      -57.81839
8384.50000        1.10277     1137.22781        0.96186      -57.78462
8385.00000        1.11858     1111.76497        0.97490      -57.74687
8385.50000        1.13439     1086.30213        0.98814      -57.71310
8386.00000        1.15020     1060.83929        1.00138      -57.67933
8386.50000        1.16601     1035.37645        1.01443      -57.64157
8387.00000        1.16866     1009.83345        1.02767      -57.60780
8387.50000        1.17126      984.37061        1.01660      -57.57005
8388.00000        1.17391      958.90777        1.00553      -57.53628
8388.50000        1.15842      980.01778        0.99427      -57.50251
8389.00000        1.14289     1001.04764        0.98320      -57.46475
8389.50000        1.12739     1022.15765        0.97213      -57.43098
8390.00000        1.11190     1043.18750        0.96107      -57.39721
8390.50000        1.09636     1064.29751        0.94980      -57.35946
8391.00000        1.08087     1085.32736        0.93873      -57.32569
8391.50000        1.06538     1106.43738        0.92767      -57.28794
8392.00000        1.04988     1127.46723        0.91660      -57.25417
8392.50000        1.03435     1148.57724        0.90534      -57.22040
8393.00000        1.01885     1190.71710        0.89427      -57.18264
8393.50000        1.00336     1211.74696        0.88320      -57.14887
8394.00000        0.98783     1232.85697        0.87213      -57.11510
8394.50000        0.97233     1253.88682        0.86087      -57.07735
8395.00000        0.98241     1274.99683        0.84980      -57.04358
8395.50000        0.99245     1296.02668        0.85632      -57.00582
8396.00000        1.00253     1270.88448        0.86304      -56.97205
8396.50000        1.01257     1245.66212        0.86957      -56.83868
8397.00000        1.02265     1220.51992        0.87609      -56.70133
8397.50000        1.03269     1195.37772        0.88281      -56.56796
8398.00000        1.04277     1170.23552        0.88933      -56.43459
8398.50000        1.05281     1145.01316        0.89585      -56.29723
8399.00000        1.06289     1119.87096        0.90257      -56.16386
8399.50000        1.07292     1153.32559        0.90909      -56.02651
8400.00000        1.08300     1164.95993        0.91561      -55.89314
