~Version ---------------------------------------------------
VERS. 2.0 : CWLS LOG ASCII STANDARD - VERSION 2.0
WRAP. NO  : One line per depth step
DLM . SPACE : Column Data Section Delimiter
~Well ------------------------------------------------------
STRT.F         1790 : START DEPTH
STOP.F        12744 : STOP DEPTH
STEP.F          0.5 : STEP
NULL.       -999.25 : NULL VALUE
COMP.            AMOCO PRODUCTION COMPANY : COMPANY
WELL.             155847-SL862-011-862-30 : WELL
FLD .                  VERMILION BLOCK 15 : FIELD
CNTY.                           VERMILION : COUNTY
STAT.                           LOUISIANA : STATE
CTRY.                                 USA : COUNTRY
SEC .                                     : SECTION
TWP .                                     : TOWNSHIP
RGE .                                     : RANGE
LOC .                                     : LOCATION
EKB .F                    44.35 : ELEVATION KELLY BUSHING
EDF .F                     44.5 : ELEVATION DERRICK FLOOR
EGL .F                          : ELEVATION GROUND LEVEL
PDAT.                       BHF : PERMANENT DATUM
EPD .                           : ELEVATION PERMANENT DATUM
APD .                        33 : ABOVE PERMANENT DATUM
LMF .                       RKB : LOG MEASURED FROM
DMF .                       RKB : DRILLING MEASURED FROM
API .            17705200940000 : API NUMBER
UWI .                           : UWI NUMBER
DIGC.                     NthDS : DIGITIZING COMPANY
~Params ----------------------------------------------------
SRVC.                     WELEX : LOGGING COMPANY
LOG .                       IEL : LOG
DATE.                1977-09-15 : RUN DATE
RUN .                         1 : RUN NUMBER
TDD .F                    11102 : TOTAL DEPTH DRILLER
TDL .F                    11116 : TOTAL DEPTH LOGGER
BOTL.F                    11110 : BOTTOM LOGGED INTERVAL
TOPL.F                     1790 : TOP LOGGED INTERVAL
CSGS.IN                  13.375 : CASING SIZE
CSGD.F                     1800 : CASING DRILLER
CSGL.F                     1790 : CASING LOGGER
BS  .IN                   12.25 : BIT SIZE
MUD .             LIGNO LIGNITE : MUD TYPE
MUDD.                      10.5 : MUD DENSITY
MUDV.                        43 : MUD VISCOSITY
PH  .                      10.5 : MUD PH
FL  .                       6.2 : FLUID LOSS
MUDS.                       PIT : SOURCE OF SAMPLE
RM  .OHMM                  1.08 : MUD RESISTIVITY
RMT .DEGF                    82 : RM TEMPERATURE
RMF .OHMM                  0.93 : MUD FILTRATE RESISTIVITY
RMFT.DEGF                    82 : RMF TEMPERATURE
RMC .OHMM                  1.37 : MUD CAKE RESISTIVITY
RMCT.DEGF                    82 : RMC TEMPERATURE
RMFS.                      MEAS : RMF SOURCE
RMCS.                      MEAS : RMC SOURCE
RMBH.OHMM                  0.46 : MUD RESISTIVITY AT BHT
BHT .DEGF                   194 : BOTTOM HOLE TEMPERATURE
TIMC.                           : TIME CIRCULATION STOPPED
TIML.                           : TIME LOGGER ON BOTTOM
TMAX.DEGF                   194 : MAXIMUM RECORDED TEMPERATURE
UNIT.                      2844 : EQUIPMENT NUMBER
BASE.                     HOUMA : BASE LOCATION
ENG .          KNOLES, MOBERLEY : RECORDED BY
WIT .               MR. HUBBARD : WITNESSED BY
#
SRVC.                     WELEX : LOGGING COMPANY
LOG .                       IEL : LOG
DATE.                1977-10-19 : RUN DATE
RUN .                         2 : RUN NUMBER
TDD .F                    11644 : TOTAL DEPTH DRILLER
TDL .F                    11647 : TOTAL DEPTH LOGGER
BOTL.F                    11641 : BOTTOM LOGGED INTERVAL
TOPL.F                    11110 : TOP LOGGED INTERVAL
CSGS.IN                   9.625 : CASING SIZE
CSGD.F                    11110 : CASING DRILLER
CSGL.F                    11110 : CASING LOGGER
BS  .IN                     8.5 : BIT SIZE
MUD .             LIGNO LIGNITE : MUD TYPE
MUDD.                        16 : MUD DENSITY
MUDV.                        43 : MUD VISCOSITY
PH  .                        11 : MUD PH
FL  .                      17.4 : FLUID LOSS
MUDS.                       PIT : SOURCE OF SAMPLE
RM  .OHMM                  1.30 : MUD RESISTIVITY
RMT .DEGF                    72 : RM TEMPERATURE
RMF .OHMM                  0.91 : MUD FILTRATE RESISTIVITY
RMFT.DEGF                    72 : RMF TEMPERATURE
RMC .OHMM                  2.64 : MUD CAKE RESISTIVITY
RMCT.DEGF                    72 : RMC TEMPERATURE
RMFS.                      MEAS : RMF SOURCE
RMCS.                      MEAS : RMC SOURCE
RMBH.OHMM                  0.44 : MUD RESISTIVITY AT BHT
BHT .DEGF                  2189 : BOTTOM HOLE TEMPERATURE
TIMC.                           : TIME CIRCULATION STOPPED
TIML.                           : TIME LOGGER ON BOTTOM
TMAX.DEGF                   218 : MAXIMUM RECORDED TEMPERATURE
UNIT.                      2844 : EQUIPMENT NUMBER
BASE.                     HOUMA : BASE LOCATION
ENG .                    KNOLES : RECORDED BY
WIT .        HUBBARD, HENDERSON : WITNESSED BY
#
SRVC.                     WELEX : LOGGING COMPANY
LOG .                       IEL : LOG
DATE.                1977-12-07 : RUN DATE
RUN .                         3 : RUN NUMBER
TDD .F                    12749 : TOTAL DEPTH DRILLER
TDL .F                    12750 : TOTAL DEPTH LOGGER
BOTL.F                    12744 : BOTTOM LOGGED INTERVAL
TOPL.F                    11618 : TOP LOGGED INTERVAL
CSGS.IN                   7.625 : CASING SIZE
CSGD.F                    11626 : CASING DRILLER
CSGL.F                    11618 : CASING LOGGER
BS  .IN                     6.5 : BIT SIZE
MUD .             LIGNO LIGNITE : MUD TYPE
MUDD.                      16.4 : MUD DENSITY
MUDV.                        50 : MUD VISCOSITY
PH  .                      11.5 : MUD PH
FL  .                       3.5 : FLUID LOSS
MUDS.                       PIT : SOURCE OF SAMPLE
RM  .OHMM                  0.98 : MUD RESISTIVITY
RMT .DEGF                    82 : RM TEMPERATURE
RMF .OHMM                  0.57 : MUD FILTRATE RESISTIVITY
RMFT.DEGF                    50 : RMF TEMPERATURE
RMC .OHMM                  2.48 : MUD CAKE RESISTIVITY
RMCT.DEGF                    50 : RMC TEMPERATURE
RMFS.                      MEAS : RMF SOURCE
RMCS.                      MEAS : RMC SOURCE
RMBH.OHMM                  0.34 : MUD RESISTIVITY AT BHT
BHT .DEGF                   235 : BOTTOM HOLE TEMPERATURE
TIMC.                           : TIME CIRCULATION STOPPED
TIML.                           : TIME LOGGER ON BOTTOM
TMAX.DEGF                   235 : MAXIMUM RECORDED TEMPERATURE
UNIT.                      2844 : EQUIPMENT NUMBER
BASE.                     HOUMA : BASE LOCATION
ENG .                  CROTHERS : RECORDED BY
WIT .                   HUBBARD : WITNESSED BY
~Curve Information -----------------------------------------
DEPT.F          :DEPTH
ASN.OHMM        :
CILD.MMHO       :
ILD.OHMM        :
SP.MV           :
~ASCII ------------------------------------------------------
# ...
10486.50000        1.04634      980.92659        1.02554      -46.51025
10487.00000        1.03762      963.98240        1.02396      -46.43266
10487.50000        1.06337      947.11789        1.02257      -46.35108
10488.00000        1.08911      930.17370        1.02119      -46.27349
10488.50000        1.11485      913.30920        1.01980      -46.19191
10489.00000        1.14059      928.55604        1.01842      -46.11432
10489.50000        1.09703      943.80288        1.01703      -46.03274
10490.00000        1.05347      959.04972        1.01564      -45.95514
10490.50000        1.00990      974.29656        1.01406      -45.87357
10491.00000        0.96634      989.54340        1.01267      -45.79597
10491.50000        0.98020     1004.71056        1.01129      -46.17255
10492.00000        0.99406     1019.95740        1.00990      -46.55312
10492.50000        1.00792     1035.20424        1.01148      -46.92970
10493.00000        1.02178     1050.45108        1.01327      -47.31027
10493.50000        1.02178     1065.69792        1.01485      -47.68685
10494.00000        1.02178     1080.94477        1.01644      -48.06742
10494.50000        1.02178     1056.43090        1.01822      -48.44400
10495.00000        1.02178     1031.83736        1.01980      -48.82457
10495.50000        1.04800     1007.32350        1.02139      -49.20115
10496.00000        1.07426      982.80963        1.02317      -49.57773
10496.50000        1.10047      958.21609        1.02475      -49.95830
10497.00000        1.12673      933.70223        1.02634      -50.33488
10497.50000        1.15295      909.18836        1.02812      -50.71545
10498.00000        1.17921      884.59482        1.02970      -51.09203
10498.50000        1.20543      860.08095        1.03129      -51.47260
10499.00000        1.23168      835.56709        1.03307      -51.84918
10499.50000        1.21465      810.97355        1.03465      -52.22975
10500.00000        1.19762      780.86908        1.03624      -52.60633
10500.50000        1.17756      815.07995        1.05157      -52.51392
10501.00000        1.16063      849.21113        1.05315      -52.44429
10501.50000        1.14370      883.42199        1.05472      -52.37068
10502.00000        1.12677      917.55318        1.05650      -52.29707
10502.50000        1.10984      951.76404        1.05807      -52.22346
10503.00000        1.09291      985.89522        1.05965      -52.15383
10503.50000        1.07598     1020.10609        1.06142      -52.08022
10504.00000        1.05905     1011.05029        1.06299      -52.00661
10504.50000        1.07283     1001.91482        1.07008      -51.93300
10505.00000        1.08661      992.85903        1.07697      -51.86338
10505.50000        1.10039      983.80323        1.08405      -51.78977
10506.00000        1.11417      974.74744        1.09114      -51.71616
10506.50000        1.12795      965.61196        1.09823      -51.64255
10507.00000        1.14173      956.55617        1.10512      -51.57292
10507.50000        1.15551      947.50038        1.11220      -51.49931
10508.00000        1.16929      918.76343        1.11929      -51.42570
10508.50000        1.18307      912.81519        1.12618      -51.36404
10509.00000        1.19685      906.86694        1.13327      -51.29840
10509.50000        1.21063      900.91870        1.14035      -51.23674
10510.00000        1.22441      894.97046        1.14744      -51.17110
10510.50000        1.19882      889.02221        1.15433      -51.10944
10511.00000        1.17323      883.07397        1.16142      -51.04778
10511.50000        1.17831      877.12573        1.15787      -50.98214
10512.00000        1.18335      879.14556        1.15433      -50.92048
10512.50000        1.18842      881.16539        1.15059      -50.85484
10513.00000        1.19346      883.18523        1.14705      -50.79318
10513.50000        1.19854      885.20506        1.14350      -50.73153
10514.00000        1.20358      887.22489        1.13996      -50.66588
10514.50000        1.20866      889.24472        1.13642      -50.60423
10515.00000        1.19815      891.26456        1.13287      -50.53858
10515.50000        1.18768      893.28439        1.12913      -50.47692
10516.00000        1.17717      904.70656        1.12559      -50.41527
10516.50000        1.16665      916.12872        1.12205      -50.34962
10517.00000        1.15618      927.55088        1.11496      -50.28797
10517.50000        1.14567      938.89337        1.10787      -50.22631
10518.00000        1.13516      950.31553        1.10079      -50.16067
10518.50000        1.12468      961.73769        1.09370      -50.09901
10519.00000        1.11417      973.15986        1.08661      -50.03337
10519.50000        1.10850      989.12383        1.07953      -49.97171
10520.00000        1.10280     1005.08779        1.07244      -49.91005
10520.50000        1.09713     1021.05176        1.06535      -49.84441
10521.00000        1.09142     1037.01573        1.05827      -49.78275
10521.50000        1.08575     1052.97970        1.05118      -49.71711
10522.00000        1.08004     1068.94367        1.04409      -49.65545
10522.50000        1.07437     1084.90763        1.03701      -49.59379
10523.00000        1.06866     1100.87160        1.02992      -49.52815
10523.50000        1.06299     1116.83557        1.02283      -49.46649
10524.00000        1.05075     1132.79954        1.01575      -49.33919
10524.50000        1.03850     1148.76351        1.00866      -49.27753
10525.00000        1.02626     1164.72747        1.00157      -49.21189
10525.50000        1.01402     1180.69144        0.99449      -49.15023
10526.00000        1.00173     1196.65541        0.98740      -49.08459
10526.50000        0.98949     1212.61938        0.98031      -49.02293
10527.00000        0.97724     1228.58335        0.97323      -48.96127
10527.50000        0.96500     1244.54731        0.96614      -48.89563
10528.00000        0.95276     1260.51128        0.95905      -48.83397
10528.50000        0.96917     1276.47525        0.95197      -48.76833
10529.00000        0.98555     1249.17256        0.94488      -48.70667
10529.50000        1.00197     1221.86987        0.94390      -48.64502
10530.00000        1.01839     1194.56718        0.94291      -48.57937
10530.50000        1.03476     1167.34417        0.94193      -48.51772
10531.00000        1.05118     1140.04148        0.94094      -48.45606
10531.50000        1.03905     1112.73879        0.93996      -48.39042
10532.00000        1.02689     1085.43610        0.93898      -48.32876
10532.50000        1.01476     1102.83432        0.93799      -48.26312
10533.00000        1.00264     1120.23254        0.93701      -48.20146
10533.50000        0.99047     1137.71045        0.93602      -48.13980
10534.00000        0.97835     1168.81376        0.93504      -48.07416
10534.50000        0.96622     1180.47497        0.93405      -48.01250
10535.00000        0.95405     1192.05649        0.93307      -47.94686
10535.50000        0.94193     1203.71770        0.93209      -47.88520
10536.00000        0.92980     1226.96043        0.93110      -47.82354
10536.50000        0.91764     1238.54196        0.93012      -47.75790
10537.00000        0.90551     1250.20316        0.92913      -47.69624
10537.50000        0.90972     1261.78469        0.92815      -47.63060
10538.00000        0.91394     1273.44589        0.92717      -47.56894
10538.50000        0.91815     1285.02742        0.92618      -47.44354
10539.00000        0.92240     1280.43375        0.92520      -47.31814
10539.50000        0.92661     1275.76040        0.92283      -47.19273
10540.00000        0.93083     1271.16673        0.92047      -47.06733
10540.50000        0.93504     1266.57306        0.91831      -46.94193
10541.00000        0.93925     1261.89970        0.91594      -46.81653
10541.50000        0.94346     1257.30603        0.91358      -46.69113
10542.00000        0.94768     1252.71236        0.91122      -46.56572
