~Version ---------------------------------------------------
VERS. 2.0 : CWLS LOG ASCII STANDARD - VERSION 2.0
WRAP. NO  : One line per depth step
DLM . SPACE : Column Data Section Delimiter
~Well ------------------------------------------------------
STRT.F         1790 : START DEPTH
STOP.F        12744 : STOP DEPTH
STEP.F          0.5 : STEP
NULL.       -999.25 : NULL VALUE
COMP.            AMOCO PRODUCTION COMPANY : COMPANY
WELL.             155847-SL862-011-862-30 : WELL
FLD .                  VERMILION BLOCK 15 : FIELD
CNTY.                           VERMILION : COUNTY
STAT.                           LOUISIANA : STATE
CTRY.                                 USA : COUNTRY
SEC .                                     : SECTION
TWP .                                     : TOWNSHIP
RGE .                                     : RANGE
LOC .                                     : LOCATION
EKB .F                    44.35 : ELEVATION KELLY BUSHING
EDF .F                     44.5 : ELEVATION DERRICK FLOOR
EGL .F                          : ELEVATION GROUND LEVEL
PDAT.                       BHF : PERMANENT DATUM
EPD .                           : ELEVATION PERMANENT DATUM
APD .                        33 : ABOVE PERMANENT DATUM
LMF .                       RKB : LOG MEASURED FROM
DMF .                       RKB : DRILLING MEASURED FROM
API .            17705200940000 : API NUMBER
UWI .                           : UWI NUMBER
DIGC.                     NthDS : DIGITIZING COMPANY
~Params ----------------------------------------------------
SRVC.                     WELEX : LOGGING COMPANY
LOG .                       IEL : LOG
DATE.                1977-09-15 : RUN DATE
RUN .                         1 : RUN NUMBER
TDD .F                    11102 : TOTAL DEPTH DRILLER
TDL .F                    11116 : TOTAL DEPTH LOGGER
BOTL.F                    11110 : BOTTOM LOGGED INTERVAL
TOPL.F                     1790 : TOP LOGGED INTERVAL
CSGS.IN                  13.375 : CASING SIZE
CSGD.F                     1800 : CASING DRILLER
CSGL.F                     1790 : CASING LOGGER
BS  .IN                   12.25 : BIT SIZE
MUD .             LIGNO LIGNITE : MUD TYPE
MUDD.                      10.5 : MUD DENSITY
MUDV.                        43 : MUD VISCOSITY
PH  .                      10.5 : MUD PH
FL  .                       6.2 : FLUID LOSS
MUDS.                       PIT : SOURCE OF SAMPLE
RM  .OHMM                  1.08 : MUD RESISTIVITY
RMT .DEGF                    82 : RM TEMPERATURE
RMF .OHMM                  0.93 : MUD FILTRATE RESISTIVITY
RMFT.DEGF                    82 : RMF TEMPERATURE
RMC .OHMM                  1.37 : MUD CAKE RESISTIVITY
RMCT.DEGF                    82 : RMC TEMPERATURE
RMFS.                      MEAS : RMF SOURCE
RMCS.                      MEAS : RMC SOURCE
RMBH.OHMM                  0.46 : MUD RESISTIVITY AT BHT
BHT .DEGF                   194 : BOTTOM HOLE TEMPERATURE
TIMC.                           : TIME CIRCULATION STOPPED
TIML.                           : TIME LOGGER ON BOTTOM
TMAX.DEGF                   194 : MAXIMUM RECORDED TEMPERATURE
UNIT.                      2844 : EQUIPMENT NUMBER
BASE.                     HOUMA : BASE LOCATION
ENG .          KNOLES, MOBERLEY : RECORDED BY
WIT .               MR. HUBBARD : WITNESSED BY
#
SRVC.                     WELEX : LOGGING COMPANY
LOG .                       IEL : LOG
DATE.                1977-10-19 : RUN DATE
RUN .                         2 : RUN NUMBER
TDD .F                    11644 : TOTAL DEPTH DRILLER
TDL .F                    11647 : TOTAL DEPTH LOGGER
BOTL.F                    11641 : BOTTOM LOGGED INTERVAL
TOPL.F                    11110 : TOP LOGGED INTERVAL
CSGS.IN                   9.625 : CASING SIZE
CSGD.F                    11110 : CASING DRILLER
CSGL.F                    11110 : CASING LOGGER
BS  .IN                     8.5 : BIT SIZE
MUD .             LIGNO LIGNITE : MUD TYPE
MUDD.                        16 : MUD DENSITY
MUDV.                        43 : MUD VISCOSITY
PH  .                        11 : MUD PH
FL  .                      17.4 : FLUID LOSS
MUDS.                       PIT : SOURCE OF SAMPLE
RM  .OHMM                  1.30 : MUD RESISTIVITY
RMT .DEGF                    72 : RM TEMPERATURE
RMF .OHMM                  0.91 : MUD FILTRATE RESISTIVITY
RMFT.DEGF                    72 : RMF TEMPERATURE
RMC .OHMM                  2.64 : MUD CAKE RESISTIVITY
RMCT.DEGF                    72 : RMC TEMPERATURE
RMFS.                      MEAS : RMF SOURCE
RMCS.                      MEAS : RMC SOURCE
RMBH.OHMM                  0.44 : MUD RESISTIVITY AT BHT
BHT .DEGF                  2189 : BOTTOM HOLE TEMPERATURE
TIMC.                           : TIME CIRCULATION STOPPED
TIML.                           : TIME LOGGER ON BOTTOM
TMAX.DEGF                   218 : MAXIMUM RECORDED TEMPERATURE
UNIT.                      2844 : EQUIPMENT NUMBER
BASE.                     HOUMA : BASE LOCATION
ENG .                    KNOLES : RECORDED BY
WIT .        HUBBARD, HENDERSON : WITNESSED BY
#
SRVC.                     WELEX : LOGGING COMPANY
LOG .                       IEL : LOG
DATE.                1977-12-07 : RUN DATE
RUN .                         3 : RUN NUMBER
TDD .F                    12749 : TOTAL DEPTH DRILLER
TDL .F                    12750 : TOTAL DEPTH LOGGER
BOTL.F                    12744 : BOTTOM LOGGED INTERVAL
TOPL.F                    11618 : TOP LOGGED INTERVAL
CSGS.IN                   7.625 : CASING SIZE
CSGD.F                    11626 : CASING DRILLER
CSGL.F                    11618 : CASING LOGGER
BS  .IN                     6.5 : BIT SIZE
MUD .             LIGNO LIGNITE : MUD TYPE
MUDD.                      16.4 : MUD DENSITY
MUDV.                        50 : MUD VISCOSITY
PH  .                      11.5 : MUD PH
FL  .                       3.5 : FLUID LOSS
MUDS.                       PIT : SOURCE OF SAMPLE
RM  .OHMM                  0.98 : MUD RESISTIVITY
RMT .DEGF                    82 : RM TEMPERATURE
RMF .OHMM                  0.57 : MUD FILTRATE RESISTIVITY
RMFT.DEGF                    50 : RMF TEMPERATURE
RMC .OHMM                  2.48 : MUD CAKE RESISTIVITY
RMCT.DEGF                    50 : RMC TEMPERATURE
RMFS.                      MEAS : RMF SOURCE
RMCS.                      MEAS : RMC SOURCE
RMBH.OHMM                  0.34 : MUD RESISTIVITY AT BHT
BHT .DEGF                   235 : BOTTOM HOLE TEMPERATURE
TIMC.                           : TIME CIRCULATION STOPPED
TIML.                           : TIME LOGGER ON BOTTOM
TMAX.DEGF                   235 : MAXIMUM RECORDED TEMPERATURE
UNIT.                      2844 : EQUIPMENT NUMBER
BASE.                     HOUMA : BASE LOCATION
ENG .                  CROTHERS : RECORDED BY
WIT .                   HUBBARD : WITNESSED BY
~Curve Information -----------------------------------------
DEPT.F          :DEPTH
ASN.OHMM        :
CILD.MMHO       :
ILD.OHMM        :
SP.MV           :
~ASCII ------------------------------------------------------
# ...
2524.50000        0.40554     4273.57152        0.28967     -135.72952
2525.00000        0.40899     4315.97296        0.28954     -135.26359
2525.50000        0.41248     4282.05861        0.28940     -136.18007
2526.00000        0.41593     4248.14426        0.28926     -137.09256
2526.50000        0.41938     4214.22990        0.28912     -138.00903
2527.00000        0.42284     4180.31555        0.28899     -138.92152
2527.50000        0.42633     4146.40120        0.28885     -139.83799
2528.00000        0.42978     4112.48685        0.28871     -140.75048
2528.50000        0.43323     4078.57249        0.28857     -141.66695
2529.00000        0.42450     4044.65814        0.28843     -140.81858
2529.50000        0.41578     4056.26128        0.28830     -139.96622
2530.00000        0.40706     4067.94441        0.28816     -139.11785
2530.50000        0.39833     4079.54755        0.28802     -138.26948
2531.00000        0.38961     4091.23069        0.28788     -137.42111
2531.50000        0.39484     4102.83383        0.28774     -136.56876
2532.00000        0.40011     4114.51696        0.28761     -135.72039
2532.50000        0.40534     4126.12010        0.28747     -136.39783
2533.00000        0.41057     4137.80324        0.28733     -137.07527
2533.50000        0.41584     4149.40638        0.28719     -137.75670
2534.00000        0.42107     4141.49059        0.28705     -138.43414
2534.50000        0.41116     4133.57481        0.28692     -139.11158
2535.00000        0.40125     4125.65902        0.28678     -139.78902
2535.50000        0.39134     4117.74324        0.28664     -140.47045
2536.00000        0.38143     4109.82745        0.28650     -141.14789
2536.50000        0.39081     4101.91167        0.28636     -141.82533
2537.00000        0.40015     4101.99544        0.28623     -143.18420
2537.50000        0.40953     4102.07922        0.28609     -143.86164
2538.00000        0.41887     4102.16299        0.28595     -144.53908
2538.50000        0.42825     4113.20616        0.28581     -143.77836
2539.00000        0.43759     4124.32933        0.28567     -143.39402
2539.50000        0.44697     4135.37250        0.28554     -143.02161
2540.00000        0.45631     4146.49566        0.28540     -142.26089
2540.50000        0.44245     4157.53884        0.28526     -141.50016
2541.00000        0.42858     4168.66200        0.28512     -140.74342
2541.50000        0.41472     4179.70517        0.28498     -139.98269
2542.00000        0.40086     4190.82834        0.28485     -139.22197
2542.50000        0.42060     4188.27226        0.28471     -138.46522
2543.00000        0.44033     4185.63618        0.28457     -137.70450
2543.50000        0.46007     4183.08010        0.28364     -136.94377
2544.00000        0.45739     4180.52402        0.28271     -136.18703
2544.50000        0.45475     4177.88795        0.28178     -135.42630
2545.00000        0.45208     4175.33187        0.28086     -136.15952
2545.50000        0.44940     4167.41608        0.27993     -136.89672
2546.00000        0.44677     4159.50029        0.27900     -137.62993
2546.50000        0.44409     4151.58451        0.27827     -138.36315
2547.00000        0.46252     4143.66872        0.27734     -139.10035
2547.50000        0.48091     4135.75294        0.27641     -139.83356
2548.00000        0.49934     4127.83715        0.27548     -140.56678
2548.50000        0.51777     4097.92258        0.27455     -141.30398
2549.00000        0.53616     4000.21032        0.27363     -142.03720
2549.50000        0.55459     3992.29453        0.27270     -143.50761
2550.00000        0.55852     3984.37875        0.27177     -144.24083
2550.50000        0.56244     3976.46296        0.27084     -143.63006
2551.00000        0.56637     3968.54718        0.26991     -143.04984
2551.50000        0.57029     3960.63139        0.26898     -141.85886
2552.00000        0.57422     3952.71561        0.26806     -140.66788
2552.50000        0.57221     3944.79982        0.26713     -139.47690
2553.00000        0.57021     3952.88316        0.26640     -138.28592
2553.50000        0.56821     3960.96649        0.26547     -138.78010
2554.00000        0.56620     3969.04982        0.26454     -139.27429
2554.50000        0.55088     3977.13316        0.26361     -139.76847
2555.00000        0.53552     3985.21649        0.26268     -140.26266
2555.50000        0.52019     3993.29982        0.26175     -140.75684
2556.00000        0.50483     4019.02361        0.26083     -141.25103
2556.50000        0.48951     4036.94640        0.25990     -141.74920
2557.00000        0.47414     4054.86919        0.25897     -142.24338
2557.50000        0.45882     4072.79198        0.25804     -143.23175
2558.00000        0.44346     4090.71478        0.25711     -143.72594
2558.50000        0.44343     4108.63757        0.25618     -144.22012
2559.00000        0.44340     4126.64036        0.25545     -144.71431
2559.50000        0.44337     4144.56315        0.25452     -143.50341
2560.00000        0.44335     4162.48594        0.25360     -142.90671
2560.50000        0.44332     4180.40873        0.25267     -142.29251
2561.00000        0.43626     4198.33152        0.25174     -141.08160
2561.50000        0.42919     4216.25431        0.25081     -139.87070
2562.00000        0.42217     4234.17711        0.24988     -138.65980
2562.50000        0.41511     4266.97908        0.24895     -137.44890
2563.00000        0.40804     4299.78105        0.24802     -136.23800
2563.50000        0.40098     4332.58302        0.24710     -135.02710
2564.00000        0.39396     4365.38499        0.24617     -133.81620
2564.50000        0.38689     4398.18697        0.24524     -132.60530
2565.00000        0.37983     4431.06893        0.24431     -131.39440
2565.50000        0.37925     4463.87091        0.24358     -130.18350
2566.00000        0.37863     4496.67288        0.24265     -128.97260
2566.50000        0.37805     4529.47485        0.24172     -127.76170
2567.00000        0.37747     4595.07879        0.24079     -126.55080
2567.50000        0.37689     4544.99123        0.23987     -125.33990
2568.00000        0.37627     4488.52844        0.23894     -124.12900
2568.50000        0.37568     4381.89809        0.23801     -122.91810
2569.00000        0.40728     3995.56173        0.28016     -121.70720
2569.50000        0.43887     3995.44694        0.32251     -120.49630
2570.00000        0.47046     3585.02812        0.36467     -106.29010
2570.50000        0.50205     3174.41451        0.40682     -100.81746
2571.00000        0.53365     2931.00019        0.44897      -92.08788
2571.50000        0.56524     2763.88091        0.49132      -77.88168
2572.00000        0.59964     2152.90324        0.53348      -78.68262
2572.50000        0.63407     1700.02328        0.57563      -79.48356
2573.00000        0.66847     1632.11080        0.61798      -80.28450
2573.50000        0.70291     1564.19832        0.66014      -81.08544
2574.00000        0.73731     1496.28584        0.70229      -81.88638
2574.50000        0.77175     1428.37336        0.74444      -82.68732
2575.00000        0.80615     1360.46088        0.78679      -83.48826
2575.50000        0.78240     1326.99196        0.82895      -87.62767
2576.00000        0.75866     1332.62997        0.81557      -91.76309
2576.50000        0.73492     1488.70515        0.80239      -95.90249
2577.00000        0.71118     1644.78033        0.78901     -100.03791
2577.50000        0.67728     1852.85265        0.77563     -108.31273
2578.00000        0.64337     2268.99729        0.76245     -112.45213
2578.50000        0.60947     2477.06961        0.74907     -116.58755
2579.00000        0.57553     2893.21424        0.60407     -117.91834
2579.50000        0.54163     3007.29174        0.45888     -119.25312
2580.00000        0.50773     3121.36923        0.31388     -120.58391
2580.50000        0.47383     3235.44673        0.31948     -121.91470
