~Version ---------------------------------------------------
VERS. 2.0 : CWLS LOG ASCII STANDARD - VERSION 2.0
WRAP. NO  : One line per depth step
DLM . SPACE : Column Data Section Delimiter
~Well ------------------------------------------------------
STRT.F         1790 : START DEPTH
STOP.F        12744 : STOP DEPTH
STEP.F          0.5 : STEP
NULL.       -999.25 : NULL VALUE
COMP.            AMOCO PRODUCTION COMPANY : COMPANY
WELL.             155847-SL862-011-862-30 : WELL
FLD .                  VERMILION BLOCK 15 : FIELD
CNTY.                           VERMILION : COUNTY
STAT.                           LOUISIANA : STATE
CTRY.                                 USA : COUNTRY
SEC .                                     : SECTION
TWP .                                     : TOWNSHIP
RGE .                                     : RANGE
LOC .                                     : LOCATION
EKB .F                    44.35 : ELEVATION KELLY BUSHING
EDF .F                     44.5 : ELEVATION DERRICK FLOOR
EGL .F                          : ELEVATION GROUND LEVEL
PDAT.                       BHF : PERMANENT DATUM
EPD .                           : ELEVATION PERMANENT DATUM
APD .                        33 : ABOVE PERMANENT DATUM
LMF .                       RKB : LOG MEASURED FROM
DMF .                       RKB : DRILLING MEASURED FROM
API .            17705200940000 : API NUMBER
UWI .                           : UWI NUMBER
DIGC.                     NthDS : DIGITIZING COMPANY
~Params ----------------------------------------------------
SRVC.                     WELEX : LOGGING COMPANY
LOG .                       IEL : LOG
DATE.                1977-09-15 : RUN DATE
RUN .                         1 : RUN NUMBER
TDD .F                    11102 : TOTAL DEPTH DRILLER
TDL .F                    11116 : TOTAL DEPTH LOGGER
BOTL.F                    11110 : BOTTOM LOGGED INTERVAL
TOPL.F                     1790 : TOP LOGGED INTERVAL
CSGS.IN                  13.375 : CASING SIZE
CSGD.F                     1800 : CASING DRILLER
CSGL.F                     1790 : CASING LOGGER
BS  .IN                   12.25 : BIT SIZE
MUD .             LIGNO LIGNITE : MUD TYPE
MUDD.                      10.5 : MUD DENSITY
MUDV.                        43 : MUD VISCOSITY
PH  .                      10.5 : MUD PH
FL  .                       6.2 : FLUID LOSS
MUDS.                       PIT : SOURCE OF SAMPLE
RM  .OHMM                  1.08 : MUD RESISTIVITY
RMT .DEGF                    82 : RM TEMPERATURE
RMF .OHMM                  0.93 : MUD FILTRATE RESISTIVITY
RMFT.DEGF                    82 : RMF TEMPERATURE
RMC .OHMM                  1.37 : MUD CAKE RESISTIVITY
RMCT.DEGF                    82 : RMC TEMPERATURE
RMFS.                      MEAS : RMF SOURCE
RMCS.                      MEAS : RMC SOURCE
RMBH.OHMM                  0.46 : MUD RESISTIVITY AT BHT
BHT .DEGF                   194 : BOTTOM HOLE TEMPERATURE
TIMC.                           : TIME CIRCULATION STOPPED
TIML.                           : TIME LOGGER ON BOTTOM
TMAX.DEGF                   194 : MAXIMUM RECORDED TEMPERATURE
UNIT.                      2844 : EQUIPMENT NUMBER
BASE.                     HOUMA : BASE LOCATION
ENG .          KNOLES, MOBERLEY : RECORDED BY
WIT .               MR. HUBBARD : WITNESSED BY
#
SRVC.                     WELEX : LOGGING COMPANY
LOG .                       IEL : LOG
DATE.                1977-10-19 : RUN DATE
RUN .                         2 : RUN NUMBER
TDD .F                    11644 : TOTAL DEPTH DRILLER
TDL .F                    11647 : TOTAL DEPTH LOGGER
BOTL.F                    11641 : BOTTOM LOGGED INTERVAL
TOPL.F                    11110 : TOP LOGGED INTERVAL
CSGS.IN                   9.625 : CASING SIZE
CSGD.F                    11110 : CASING DRILLER
CSGL.F                    11110 : CASING LOGGER
BS  .IN                     8.5 : BIT SIZE
MUD .             LIGNO LIGNITE : MUD TYPE
MUDD.                        16 : MUD DENSITY
MUDV.                        43 : MUD VISCOSITY
PH  .                        11 : MUD PH
FL  .                      17.4 : FLUID LOSS
MUDS.                       PIT : SOURCE OF SAMPLE
RM  .OHMM                  1.30 : MUD RESISTIVITY
RMT .DEGF                    72 : RM TEMPERATURE
RMF .OHMM                  0.91 : MUD FILTRATE RESISTIVITY
RMFT.DEGF                    72 : RMF TEMPERATURE
RMC .OHMM                  2.64 : MUD CAKE RESISTIVITY
RMCT.DEGF                    72 : RMC TEMPERATURE
RMFS.                      MEAS : RMF SOURCE
RMCS.                      MEAS : RMC SOURCE
RMBH.OHMM                  0.44 : MUD RESISTIVITY AT BHT
BHT .DEGF                  2189 : BOTTOM HOLE TEMPERATURE
TIMC.                           : TIME CIRCULATION STOPPED
TIML.                           : TIME LOGGER ON BOTTOM
TMAX.DEGF                   218 : MAXIMUM RECORDED TEMPERATURE
UNIT.                      2844 : EQUIPMENT NUMBER
BASE.                     HOUMA : BASE LOCATION
ENG .                    KNOLES : RECORDED BY
WIT .        HUBBARD, HENDERSON : WITNESSED BY
#
SRVC.                     WELEX : LOGGING COMPANY
LOG .                       IEL : LOG
DATE.                1977-12-07 : RUN DATE
RUN .                         3 : RUN NUMBER
TDD .F                    12749 : TOTAL DEPTH DRILLER
TDL .F                    12750 : TOTAL DEPTH LOGGER
BOTL.F                    12744 : BOTTOM LOGGED INTERVAL
TOPL.F                    11618 : TOP LOGGED INTERVAL
CSGS.IN                   7.625 : CASING SIZE
CSGD.F                    11626 : CASING DRILLER
CSGL.F                    11618 : CASING LOGGER
BS  .IN                     6.5 : BIT SIZE
MUD .             LIGNO LIGNITE : MUD TYPE
MUDD.                      16.4 : MUD DENSITY
MUDV.                        50 : MUD VISCOSITY
PH  .                      11.5 : MUD PH
FL  .                       3.5 : FLUID LOSS
MUDS.                       PIT : SOURCE OF SAMPLE
RM  .OHMM                  0.98 : MUD RESISTIVITY
RMT .DEGF                    82 : RM TEMPERATURE
RMF .OHMM                  0.57 : MUD FILTRATE RESISTIVITY
RMFT.DEGF                    50 : RMF TEMPERATURE
RMC .OHMM                  2.48 : MUD CAKE RESISTIVITY
RMCT.DEGF                    50 : RMC TEMPERATURE
RMFS.                      MEAS : RMF SOURCE
RMCS.                      MEAS : RMC SOURCE
RMBH.OHMM                  0.34 : MUD RESISTIVITY AT BHT
BHT .DEGF                   235 : BOTTOM HOLE TEMPERATURE
TIMC.                           : TIME CIRCULATION STOPPED
TIML.                           : TIME LOGGER ON BOTTOM
TMAX.DEGF                   235 : MAXIMUM RECORDED TEMPERATURE
UNIT.                      2844 : EQUIPMENT NUMBER
BASE.                     HOUMA : BASE LOCATION
ENG .                  CROTHERS : RECORDED BY
WIT .                   HUBBARD : WITNESSED BY
~Curve Information -----------------------------------------
DEPT.F          :DEPTH
ASN.OHMM        :
CILD.MMHO       :
ILD.OHMM        :
SP.MV           :
~ASCII ------------------------------------------------------
# ...
5406.00000        0.88198     1495.88343        0.78834      -78.84072
5406.50000        0.86901     1459.89721        0.81028      -77.21079
5407.00000        0.85601     1441.30408        0.79486      -75.58086
5407.50000        0.84304     1423.91100        0.77945      -73.95094
5408.00000        0.83004     1387.92478        0.76423      -72.32101
5408.50000        0.80000     1411.09362        0.74881      -70.69108
5409.00000        0.76996     1484.36369        0.73340      -69.06115
5409.50000        0.73992     1493.34494        0.71798      -67.43123
5410.00000        0.70988     1502.32619        0.70277      -65.80130
5410.50000        0.67984     1511.30744        0.68735      -66.36253
5411.00000        0.69012     1520.28869        0.67194      -66.92375
5411.50000        0.70040     1529.35009        0.68024      -67.48497
5412.00000        0.71067     1538.33134        0.68834      -68.04620
5412.50000        0.72095     1547.31258        0.69664      -68.60742
5413.00000        0.73123     1556.29383        0.70494      -69.16865
5413.50000        0.72095     1565.27508        0.71304      -69.72987
5414.00000        0.71067     1548.44613        0.72134      -70.29110
5414.50000        0.70040     1540.11674        0.72964      -70.85232
5415.00000        0.69012     1531.61717        0.73775      -71.41354
5415.50000        0.67984     1514.78822        0.74605      -75.10214
5416.00000        0.73648     1497.95926        0.75435      -78.79073
5416.50000        0.79316     1481.05015        0.76245      -82.47933
5417.00000        0.84980     1464.22120        0.77075      -86.16792
5417.50000        0.90644     1447.39225        0.74249      -89.85652
5418.00000        0.96312     1430.56329        0.71423      -93.54511
5418.50000        1.01976     1413.73434        0.68597      -97.23370
5419.00000        0.93806     1453.89623        0.65790     -100.92230
5419.50000        0.85640     1494.05813        0.62964     -104.22844
5420.00000        0.77470     1534.22002        0.60138     -107.53059
5420.50000        0.77767     1748.80496        0.57312     -110.83673
5421.00000        0.78063     1923.22799        0.54486     -117.44503
5421.50000        0.78360     2097.65103        0.51660     -120.74718
5422.00000        0.78656     2272.07407        0.48834     -124.05332
5422.50000        0.73585     2461.40989        0.46028     -123.78987
5423.00000        0.68510     2556.07780        0.43202     -123.53041
5423.50000        0.63439     2650.74571        0.40375     -123.26697
5424.00000        0.58368     2745.41362        0.37549     -119.12935
5424.50000        0.53292     2654.28014        0.39526     -115.10343
5425.00000        0.50757     2563.22682        0.40514     -106.93989
5425.50000        0.48221     2513.52556        0.41502      -98.77635
5426.00000        0.57905     2472.09334        0.43478      -90.61280
5426.50000        0.67589     2381.04002        0.45455     -100.04620
5427.00000        0.77273     2289.90654        0.47431     -109.47561
5427.50000        0.86957     2198.85322        0.49407     -118.90900
5428.00000        0.81704     2107.71974        0.51383     -125.09102
5428.50000        0.76455     2016.66642        0.48004     -128.18203
5429.00000        0.71202     2173.05437        0.44605     -131.27303
5429.50000        0.65953     2329.44233        0.41225     -131.00959
5430.00000        0.60700     2722.37415        0.37826     -130.75013
5430.50000        0.55451     2918.84006        0.34447     -130.48668
5431.00000        0.50198     3115.30598        0.31047     -127.54012
5431.50000        0.53624     3209.57311        0.27668     -124.35494
5432.00000        0.57047     3398.10737        0.31957     -118.22319
5432.50000        0.60474     3492.37450        0.36225     -112.09144
5433.00000        0.63901     3314.13134        0.40514     -105.95970
5433.50000        0.67324     3087.67112        0.44802      -99.82795
5434.00000        0.70751     2682.96774        0.49071     -100.22982
5434.50000        0.74178     2464.20047        0.53360     -100.63169
5435.00000        0.77601     1953.63294        0.53854     -101.03355
5435.50000        0.81028     1933.67790        0.54348     -101.43542
5436.00000        0.83743     1913.72287        0.54842     -101.83729
5436.50000        0.86462     1893.76784        0.55336     -100.13167
5437.00000        0.89178     1883.95638        0.55830      -98.43003
5437.50000        0.91897     1873.81280        0.56324      -96.72441
5438.00000        0.94613     1853.85777        0.56818      -95.02277
5438.50000        0.97332     1833.90273        0.57312      -94.13042
5439.00000        1.00047     1813.94770        0.56126      -93.31715
5439.50000        1.02767     1793.99266        0.54941      -91.61551
5440.00000        0.94202     1774.03763        0.53755      -89.90989
5440.50000        0.85640     1754.08260        0.52569      -99.63759
5441.00000        0.77075     1956.24336        0.51383     -104.50144
5441.50000        0.79182     2057.32375        0.50198     -109.36529
5442.00000        0.81292     2158.40413        0.49012     -114.22913
5442.50000        0.83399     2259.48451        0.47826     -113.63502
5443.00000        0.81158     2291.63082        0.46640     -113.04091
5443.50000        0.78921     2323.77712        0.45455     -113.11610
5444.00000        0.76680     2245.06781        0.47431     -113.19129
5444.50000        0.85032     2166.27834        0.49407     -113.27046
5445.00000        0.93379     2087.56903        0.51383     -113.34565
5445.50000        1.01731     2045.69251        0.53360     -113.42083
5446.00000        1.10079     2008.85971        0.55336     -113.49602
5446.50000        1.18431     1930.07024        0.57312     -113.57121
5447.00000        1.26779     1851.36093        0.59289     -113.64640
5447.50000        1.35130     1811.92801        0.61265     -113.72557
5448.00000        1.43478     1772.41494        0.63241     -113.80075
5448.50000        1.43478     1732.98202        0.65217     -113.87594
5449.00000        1.43478     1693.54910        0.67194     -108.35772
5449.50000        1.43478     1654.03602        0.69170     -105.87809
5450.00000        0.93676     1614.60310        0.71146     -102.84348
5450.50000        0.91897     1575.17018        0.73123      -97.32525
5451.00000        0.90119     1535.65711        0.75099      -91.80703
5451.50000        0.88340     1496.22419        0.77075      -86.28880
5452.00000        0.86561     1456.79127        0.79051      -80.77456
5452.50000        0.89802     1417.27819        0.81028      -75.25634
5453.00000        0.93043     1377.84527        0.83004      -78.37922
5453.50000        0.96285     1359.14250        0.84980      -81.50608
5454.00000        0.99526     1338.41236        0.81423      -84.62896
5454.50000        1.02767     1298.89928        0.77866      -87.75184
5455.00000        1.00395     1259.46636        0.74308      -90.87870
5455.50000        0.98024     1310.28899        0.70751      -94.00158
5456.00000        0.95652     1361.19178        0.67194      -98.68615
5456.50000        0.93281     1559.02413        0.63636     -103.37073
5457.00000        0.94941     1706.11400        0.60079     -108.05530
5457.50000        0.96601     1853.12372        0.56522     -112.73987
5458.00000        0.98261     1893.28561        0.52964     -112.47643
5458.50000        0.99921     1933.44751        0.49407     -112.21696
5459.00000        1.01581     1973.60940        0.53360     -111.95352
5459.50000        0.91304     2013.77130        0.57312     -103.59078
5460.00000        0.81028     2053.93319        0.61265      -95.22805
5460.50000        0.70751     1834.95104        0.65217      -86.86531
5461.00000        0.73913     1615.88874        0.69170      -82.00697
5461.50000        0.77075     1505.41137        0.73123      -78.50257
5462.00000        0.80237     1396.90659        0.77075      -70.13984
