~Version ---------------------------------------------------
VERS. 2.0 : CWLS LOG ASCII STANDARD - VERSION 2.0
WRAP. NO  : One line per depth step
DLM . SPACE : Column Data Section Delimiter
~Well ------------------------------------------------------
STRT.F         1790 : START DEPTH
STOP.F        12744 : STOP DEPTH
STEP.F          0.5 : STEP
NULL.       -999.25 : NULL VALUE
COMP.            AMOCO PRODUCTION COMPANY : COMPANY
WELL.             155847-SL862-011-862-30 : WELL
FLD .                  VERMILION BLOCK 15 : FIELD
CNTY.                           VERMILION : COUNTY
STAT.                           LOUISIANA : STATE
CTRY.                                 USA : COUNTRY
SEC .                                     : SECTION
TWP .                                     : TOWNSHIP
RGE .                                     : RANGE
LOC .                                     : LOCATION
EKB .F                    44.35 : ELEVATION KELLY BUSHING
EDF .F                     44.5 : ELEVATION DERRICK FLOOR
EGL .F                          : ELEVATION GROUND LEVEL
PDAT.                       BHF : PERMANENT DATUM
EPD .                           : ELEVATION PERMANENT DATUM
APD .                        33 : ABOVE PERMANENT DATUM
LMF .                       RKB : LOG MEASURED FROM
DMF .                       RKB : DRILLING MEASURED FROM
API .            17705200940000 : API NUMBER
UWI .                           : UWI NUMBER
DIGC.                     NthDS : DIGITIZING COMPANY
~Params ----------------------------------------------------
SRVC.                     WELEX : LOGGING COMPANY
LOG .                       IEL : LOG
DATE.                1977-09-15 : RUN DATE
RUN .                         1 : RUN NUMBER
TDD .F                    11102 : TOTAL DEPTH DRILLER
TDL .F                    11116 : TOTAL DEPTH LOGGER
BOTL.F                    11110 : BOTTOM LOGGED INTERVAL
TOPL.F                     1790 : TOP LOGGED INTERVAL
CSGS.IN                  13.375 : CASING SIZE
CSGD.F                     1800 : CASING DRILLER
CSGL.F                     1790 : CASING LOGGER
BS  .IN                   12.25 : BIT SIZE
MUD .             LIGNO LIGNITE : MUD TYPE
MUDD.                      10.5 : MUD DENSITY
MUDV.                        43 : MUD VISCOSITY
PH  .                      10.5 : MUD PH
FL  .                       6.2 : FLUID LOSS
MUDS.                       PIT : SOURCE OF SAMPLE
RM  .OHMM                  1.08 : MUD RESISTIVITY
RMT .DEGF                    82 : RM TEMPERATURE
RMF .OHMM                  0.93 : MUD FILTRATE RESISTIVITY
RMFT.DEGF                    82 : RMF TEMPERATURE
RMC .OHMM                  1.37 : MUD CAKE RESISTIVITY
RMCT.DEGF                    82 : RMC TEMPERATURE
RMFS.                      MEAS : RMF SOURCE
RMCS.                      MEAS : RMC SOURCE
RMBH.OHMM                  0.46 : MUD RESISTIVITY AT BHT
BHT .DEGF                   194 : BOTTOM HOLE TEMPERATURE
TIMC.                           : TIME CIRCULATION STOPPED
TIML.                           : TIME LOGGER ON BOTTOM
TMAX.DEGF                   194 : MAXIMUM RECORDED TEMPERATURE
UNIT.                      2844 : EQUIPMENT NUMBER
BASE.                     HOUMA : BASE LOCATION
ENG .          KNOLES, MOBERLEY : RECORDED BY
WIT .               MR. HUBBARD : WITNESSED BY
#
SRVC.                     WELEX : LOGGING COMPANY
LOG .                       IEL : LOG
DATE.                1977-10-19 : RUN DATE
RUN .                         2 : RUN NUMBER
TDD .F                    11644 : TOTAL DEPTH DRILLER
TDL .F                    11647 : TOTAL DEPTH LOGGER
BOTL.F                    11641 : BOTTOM LOGGED INTERVAL
TOPL.F                    11110 : TOP LOGGED INTERVAL
CSGS.IN                   9.625 : CASING SIZE
CSGD.F                    11110 : CASING DRILLER
CSGL.F                    11110 : CASING LOGGER
BS  .IN                     8.5 : BIT SIZE
MUD .             LIGNO LIGNITE : MUD TYPE
MUDD.                        16 : MUD DENSITY
MUDV.                        43 : MUD VISCOSITY
PH  .                        11 : MUD PH
FL  .                      17.4 : FLUID LOSS
MUDS.                       PIT : SOURCE OF SAMPLE
RM  .OHMM                  1.30 : MUD RESISTIVITY
RMT .DEGF                    72 : RM TEMPERATURE
RMF .OHMM                  0.91 : MUD FILTRATE RESISTIVITY
RMFT.DEGF                    72 : RMF TEMPERATURE
RMC .OHMM                  2.64 : MUD CAKE RESISTIVITY
RMCT.DEGF                    72 : RMC TEMPERATURE
RMFS.                      MEAS : RMF SOURCE
RMCS.                      MEAS : RMC SOURCE
RMBH.OHMM                  0.44 : MUD RESISTIVITY AT BHT
BHT .DEGF                  2189 : BOTTOM HOLE TEMPERATURE
TIMC.                           : TIME CIRCULATION STOPPED
TIML.                           : TIME LOGGER ON BOTTOM
TMAX.DEGF                   218 : MAXIMUM RECORDED TEMPERATURE
UNIT.                      2844 : EQUIPMENT NUMBER
BASE.                     HOUMA : BASE LOCATION
ENG .                    KNOLES : RECORDED BY
WIT .        HUBBARD, HENDERSON : WITNESSED BY
#
SRVC.                     WELEX : LOGGING COMPANY
LOG .                       IEL : LOG
DATE.                1977-12-07 : RUN DATE
RUN .                         3 : RUN NUMBER
TDD .F                    12749 : TOTAL DEPTH DRILLER
TDL .F                    12750 : TOTAL DEPTH LOGGER
BOTL.F                    12744 : BOTTOM LOGGED INTERVAL
TOPL.F                    11618 : TOP LOGGED INTERVAL
CSGS.IN                   7.625 : CASING SIZE
CSGD.F                    11626 : CASING DRILLER
CSGL.F                    11618 : CASING LOGGER
BS  .IN                     6.5 : BIT SIZE
MUD .             LIGNO LIGNITE : MUD TYPE
MUDD.                      16.4 : MUD DENSITY
MUDV.                        50 : MUD VISCOSITY
PH  .                      11.5 : MUD PH
FL  .                       3.5 : FLUID LOSS
MUDS.                       PIT : SOURCE OF SAMPLE
RM  .OHMM                  0.98 : MUD RESISTIVITY
RMT .DEGF                    82 : RM TEMPERATURE
RMF .OHMM                  0.57 : MUD FILTRATE RESISTIVITY
RMFT.DEGF                    50 : RMF TEMPERATURE
RMC .OHMM                  2.48 : MUD CAKE RESISTIVITY
RMCT.DEGF                    50 : RMC TEMPERATURE
RMFS.                      MEAS : RMF SOURCE
RMCS.                      MEAS : RMC SOURCE
RMBH.OHMM                  0.34 : MUD RESISTIVITY AT BHT
BHT .DEGF                   235 : BOTTOM HOLE TEMPERATURE
TIMC.                           : TIME CIRCULATION STOPPED
TIML.                           : TIME LOGGER ON BOTTOM
TMAX.DEGF                   235 : MAXIMUM RECORDED TEMPERATURE
UNIT.                      2844 : EQUIPMENT NUMBER
BASE.                     HOUMA : BASE LOCATION
ENG .                  CROTHERS : RECORDED BY
WIT .                   HUBBARD : WITNESSED BY
~Curve Information -----------------------------------------
DEPT.F          :DEPTH
ASN.OHMM        :
CILD.MMHO       :
ILD.OHMM        :
SP.MV           :
~ASCII ------------------------------------------------------
# ...
7609.50000        0.59949     2814.13844        0.36897     -131.91101
7610.00000        0.63767     2856.89160        0.37134     -129.52269
7610.50000        0.67589     2899.72492        0.37372     -127.13437
7611.00000        0.64474     2942.47808        0.37609     -124.74605
7611.50000        0.61364     2885.43227        0.37846     -122.35773
7612.00000        0.58249     2828.30631        0.38083     -119.96941
7612.50000        0.55138     2771.26050        0.38320     -117.58110
7613.00000        0.52024     2714.13454        0.38577     -116.36197
7613.50000        0.48913     2657.08873        0.38814     -115.19278
7614.00000        0.45798     2599.96277        0.39051     -112.80446
7614.50000        0.42688     2542.91696        0.39289     -120.97585
7615.00000        0.44506     2485.79100        0.39526     -125.06154
7615.50000        0.46324     2547.94283        0.39308     -129.14724
7616.00000        0.48142     2610.09467        0.39111     -130.07760
7616.50000        0.49960     2672.24650        0.38893     -131.01194
7617.00000        0.51779     2734.39834        0.38676     -131.94230
7617.50000        0.58202     2732.82313        0.38458     -132.87266
7618.00000        0.64624     2731.24791        0.38261     -133.80700
7618.50000        0.71047     2729.67270        0.38043     -134.73736
7619.00000        0.77470     2728.09748        0.37826     -133.87492
7619.50000        0.75178     2726.52227        0.37628     -133.01646
7620.00000        0.72885     2768.95479        0.37411     -132.15402
7620.50000        0.70593     2811.30715        0.37194     -131.73377
7621.00000        0.68300     2853.73967        0.36976     -131.29157
7621.50000        0.66008     2896.09203        0.36779     -130.43311
7622.00000        0.67261     2938.52456        0.36561     -129.57067
7622.50000        0.68510     2980.87692        0.36344     -130.11856
7623.00000        0.69763     3023.30944        0.36146     -130.67044
7623.50000        0.71016     2991.27350        0.35929     -131.21834
7624.00000        0.72265     2959.23755        0.35711     -131.77022
7624.50000        0.73518     2927.20161        0.35494     -132.31811
7625.00000        0.72490     2895.16566        0.35296     -132.86999
7625.50000        0.71462     2863.12972        0.35079     -133.41789
7626.00000        0.70435     2900.27169        0.34862     -133.96977
7626.50000        0.69407     2937.33351        0.34664     -132.11132
7627.00000        0.68379     2974.47548        0.34447     -130.25686
7627.50000        0.73518     3011.53730        0.34229     -128.39841
7628.00000        0.78656     3048.67927        0.34012     -126.53997
7628.50000        0.77628     3085.74109        0.33814     -124.68551
7629.00000        0.76601     3122.88306        0.33597     -122.82706
7629.50000        0.75573     3159.94488        0.39921     -113.50657
7630.00000        0.74545     2847.34959        0.46245     -104.18607
7630.50000        0.73518     2534.75430        0.52569      -94.86558
7631.00000        0.76217     2222.15901        0.58893      -85.54509
7631.50000        0.78921     1456.63280        0.65217      -80.97862
7632.00000        0.81621     1356.46102        0.71541      -76.22459
7632.50000        0.84320     1256.28923        0.77866      -78.71669
7633.00000        0.87024     1156.11745        0.84190      -81.20878
7633.50000        0.89723     1055.94567        0.90514      -83.70087
7634.00000        0.86324      955.77388        0.96838      -97.35027
7634.50000        0.82925     1100.08953        0.86304     -108.50758
7635.00000        0.79526     1244.40517        0.75751     -119.66489
7635.50000        0.76126     1388.72081        0.65217     -130.82219
7636.00000        0.72727     1753.47594        0.54684     -128.03548
7636.50000        0.70225     2350.72251        0.44130     -125.24876
7637.00000        0.67719     2583.21394        0.33597     -122.46204
7637.50000        0.65217     2787.64945        0.37806     -119.67532
7638.00000        0.62715     2992.08495        0.41996     -116.88860
7638.50000        0.60209     2901.93314        0.46206     -114.10188
7639.00000        0.57707     2811.78133        0.50395     -111.25938
7639.50000        0.61502     2721.62953        0.54605     -108.41290
7640.00000        0.65296     2631.47772        0.58794     -105.57041
7640.50000        0.69091     2271.00760        0.63004     -104.08282
7641.00000        0.72885     1805.85963        0.67194     -102.72791
7641.50000        0.76680     1802.68122        0.71798      -99.88541
7642.00000        0.80474     1799.50281        0.76423      -97.03893
7642.50000        0.84269     1796.32440        0.81028      -94.19644
7643.00000        0.88063     1793.14599        0.85632      -90.27029
7643.50000        0.91858     1789.96757        0.90257      -86.34813
7644.00000        0.95652     1691.15851        0.94862      -82.42198
7644.50000        0.95652     1592.26928        0.95850      -78.49584
7645.00000        0.95652     1493.46021        0.96838      -74.56969
7645.50000        0.95652     1394.65114        0.97826      -70.64753
7646.00000        0.95652     1295.76192        0.98814      -66.72138
7646.50000        0.99308     1196.95285        0.99802      -65.92667
7647.00000        1.02964     1172.29161        1.00790      -65.13195
7647.50000        1.06621     1147.55021        1.01779      -64.33724
7648.00000        1.10277     1122.88896        1.02767      -63.54252
7648.50000        1.13933     1098.22772        1.03755      -62.74781
7649.00000        1.17589     1073.48632        1.04743      -62.65826
7649.50000        1.21245     1048.82508        1.05731      -62.56871
7650.00000        1.23073     1024.16384        1.06225      -62.47917
7650.50000        1.24901      999.42244        1.06719      -62.38962
7651.00000        1.23451      974.76120        1.06285      -62.30008
7651.50000        1.22004      950.09996        1.05850      -62.21053
7652.00000        1.20553      925.35856        1.05395      -62.11700
7652.50000        1.19103      900.69732        1.04960      -62.02745
7653.00000        1.17656      934.15194        1.04526      -61.93791
7653.50000        1.16206      967.52640        1.04091      -61.84836
7654.00000        1.14755     1000.98102        1.03636      -61.75881
7654.50000        1.13308     1034.43565        1.03202      -61.66927
7655.00000        1.11858     1067.81011        1.02767      -61.57972
7655.50000        1.10407     1101.26473        1.02332      -62.11168
7656.00000        1.08960     1083.25676        1.01897      -62.64762
7656.50000        1.07510     1065.24878        1.01443      -62.91459
7657.00000        1.11510     1047.24080        1.01008      -65.21750
7657.50000        1.15514     1029.23283        1.00573      -67.25541
7658.00000        1.19514     1011.22485        1.00138      -69.29333
7658.50000        1.23518      993.21687        0.99684      -71.33124
7659.00000        1.27518      984.10502        0.99249      -73.37314
7659.50000        1.31522      975.20890        0.98814      -75.41105
7660.00000        1.35522      957.20092        0.98379      -77.44897
7660.50000        1.39526      976.46726        0.97945      -79.48688
7661.00000        1.36016      995.73359        0.97490      -81.52480
7661.50000        1.32510     1014.99993        0.97055      -79.53488
7662.00000        1.29000     1034.26627        0.96621      -77.54496
7662.50000        1.25494     1053.53260        0.96186      -76.54826
7663.00000        1.21984     1072.79894        0.95731      -75.55504
7663.50000        1.18478     1092.06527        0.95296      -73.56512
7664.00000        1.14968     1111.33161        0.94862      -71.57521
7664.50000        1.11462     1130.59795        0.94427      -69.58529
7665.00000        1.10909     1149.86428        0.93992      -67.59537
7665.50000        1.10356     1143.88028        0.93538      -65.60545
