~Version ---------------------------------------------------
VERS. 2.0 : CWLS LOG ASCII STANDARD - VERSION 2.0
WRAP. NO  : One line per depth step
DLM . SPACE : Column Data Section Delimiter
~Well ------------------------------------------------------
STRT.F         1790 : START DEPTH
STOP.F        12744 : STOP DEPTH
STEP.F          0.5 : STEP
NULL.       -999.25 : NULL VALUE
COMP.            AMOCO PRODUCTION COMPANY : COMPANY
WELL.             155847-SL862-011-862-30 : WELL
FLD .                  VERMILION BLOCK 15 : FIELD
CNTY.                           VERMILION : COUNTY
STAT.                           LOUISIANA : STATE
CTRY.                                 USA : COUNTRY
SEC .                                     : SECTION
TWP .                                     : TOWNSHIP
RGE .                                     : RANGE
LOC .                                     : LOCATION
EKB .F                    44.35 : ELEVATION KELLY BUSHING
EDF .F                     44.5 : ELEVATION DERRICK FLOOR
EGL .F                          : ELEVATION GROUND LEVEL
PDAT.                       BHF : PERMANENT DATUM
EPD .                           : ELEVATION PERMANENT DATUM
APD .                        33 : ABOVE PERMANENT DATUM
LMF .                       RKB : LOG MEASURED FROM
DMF .                       RKB : DRILLING MEASURED FROM
API .            17705200940000 : API NUMBER
UWI .                           : UWI NUMBER
DIGC.                     NthDS : DIGITIZING COMPANY
~Params ----------------------------------------------------
SRVC.                     WELEX : LOGGING COMPANY
LOG .                       IEL : LOG
DATE.                1977-09-15 : RUN DATE
RUN .                         1 : RUN NUMBER
TDD .F                    11102 : TOTAL DEPTH DRILLER
TDL .F                    11116 : TOTAL DEPTH LOGGER
BOTL.F                    11110 : BOTTOM LOGGED INTERVAL
TOPL.F                     1790 : TOP LOGGED INTERVAL
CSGS.IN                  13.375 : CASING SIZE
CSGD.F                     1800 : CASING DRILLER
CSGL.F                     1790 : CASING LOGGER
BS  .IN                   12.25 : BIT SIZE
MUD .             LIGNO LIGNITE : MUD TYPE
MUDD.                      10.5 : MUD DENSITY
MUDV.                        43 : MUD VISCOSITY
PH  .                      10.5 : MUD PH
FL  .                       6.2 : FLUID LOSS
MUDS.                       PIT : SOURCE OF SAMPLE
RM  .OHMM                  1.08 : MUD RESISTIVITY
RMT .DEGF                    82 : RM TEMPERATURE
RMF .OHMM                  0.93 : MUD FILTRATE RESISTIVITY
RMFT.DEGF                    82 : RMF TEMPERATURE
RMC .OHMM                  1.37 : MUD CAKE RESISTIVITY
RMCT.DEGF                    82 : RMC TEMPERATURE
RMFS.                      MEAS : RMF SOURCE
RMCS.                      MEAS : RMC SOURCE
RMBH.OHMM                  0.46 : MUD RESISTIVITY AT BHT
BHT .DEGF                   194 : BOTTOM HOLE TEMPERATURE
TIMC.                           : TIME CIRCULATION STOPPED
TIML.                           : TIME LOGGER ON BOTTOM
TMAX.DEGF                   194 : MAXIMUM RECORDED TEMPERATURE
UNIT.                      2844 : EQUIPMENT NUMBER
BASE.                     HOUMA : BASE LOCATION
ENG .          KNOLES, MOBERLEY : RECORDED BY
WIT .               MR. HUBBARD : WITNESSED BY
#
SRVC.                     WELEX : LOGGING COMPANY
LOG .                       IEL : LOG
DATE.                1977-10-19 : RUN DATE
RUN .                         2 : RUN NUMBER
TDD .F                    11644 : TOTAL DEPTH DRILLER
TDL .F                    11647 : TOTAL DEPTH LOGGER
BOTL.F                    11641 : BOTTOM LOGGED INTERVAL
TOPL.F                    11110 : TOP LOGGED INTERVAL
CSGS.IN                   9.625 : CASING SIZE
CSGD.F                    11110 : CASING DRILLER
CSGL.F                    11110 : CASING LOGGER
BS  .IN                     8.5 : BIT SIZE
MUD .             LIGNO LIGNITE : MUD TYPE
MUDD.                        16 : MUD DENSITY
MUDV.                        43 : MUD VISCOSITY
PH  .                        11 : MUD PH
FL  .                      17.4 : FLUID LOSS
MUDS.                       PIT : SOURCE OF SAMPLE
RM  .OHMM                  1.30 : MUD RESISTIVITY
RMT .DEGF                    72 : RM TEMPERATURE
RMF .OHMM                  0.91 : MUD FILTRATE RESISTIVITY
RMFT.DEGF                    72 : RMF TEMPERATURE
RMC .OHMM                  2.64 : MUD CAKE RESISTIVITY
RMCT.DEGF                    72 : RMC TEMPERATURE
RMFS.                      MEAS : RMF SOURCE
RMCS.                      MEAS : RMC SOURCE
RMBH.OHMM                  0.44 : MUD RESISTIVITY AT BHT
BHT .DEGF                  2189 : BOTTOM HOLE TEMPERATURE
TIMC.                           : TIME CIRCULATION STOPPED
TIML.                           : TIME LOGGER ON BOTTOM
TMAX.DEGF                   218 : MAXIMUM RECORDED TEMPERATURE
UNIT.                      2844 : EQUIPMENT NUMBER
BASE.                     HOUMA : BASE LOCATION
ENG .                    KNOLES : RECORDED BY
WIT .        HUBBARD, HENDERSON : WITNESSED BY
#
SRVC.                     WELEX : LOGGING COMPANY
LOG .                       IEL : LOG
DATE.                1977-12-07 : RUN DATE
RUN .                         3 : RUN NUMBER
TDD .F                    12749 : TOTAL DEPTH DRILLER
TDL .F                    12750 : TOTAL DEPTH LOGGER
BOTL.F                    12744 : BOTTOM LOGGED INTERVAL
TOPL.F                    11618 : TOP LOGGED INTERVAL
CSGS.IN                   7.625 : CASING SIZE
CSGD.F                    11626 : CASING DRILLER
CSGL.F                    11618 : CASING LOGGER
BS  .IN                     6.5 : BIT SIZE
MUD .             LIGNO LIGNITE : MUD TYPE
MUDD.                      16.4 : MUD DENSITY
MUDV.                        50 : MUD VISCOSITY
PH  .                      11.5 : MUD PH
FL  .                       3.5 : FLUID LOSS
MUDS.                       PIT : SOURCE OF SAMPLE
RM  .OHMM                  0.98 : MUD RESISTIVITY
RMT .DEGF                    82 : RM TEMPERATURE
RMF .OHMM                  0.57 : MUD FILTRATE RESISTIVITY
RMFT.DEGF                    50 : RMF TEMPERATURE
RMC .OHMM                  2.48 : MUD CAKE RESISTIVITY
RMCT.DEGF                    50 : RMC TEMPERATURE
RMFS.                      MEAS : RMF SOURCE
RMCS.                      MEAS : RMC SOURCE
RMBH.OHMM                  0.34 : MUD RESISTIVITY AT BHT
BHT .DEGF                   235 : BOTTOM HOLE TEMPERATURE
TIMC.                           : TIME CIRCULATION STOPPED
TIML.                           : TIME LOGGER ON BOTTOM
TMAX.DEGF                   235 : MAXIMUM RECORDED TEMPERATURE
UNIT.                      2844 : EQUIPMENT NUMBER
BASE.                     HOUMA : BASE LOCATION
ENG .                  CROTHERS : RECORDED BY
WIT .                   HUBBARD : WITNESSED BY
~Curve Information -----------------------------------------
DEPT.F          :DEPTH
ASN.OHMM        :
CILD.MMHO       :
ILD.OHMM        :
SP.MV           :
~ASCII ------------------------------------------------------
1790.00000        -999.25        -999.25        -999.25     -101.98909
1790.50000        -999.25        -999.25        -999.25     -101.09689
1791.00000        -999.25        -999.25        -999.25     -100.20470
1791.50000        -999.25        -999.25        -999.25      -98.42031
1792.00000        0.62558        -999.25        -999.25     -101.44026
1792.50000        0.66510        -999.25        -999.25     -104.46020
1793.00000        0.68486        -999.25        -999.25     -110.50407
1793.50000        0.70462     2357.30759        -999.25     -113.52401
1794.00000        0.72438     2436.18478        0.33454     -119.56389
1794.50000        0.74414     2594.01934        0.37394     -118.47251
1795.00000        0.78366     2672.89653        0.41333     -117.38112
1795.50000        0.76251     2751.85389        0.39728     -115.19835
1796.00000        0.74132     2830.73108        0.38123     -114.10697
1796.50000        0.72017     2705.21072        0.34914     -113.01558
1797.00000        0.74781     2579.77052        0.33309     -110.83281
1797.50000        0.76163     2454.25015        0.38040     -107.94870
1798.00000        0.77545     2328.72979        0.42772     -105.06458
1798.50000        0.78927     2203.28959        0.47503     -102.18047
1799.00000        0.79512     2077.76922        0.52235      -96.41224
1799.50000        0.78716     1901.51017        0.61698      -93.52812
1800.00000        0.78110     1725.25112        0.68635      -90.64401
1800.50000        0.83364     1555.07699        0.73348      -87.24886
1801.00000        0.88622     1378.81794        0.78061      -87.57971
1801.50000        0.93876     1356.85901        0.82774      -87.91056
1802.00000        0.94858     1334.90008        0.82102      -88.23742
1802.50000        0.95840     1312.94115        0.81411      -88.56827
1803.00000        0.96334     1301.85340        0.80739      -88.89911
1803.50000        0.96822     1309.74248        0.80068      -89.22996
1804.00000        0.97804     1328.58291        0.79377      -89.56081
1804.50000        0.98786     1347.34318        0.78705      -89.89166
1805.00000        0.97792     1366.10344        0.78034      -90.21852
1805.50000        0.95816     1384.94387        0.77342      -90.54937
1806.00000        0.93180     1403.70414        0.76671      -90.88021
1806.50000        0.90549     1422.46440        0.75999      -89.72907
1807.00000        0.87914     1441.30483        0.75308      -88.57793
1807.50000        0.85279     1460.06510        0.74637      -87.42679
1808.00000        0.82648     1432.09447        0.75602      -86.27564
1808.50000        0.80013     1404.12385        0.76568      -85.12450
1809.00000        0.79811     1376.15322        0.77533      -83.97336
1809.50000        0.79610     1348.18260        0.78499      -82.82221
1810.00000        0.79408     1320.21197        0.79464      -81.67107
1810.50000        0.79207     1292.24135        0.80430      -80.51993
1811.00000        0.80288     1307.47476        0.81395      -79.36879
1811.50000        0.81368     1322.70816        0.82361      -80.69958
1812.00000        0.82449     1337.94157        0.83326      -82.03435
1812.50000        0.83530     1353.17498        0.84292      -83.36515
1813.00000        0.84610     1368.32823        0.85257      -84.69594
1813.50000        0.85691     1383.56164        0.86223      -86.03071
1814.00000        0.86771     1398.79505        0.83579      -87.36151
1814.50000        0.87852     1414.02846        0.80915      -87.22226
1815.00000        0.85166     1429.26187        0.78271      -87.07903
1815.50000        0.82479     1496.11568        0.75628      -86.93978
1816.00000        0.79793     1563.04965        0.72964      -86.80054
1816.50000        0.77106     1629.90346        0.70320      -86.65731
1817.00000        0.74420     1696.75727        0.67677      -86.51806
1817.50000        0.73954     1763.69124        0.65013      -86.37483
1818.00000        0.73493     1830.54505        0.62369      -86.23558
1818.50000        0.73027     1804.17754        0.59726      -86.09634
1819.00000        0.72561     1777.81003        0.57062      -85.95311
1819.50000        0.72100     1751.44253        0.54418      -85.81386
1820.00000        0.71634     1725.07502        0.55187      -87.29604
1820.50000        0.75180     1698.70751        0.55955      -90.26438
1821.00000        0.78726     1672.34001        0.56723      -91.75054
1821.50000        0.82272     1645.97250        0.57491      -93.23272
1822.00000        0.85818     1619.60499        0.58260      -94.71888
1822.50000        0.89364     1593.23749        0.59028      -96.20106
1823.00000        0.87289     1566.86998        0.59796      -95.29293
1823.50000        0.85214     1593.00459        0.60564      -94.38879
1824.00000        0.83139     1619.13920        0.61333      -93.48066
1824.50000        0.81064     1645.27381        0.62101      -92.57651
1825.00000        0.78649     1671.40843        0.60818      -91.66839
1825.50000        0.73821     1721.34934        0.59555      -90.76424
1826.00000        0.71407     1771.29026        0.58272      -89.85611
1826.50000        0.68988     1821.31133        0.56989      -88.94799
1827.00000        0.66574     1921.19316        0.55726      -88.04384
1827.50000        0.64160     1971.13407        0.54443      -87.13571
1828.00000        0.61746     2021.15515        0.53180      -86.23157
1828.50000        0.59331     2071.09606        0.51897      -85.32344
1829.00000        0.60668     2121.03698        0.50614      -84.41930
1829.50000        0.62006     2091.06245        0.49351      -83.51117
1830.00000        0.63343     2061.08793        0.48068      -86.75819
1830.50000        0.64680     2031.11341        0.49230      -90.00919
1831.00000        0.66017     2001.13889        0.50393      -93.25621
1831.50000        0.88895     1971.16436        0.51556      -96.50324
1832.00000        0.90863     1941.18984        0.52719      -99.75026
1832.50000        0.92831     1911.21532        0.53881     -103.00126
1833.00000        0.91742     1881.24080        0.55044     -106.24828
1833.50000        0.90654     1851.26627        0.56207     -104.90592
1834.00000        0.89565     1836.00025        0.57369     -103.55957
1834.50000        0.88476     1821.29175        0.58532     -102.21720
1835.00000        0.87387     1791.31723        0.59695     -100.87085
1835.50000        0.86298     1761.34271        0.58787      -99.52848
1836.00000        0.78203     1835.65480        0.57859      -98.18213
1836.50000        0.75781     1872.77077        0.56951      -96.83976
1837.00000        0.73363     1909.96690        0.56023      -95.49341
1837.50000        0.70941     1947.08287        0.55114      -94.15104
1838.00000        0.68523     1984.27900        0.54187      -92.80469
1838.50000        0.66101     2021.39497        0.53278      -91.46232
1839.00000        0.63682     2058.59110        0.51442      -90.11597
1839.50000        0.61260     2031.18156        0.50514      -88.77360
1840.00000        0.58842     2003.77203        0.49647      -89.40324
1840.50000        0.63177     1976.36249        0.47985      -90.03288
1841.00000        0.67512     1949.03312        0.45620      -90.66251
1841.50000        0.65733     1921.62358        0.48755      -91.29613
1842.00000        0.63953     1894.21405        0.51890      -91.92577
1842.50000        0.62174     1866.80452        0.55025      -92.55540
1843.00000        0.60395     1772.30449        0.58160      -93.18504
1843.50000        0.79325     1728.56055        0.61295      -90.46824
1844.00000        0.72220     1677.80446        0.64430      -87.74747
1844.50000        0.78133     1583.30444        0.67565      -85.03067
1845.00000        0.83454     1488.80441        0.70700      -82.31388
1845.50000        0.84831     1394.30438        0.73835      -79.59310
1846.00000        0.86207     1407.77436        0.76970      -76.87631
