~Version ---------------------------------------------------
VERS. 2.0 : CWLS LOG ASCII STANDARD - VERSION 2.0
WRAP. NO  : One line per depth step
DLM . SPACE : Column Data Section Delimiter
~Well ------------------------------------------------------
STRT.F         1790 : START DEPTH
STOP.F        12744 : STOP DEPTH
STEP.F          0.5 : STEP
NULL.       -999.25 : NULL VALUE
COMP.            AMOCO PRODUCTION COMPANY : COMPANY
WELL.             155847-SL862-011-862-30 : WELL
FLD .                  VERMILION BLOCK 15 : FIELD
CNTY.                           VERMILION : COUNTY
STAT.                           LOUISIANA : STATE
CTRY.                                 USA : COUNTRY
SEC .                                     : SECTION
TWP .                                     : TOWNSHIP
RGE .                                     : RANGE
LOC .                                     : LOCATION
EKB .F                    44.35 : ELEVATION KELLY BUSHING
EDF .F                     44.5 : ELEVATION DERRICK FLOOR
EGL .F                          : ELEVATION GROUND LEVEL
PDAT.                       BHF : PERMANENT DATUM
EPD .                           : ELEVATION PERMANENT DATUM
APD .                        33 : ABOVE PERMANENT DATUM
LMF .                       RKB : LOG MEASURED FROM
DMF .                       RKB : DRILLING MEASURED FROM
API .            17705200940000 : API NUMBER
UWI .                           : UWI NUMBER
DIGC.                     NthDS : DIGITIZING COMPANY
~Params ----------------------------------------------------
SRVC.                     WELEX : LOGGING COMPANY
LOG .                       IEL : LOG
DATE.                1977-09-15 : RUN DATE
RUN .                         1 : RUN NUMBER
TDD .F                    11102 : TOTAL DEPTH DRILLER
TDL .F                    11116 : TOTAL DEPTH LOGGER
BOTL.F                    11110 : BOTTOM LOGGED INTERVAL
TOPL.F                     1790 : TOP LOGGED INTERVAL
CSGS.IN                  13.375 : CASING SIZE
CSGD.F                     1800 : CASING DRILLER
CSGL.F                     1790 : CASING LOGGER
BS  .IN                   12.25 : BIT SIZE
MUD .             LIGNO LIGNITE : MUD TYPE
MUDD.                      10.5 : MUD DENSITY
MUDV.                        43 : MUD VISCOSITY
PH  .                      10.5 : MUD PH
FL  .                       6.2 : FLUID LOSS
MUDS.                       PIT : SOURCE OF SAMPLE
RM  .OHMM                  1.08 : MUD RESISTIVITY
RMT .DEGF                    82 : RM TEMPERATURE
RMF .OHMM                  0.93 : MUD FILTRATE RESISTIVITY
RMFT.DEGF                    82 : RMF TEMPERATURE
RMC .OHMM                  1.37 : MUD CAKE RESISTIVITY
RMCT.DEGF                    82 : RMC TEMPERATURE
RMFS.                      MEAS : RMF SOURCE
RMCS.                      MEAS : RMC SOURCE
RMBH.OHMM                  0.46 : MUD RESISTIVITY AT BHT
BHT .DEGF                   194 : BOTTOM HOLE TEMPERATURE
TIMC.                           : TIME CIRCULATION STOPPED
TIML.                           : TIME LOGGER ON BOTTOM
TMAX.DEGF                   194 : MAXIMUM RECORDED TEMPERATURE
UNIT.                      2844 : EQUIPMENT NUMBER
BASE.                     HOUMA : BASE LOCATION
ENG .          KNOLES, MOBERLEY : RECORDED BY
WIT .               MR. HUBBARD : WITNESSED BY
#
SRVC.                     WELEX : LOGGING COMPANY
LOG .                       IEL : LOG
DATE.                1977-10-19 : RUN DATE
RUN .                         2 : RUN NUMBER
TDD .F                    11644 : TOTAL DEPTH DRILLER
TDL .F                    11647 : TOTAL DEPTH LOGGER
BOTL.F                    11641 : BOTTOM LOGGED INTERVAL
TOPL.F                    11110 : TOP LOGGED INTERVAL
CSGS.IN                   9.625 : CASING SIZE
CSGD.F                    11110 : CASING DRILLER
CSGL.F                    11110 : CASING LOGGER
BS  .IN                     8.5 : BIT SIZE
MUD .             LIGNO LIGNITE : MUD TYPE
MUDD.                        16 : MUD DENSITY
MUDV.                        43 : MUD VISCOSITY
PH  .                        11 : MUD PH
FL  .                      17.4 : FLUID LOSS
MUDS.                       PIT : SOURCE OF SAMPLE
RM  .OHMM                  1.30 : MUD RESISTIVITY
RMT .DEGF                    72 : RM TEMPERATURE
RMF .OHMM                  0.91 : MUD FILTRATE RESISTIVITY
RMFT.DEGF                    72 : RMF TEMPERATURE
RMC .OHMM                  2.64 : MUD CAKE RESISTIVITY
RMCT.DEGF                    72 : RMC TEMPERATURE
RMFS.                      MEAS : RMF SOURCE
RMCS.                      MEAS : RMC SOURCE
RMBH.OHMM                  0.44 : MUD RESISTIVITY AT BHT
BHT .DEGF                  2189 : BOTTOM HOLE TEMPERATURE
TIMC.                           : TIME CIRCULATION STOPPED
TIML.                           : TIME LOGGER ON BOTTOM
TMAX.DEGF                   218 : MAXIMUM RECORDED TEMPERATURE
UNIT.                      2844 : EQUIPMENT NUMBER
BASE.                     HOUMA : BASE LOCATION
ENG .                    KNOLES : RECORDED BY
WIT .        HUBBARD, HENDERSON : WITNESSED BY
#
SRVC.                     WELEX : LOGGING COMPANY
LOG .                       IEL : LOG
DATE.                1977-12-07 : RUN DATE
RUN .                         3 : RUN NUMBER
TDD .F                    12749 : TOTAL DEPTH DRILLER
TDL .F                    12750 : TOTAL DEPTH LOGGER
BOTL.F                    12744 : BOTTOM LOGGED INTERVAL
TOPL.F                    11618 : TOP LOGGED INTERVAL
CSGS.IN                   7.625 : CASING SIZE
CSGD.F                    11626 : CASING DRILLER
CSGL.F                    11618 : CASING LOGGER
BS  .IN                     6.5 : BIT SIZE
MUD .             LIGNO LIGNITE : MUD TYPE
MUDD.                      16.4 : MUD DENSITY
MUDV.                        50 : MUD VISCOSITY
PH  .                      11.5 : MUD PH
FL  .                       3.5 : FLUID LOSS
MUDS.                       PIT : SOURCE OF SAMPLE
RM  .OHMM                  0.98 : MUD RESISTIVITY
RMT .DEGF                    82 : RM TEMPERATURE
RMF .OHMM                  0.57 : MUD FILTRATE RESISTIVITY
RMFT.DEGF                    50 : RMF TEMPERATURE
RMC .OHMM                  2.48 : MUD CAKE RESISTIVITY
RMCT.DEGF                    50 : RMC TEMPERATURE
RMFS.                      MEAS : RMF SOURCE
RMCS.                      MEAS : RMC SOURCE
RMBH.OHMM                  0.34 : MUD RESISTIVITY AT BHT
BHT .DEGF                   235 : BOTTOM HOLE TEMPERATURE
TIMC.                           : TIME CIRCULATION STOPPED
TIML.                           : TIME LOGGER ON BOTTOM
TMAX.DEGF                   235 : MAXIMUM RECORDED TEMPERATURE
UNIT.                      2844 : EQUIPMENT NUMBER
BASE.                     HOUMA : BASE LOCATION
ENG .                  CROTHERS : RECORDED BY
WIT .                   HUBBARD : WITNESSED BY
~Curve Information -----------------------------------------
DEPT.F          :DEPTH
ASN.OHMM        :
CILD.MMHO       :
ILD.OHMM        :
SP.MV           :
~ASCII ------------------------------------------------------
# ...
6875.00000        1.02055     1392.96330        0.71657      -93.55002
6875.50000        1.04312     1389.94521        0.72327      -94.15108
6876.00000        1.06564     1387.00728        0.72978      -94.75214
6876.50000        1.08820     1383.98919        0.73629      -95.35321
6877.00000        1.11073     1381.05125        0.74300      -95.95427
6877.50000        1.13329     1378.03316        0.74951      -96.55533
6878.00000        1.15582     1375.09523        0.74162      -97.15640
6878.50000        1.07791     1399.65211        0.73373      -97.75746
6879.00000        1.00000     1424.28916        0.72584      -98.35852
6879.50000        0.92209     1448.84604        0.71795      -98.95959
6880.00000        0.84418     1473.40293        0.71006      -96.17433
6880.50000        0.85534     1497.95981        0.70217      -93.38907
6881.00000        0.86655     1522.59685        0.69428      -93.69134
6881.50000        0.87771     1547.15374        0.68639      -93.99361
6882.00000        0.88888     1571.71062        0.67850      -94.29588
6882.50000        0.90008     1596.26750        0.67061      -94.59815
6883.00000        0.91124     1620.90455        0.66272      -94.90042
6883.50000        0.88430     1645.46143        0.65483      -95.20269
6884.00000        0.85732     1670.01832        0.64694      -95.50496
6884.50000        0.83037     1694.57520        0.63905      -95.80723
6885.00000        0.80343     1719.21224        0.63116      -93.12156
6885.50000        0.77645     1743.76913        0.62327      -90.43590
6886.00000        0.74951     1768.32601        0.61538      -87.75024
6886.50000        0.72256     1740.29806        0.60749      -85.06457
6887.00000        0.69558     1712.27010        0.59961      -82.37891
6887.50000        0.66864     1684.24215        0.59172      -79.69325
6888.00000        0.64170     1656.21420        0.60868      -77.00758
6888.50000        0.61471     1628.18624        0.62544      -74.32192
6889.00000        0.58777     1600.15829        0.64241      -84.08598
6889.50000        0.61538     2041.06524        0.65937     -105.10806
6890.00000        0.64300     2213.43682        0.67633     -116.36609
6890.50000        0.67061     2385.80840        0.69310     -127.62411
6891.00000        0.65822     2558.17998        0.71006     -138.88214
6891.50000        0.64580     2858.83523        0.69882     -138.38763
6892.00000        0.63341     2987.11892        0.68757     -137.89311
6892.50000        0.62103     3115.40260        0.67633     -137.39860
6893.00000        0.60864     2981.16289        0.66489     -136.90409
6893.50000        0.59621     2910.74922        0.65365     -136.40958
6894.00000        0.58383     2846.92319        0.64241     -135.91507
6894.50000        0.60592     2712.68348        0.63116     -135.42055
6895.00000        0.62801     2578.44378        0.63826     -134.92604
6895.50000        0.65010     2510.33592        0.64556     -131.98142
6896.00000        0.67219     2442.22806        0.65266     -129.03681
6896.50000        0.69428     2353.03817        0.65976     -126.09219
6897.00000        0.68639     2263.92844        0.66706     -123.14757
6897.50000        0.67850     2174.73855        0.67416     -120.20295
6898.00000        0.67061     2085.62882        0.68146     -117.25834
6898.50000        0.67258     1996.43893        0.68856     -114.31372
6899.00000        0.67456     1907.32920        0.69566     -111.36910
6899.50000        0.67653     1818.13931        0.70296     -108.42448
6900.00000        0.67850     1729.02958        0.71006     -105.17596
6900.50000        0.68713     1935.88483        0.72139     -136.38889
6901.00000        0.68911     2156.35229        0.71010     -134.93426
6901.50000        0.69109     2396.85971        0.69881     -133.47564
6902.00000        0.69307     2637.36713        0.68733     -132.73679
6902.50000        0.66139     2745.61086        0.67604     -132.01702
6903.00000        0.62970     2853.85459        0.66475     -130.56239
6903.50000        0.59802     3070.34204        0.65347     -129.10377
6904.00000        0.56634     3040.17663        0.64218     -130.07932
6904.50000        0.55525     3010.25016        0.63089     -131.05885
6905.00000        0.54416     2950.15829        0.61960     -132.03440
6905.50000        0.53307     2890.06641        0.60812     -133.01394
6906.00000        0.52198     2829.97453        0.59683     -134.96902
6906.50000        0.51089     2857.09653        0.58554     -135.94458
6907.00000        0.52673     2884.13837        0.57426     -136.92411
6907.50000        0.54257     2911.26036        0.56297     -137.89966
6908.00000        0.55842     2938.30220        0.55168     -136.45158
6908.50000        0.57426     2965.42420        0.54040     -135.15424
6909.00000        0.59010     2992.46604        0.52891     -132.40882
6909.50000        0.60594     3019.58804        0.51762     -129.66340
6910.00000        0.57030     3046.62987        0.50634     -126.91797
6910.50000        0.53465     2867.66099        0.49505     -124.17255
6911.00000        0.49901     2688.61195        0.49505     -121.42713
6911.50000        0.50863     2509.64307        0.49505     -118.68171
6912.00000        0.51826     2337.32746        0.49505     -115.93629
6912.50000        0.52788     2165.01184        0.49505     -113.19086
6913.00000        0.53747     1992.69623        0.49505     -110.44544
6913.50000        0.54709     1820.38061        0.53465      -97.08611
6914.00000        0.55671     1648.06499        0.57426      -88.53741
6914.50000        0.56634     1475.74938        0.61386      -66.62937
6915.00000        0.60396     1371.56960        0.65347      -70.89564
6915.50000        0.64158     1317.23175        0.69307      -75.16190
6916.00000        0.67921     1314.15098        0.73267      -79.42816
6916.50000        0.71683     1360.99229        0.77228      -83.69442
6917.00000        0.75446     1407.75344        0.81188      -87.96068
6917.50000        0.79208     1454.51460        0.74594      -96.49320
6918.00000        0.77069     1501.35591        0.67980     -100.75947
6918.50000        0.74931     1548.11706        0.61386     -105.02573
6919.00000        0.72792     1760.56854        0.54792     -109.29199
6919.50000        0.70653     1973.02003        0.48178     -103.37537
6920.00000        0.68515     2069.23978        0.41584      -97.46274
6920.50000        0.68713     2165.45954        0.45802      -94.59498
6921.00000        0.68911     2261.67930        0.50000      -91.54613
6921.50000        0.69109     2151.80817        0.54218      -85.62951
6922.00000        0.69307     2041.85689        0.58416      -79.71290
6922.50000        0.69505     1931.98577        0.62634      -73.80027
6923.00000        0.69703     1822.03449        0.66832      -67.88365
6923.50000        0.69901     1712.16337        0.71049      -66.02664
6924.00000        0.70099     1657.23892        0.75248      -64.17362
6924.50000        0.71525     1602.21209        0.75505      -62.31661
6925.00000        0.72950     1492.34096        0.75743      -62.94556
6925.50000        0.74376     1438.90235        0.76000      -63.57451
6926.00000        0.75802     1385.54390        0.76238      -64.20346
6926.50000        0.77228     1332.10528        0.76495      -64.83639
6927.00000        0.78653     1322.11329        0.76733      -65.46534
6927.50000        0.80079     1312.12129        0.76990      -66.09429
6928.00000        0.81505     1302.12930        0.77228      -66.72324
6928.50000        0.82931     1292.13730        0.77228      -66.10125
6929.00000        0.84356     1320.22122        0.77228      -65.47925
6929.50000        0.81715     1348.30513        0.77228      -64.85725
6930.00000        0.79077     1376.38905        0.77228      -64.23127
6930.50000        0.76436     1404.47296        0.77228      -63.60927
6931.00000        0.77453     1392.95793        0.77228      -62.98728
