~Version ---------------------------------------------------
VERS. 2.0 : CWLS LOG ASCII STANDARD - VERSION 2.0
WRAP. NO  : One line per depth step
DLM . SPACE : Column Data Section Delimiter
~Well ------------------------------------------------------
STRT.F         1790 : START DEPTH
STOP.F        12744 : STOP DEPTH
STEP.F          0.5 : STEP
NULL.       -999.25 : NULL VALUE
COMP.            AMOCO PRODUCTION COMPANY : COMPANY
WELL.             155847-SL862-011-862-30 : WELL
FLD .                  VERMILION BLOCK 15 : FIELD
CNTY.                           VERMILION : COUNTY
STAT.                           LOUISIANA : STATE
CTRY.                                 USA : COUNTRY
SEC .                                     : SECTION
TWP .                                     : TOWNSHIP
RGE .                                     : RANGE
LOC .                                     : LOCATION
EKB .F                    44.35 : ELEVATION KELLY BUSHING
EDF .F                     44.5 : ELEVATION DERRICK FLOOR
EGL .F                          : ELEVATION GROUND LEVEL
PDAT.                       BHF : PERMANENT DATUM
EPD .                           : ELEVATION PERMANENT DATUM
APD .                        33 : ABOVE PERMANENT DATUM
LMF .                       RKB : LOG MEASURED FROM
DMF .                       RKB : DRILLING MEASURED FROM
API .            17705200940000 : API NUMBER
UWI .                           : UWI NUMBER
DIGC.                     NthDS : DIGITIZING COMPANY
~Params ----------------------------------------------------
SRVC.                     WELEX : LOGGING COMPANY
LOG .                       IEL : LOG
DATE.                1977-09-15 : RUN DATE
RUN .                         1 : RUN NUMBER
TDD .F                    11102 : TOTAL DEPTH DRILLER
TDL .F                    11116 : TOTAL DEPTH LOGGER
BOTL.F                    11110 : BOTTOM LOGGED INTERVAL
TOPL.F                     1790 : TOP LOGGED INTERVAL
CSGS.IN                  13.375 : CASING SIZE
CSGD.F                     1800 : CASING DRILLER
CSGL.F                     1790 : CASING LOGGER
BS  .IN                   12.25 : BIT SIZE
MUD .             LIGNO LIGNITE : MUD TYPE
MUDD.                      10.5 : MUD DENSITY
MUDV.                        43 : MUD VISCOSITY
PH  .                      10.5 : MUD PH
FL  .                       6.2 : FLUID LOSS
MUDS.                       PIT : SOURCE OF SAMPLE
RM  .OHMM                  1.08 : MUD RESISTIVITY
RMT .DEGF                    82 : RM TEMPERATURE
RMF .OHMM                  0.93 : MUD FILTRATE RESISTIVITY
RMFT.DEGF                    82 : RMF TEMPERATURE
RMC .OHMM                  1.37 : MUD CAKE RESISTIVITY
RMCT.DEGF                    82 : RMC TEMPERATURE
RMFS.                      MEAS : RMF SOURCE
RMCS.                      MEAS : RMC SOURCE
RMBH.OHMM                  0.46 : MUD RESISTIVITY AT BHT
BHT .DEGF                   194 : BOTTOM HOLE TEMPERATURE
TIMC.                           : TIME CIRCULATION STOPPED
TIML.                           : TIME LOGGER ON BOTTOM
TMAX.DEGF                   194 : MAXIMUM RECORDED TEMPERATURE
UNIT.                      2844 : EQUIPMENT NUMBER
BASE.                     HOUMA : BASE LOCATION
ENG .          KNOLES, MOBERLEY : RECORDED BY
WIT .               MR. HUBBARD : WITNESSED BY
#
SRVC.                     WELEX : LOGGING COMPANY
LOG .                       IEL : LOG
DATE.                1977-10-19 : RUN DATE
RUN .                         2 : RUN NUMBER
TDD .F                    11644 : TOTAL DEPTH DRILLER
TDL .F                    11647 : TOTAL DEPTH LOGGER
BOTL.F                    11641 : BOTTOM LOGGED INTERVAL
TOPL.F                    11110 : TOP LOGGED INTERVAL
CSGS.IN                   9.625 : CASING SIZE
CSGD.F                    11110 : CASING DRILLER
CSGL.F                    11110 : CASING LOGGER
BS  .IN                     8.5 : BIT SIZE
MUD .             LIGNO LIGNITE : MUD TYPE
MUDD.                        16 : MUD DENSITY
MUDV.                        43 : MUD VISCOSITY
PH  .                        11 : MUD PH
FL  .                      17.4 : FLUID LOSS
MUDS.                       PIT : SOURCE OF SAMPLE
RM  .OHMM                  1.30 : MUD RESISTIVITY
RMT .DEGF                    72 : RM TEMPERATURE
RMF .OHMM                  0.91 : MUD FILTRATE RESISTIVITY
RMFT.DEGF                    72 : RMF TEMPERATURE
RMC .OHMM                  2.64 : MUD CAKE RESISTIVITY
RMCT.DEGF                    72 : RMC TEMPERATURE
RMFS.                      MEAS : RMF SOURCE
RMCS.                      MEAS : RMC SOURCE
RMBH.OHMM                  0.44 : MUD RESISTIVITY AT BHT
BHT .DEGF                  2189 : BOTTOM HOLE TEMPERATURE
TIMC.                           : TIME CIRCULATION STOPPED
TIML.                           : TIME LOGGER ON BOTTOM
TMAX.DEGF                   218 : MAXIMUM RECORDED TEMPERATURE
UNIT.                      2844 : EQUIPMENT NUMBER
BASE.                     HOUMA : BASE LOCATION
ENG .                    KNOLES : RECORDED BY
WIT .        HUBBARD, HENDERSON : WITNESSED BY
#
SRVC.                     WELEX : LOGGING COMPANY
LOG .                       IEL : LOG
DATE.                1977-12-07 : RUN DATE
RUN .                         3 : RUN NUMBER
TDD .F                    12749 : TOTAL DEPTH DRILLER
TDL .F                    12750 : TOTAL DEPTH LOGGER
BOTL.F                    12744 : BOTTOM LOGGED INTERVAL
TOPL.F                    11618 : TOP LOGGED INTERVAL
CSGS.IN                   7.625 : CASING SIZE
CSGD.F                    11626 : CASING DRILLER
CSGL.F                    11618 : CASING LOGGER
BS  .IN                     6.5 : BIT SIZE
MUD .             LIGNO LIGNITE : MUD TYPE
MUDD.                      16.4 : MUD DENSITY
MUDV.                        50 : MUD VISCOSITY
PH  .                      11.5 : MUD PH
FL  .                       3.5 : FLUID LOSS
MUDS.                       PIT : SOURCE OF SAMPLE
RM  .OHMM                  0.98 : MUD RESISTIVITY
RMT .DEGF                    82 : RM TEMPERATURE
RMF .OHMM                  0.57 : MUD FILTRATE RESISTIVITY
RMFT.DEGF                    50 : RMF TEMPERATURE
RMC .OHMM                  2.48 : MUD CAKE RESISTIVITY
RMCT.DEGF                    50 : RMC TEMPERATURE
RMFS.                      MEAS : RMF SOURCE
RMCS.                      MEAS : RMC SOURCE
RMBH.OHMM                  0.34 : MUD RESISTIVITY AT BHT
BHT .DEGF                   235 : BOTTOM HOLE TEMPERATURE
TIMC.                           : TIME CIRCULATION STOPPED
TIML.                           : TIME LOGGER ON BOTTOM
TMAX.DEGF                   235 : MAXIMUM RECORDED TEMPERATURE
UNIT.                      2844 : EQUIPMENT NUMBER
BASE.                     HOUMA : BASE LOCATION
ENG .                  CROTHERS : RECORDED BY
WIT .                   HUBBARD : WITNESSED BY
~Curve Information -----------------------------------------
DEPT.F          :DEPTH
ASN.OHMM        :
CILD.MMHO       :
ILD.OHMM        :
SP.MV           :
~ASCII ------------------------------------------------------
# ...
11214.50000        1.46221      857.95770        1.16016      -42.91111
11215.00000        1.41617      879.94947        1.13866      -43.26378
11215.50000        1.36359      901.86108        1.11716      -43.62045
11216.00000        1.31097      923.77269        1.09566      -43.97711
11216.50000        1.25838      945.76446        1.07396      -44.33377
11217.00000        1.25917      967.67607        1.05247      -44.69044
11217.50000        1.25996      989.58768        1.03097      -44.03914
11218.00000        1.26075     1011.57945        1.00947      -43.39184
11218.50000        1.26154     1033.49106        0.98797      -42.74055
11219.00000        1.26233     1055.40267        0.96647      -42.08925
11219.50000        1.24379     1077.39444        0.96864      -41.44195
11220.00000        1.22525     1099.30605        0.97081      -40.79066
11220.50000        1.20671     1102.78091        0.97298      -40.14335
11221.00000        1.18817     1106.25576        0.97515      -39.49206
11221.50000        1.16962     1109.73061        0.97751      -38.84077
11222.00000        1.15108     1113.12530        0.97968      -38.19346
11222.50000        1.13254     1116.60016        0.98185      -37.54217
11223.00000        1.11400     1120.07501        0.98402      -37.70361
11223.50000        1.09546     1123.54986        0.98619      -37.86506
11224.00000        1.07692     1108.90860        0.98836      -38.02651
11224.50000        1.09763     1094.18718        0.99053      -38.18795
11225.00000        1.10799     1079.54591        0.99162      -38.34940
11225.50000        1.11834     1064.90465        0.99270      -38.51085
11226.00000        1.13905     1050.18322        0.99487      -38.67229
11226.50000        1.15976     1035.54196        0.99724      -38.83374
11227.00000        1.15254     1020.90069        0.99941      -38.99518
11227.50000        1.14529     1006.17927        1.00158      -39.15663
11228.00000        1.13807      991.53800        1.00375      -39.31808
11228.50000        1.13085      976.89674        1.00592      -39.47952
11229.00000        1.12359      962.17532        1.03274      -39.64097
11229.50000        1.11637      947.53405        1.05976      -39.80242
11230.00000        1.14793      931.53007        1.08659      -40.12531
11230.50000        1.17949      915.52609        1.11341      -40.28676
11231.00000        1.21105      899.52211        1.14043      -40.44820
11231.50000        1.24260      883.51813        1.16726      -40.60965
11232.00000        1.27416      867.51414        1.19428      -40.77109
11232.50000        1.30572      851.51016        1.22110      -40.93254
11233.00000        1.33728      835.50618        1.24793      -41.09399
11233.50000        1.36884      819.50220        1.27495      -41.25543
11234.00000        1.34158      803.49822        1.30177      -41.41688
11234.50000        1.31432      787.49424        1.27495      -41.57833
11235.00000        1.28706      771.49026        1.24793      -41.73977
11235.50000        1.25980      808.95287        1.22110      -41.90122
11236.00000        1.23254      846.33532        1.19428      -42.06267
11236.50000        1.20533      883.79794        1.16726      -42.22411
11237.00000        1.17807      921.26055        1.14043      -42.38556
11237.50000        1.15081      958.64300        1.11341      -42.37569
11238.00000        1.12355      996.10562        1.08659      -42.36184
11238.50000        1.09629     1033.56823        1.05976      -42.35198
11239.00000        1.06903     1070.95069        1.03274      -42.34211
11239.50000        1.08008     1108.41330        1.00592      -42.32826
11240.00000        1.09112     1100.42530        1.00375      -42.31839
11240.50000        1.10217     1092.43730        1.00158      -42.30853
11241.00000        1.11321     1084.44930        0.99941      -42.29468
11241.50000        1.12426     1076.46130        0.99724      -42.28481
11242.00000        1.11558     1068.47330        0.99487      -42.27495
11242.50000        1.10690     1060.48530        0.99270      -42.26110
11243.00000        1.09822     1052.49730        0.99053      -42.25123
11243.50000        1.08955     1044.50930        0.98836      -42.24136
11244.00000        1.08087     1054.55726        0.98619      -42.22751
11244.50000        1.08481     1064.60521        0.98402      -42.21765
11245.00000        1.08876     1074.65317        0.98185      -42.20778
11245.50000        1.09270     1084.70113        0.97968      -42.19393
11246.00000        1.09665     1094.74909        0.97751      -42.18407
11246.50000        1.10059     1104.79704        0.97515      -42.17420
11247.00000        1.10454     1114.84500        0.97298      -42.16035
11247.50000        1.10848     1124.89296        0.97081      -42.15048
11248.00000        1.10454     1117.86688        0.96864      -42.14062
11248.50000        1.10059     1110.92096        0.96647      -42.12677
11249.00000        1.09665     1103.89487        0.96805      -42.11690
11249.50000        1.09270     1096.94895        0.96943      -42.10704
11250.00000        1.08876     1089.92287        0.97101      -42.09319
11250.50000        1.08481     1082.97695        0.97258      -42.08332
11251.00000        1.10584     1075.95086        0.97396      -42.07345
11251.50000        1.12690     1069.00494        0.97554      -42.05960
11252.00000        1.14793     1061.97886        0.97712      -42.04974
11252.50000        1.16895     1055.03294        0.97870      -42.01995
11253.00000        1.19002     1048.00685        0.98008      -41.99017
11253.50000        1.21105     1041.06093        0.98166      -41.96436
11254.00000        1.19964     1034.03485        0.98323      -41.93458
11254.50000        1.18824     1027.08893        0.98462      -41.90479
11255.00000        1.17684     1020.06284        0.98619      -41.87501
11255.50000        1.16544     1013.11692        0.97811      -41.84522
11256.00000        1.15408     1030.61974        0.97022      -41.81942
11256.50000        1.14268     1048.04240        0.96213      -41.78963
11257.00000        1.13128     1065.54522        0.95404      -41.75985
11257.50000        1.11988     1083.04804        0.94596      -41.73006
11258.00000        1.10848     1100.47070        0.93807      -41.70027
11258.50000        1.09400     1117.97352        0.92998      -41.67049
11259.00000        1.07957     1135.47634        0.92189      -41.64469
11259.50000        1.06509     1152.89900        0.91381      -41.61490
11260.00000        1.05061     1170.40182        0.90592      -41.58511
11260.50000        1.03617     1187.82449        0.89783      -41.55533
11261.00000        1.02170     1205.32731        0.88974      -41.52554
11261.50000        1.00722     1222.83013        0.88166      -41.49974
11262.00000        0.99278     1240.25279        0.87377      -41.46995
11262.50000        0.97830     1257.75561        0.86568      -41.44017
11263.00000        0.96383     1275.25843        0.85759      -41.41038
11263.50000        0.94939     1292.68109        0.84951      -41.38060
11264.00000        0.93491     1310.18391        0.84162      -41.35479
11264.50000        0.92043     1297.70696        0.83353      -41.32501
11265.00000        0.90600     1285.31017        0.82544      -41.29522
11265.50000        0.89152     1272.83322        0.81736      -41.26544
11266.00000        0.90138     1260.43643        0.80947      -41.23565
11266.50000        0.91124     1247.95948        0.80138      -41.20586
11267.00000        0.92110     1235.56269        0.79329      -41.18006
11267.50000        0.93097     1223.08574        0.78521      -41.15028
11268.00000        0.94083     1210.68895        0.77732      -41.12049
11268.50000        0.95069     1198.21200        0.76923      -41.09070
11269.00000        0.90927     1256.99712        0.77199      -41.06092
11269.50000        0.86785     1315.86241        0.77456      -41.03512
11270.00000        0.82643     1374.64753        0.77732      -41.00533
