~Version ---------------------------------------------------
VERS. 2.0 : CWLS LOG ASCII STANDARD - VERSION 2.0
WRAP. NO  : One line per depth step
DLM . SPACE : Column Data Section Delimiter
~Well ------------------------------------------------------
STRT.F         1790 : START DEPTH
STOP.F        12744 : STOP DEPTH
STEP.F          0.5 : STEP
NULL.       -999.25 : NULL VALUE
COMP.            AMOCO PRODUCTION COMPANY : COMPANY
WELL.             155847-SL862-011-862-30 : WELL
FLD .                  VERMILION BLOCK 15 : FIELD
CNTY.                           VERMILION : COUNTY
STAT.                           LOUISIANA : STATE
CTRY.                                 USA : COUNTRY
SEC .                                     : SECTION
TWP .                                     : TOWNSHIP
RGE .                                     : RANGE
LOC .                                     : LOCATION
EKB .F                    44.35 : ELEVATION KELLY BUSHING
EDF .F                     44.5 : ELEVATION DERRICK FLOOR
EGL .F                          : ELEVATION GROUND LEVEL
PDAT.                       BHF : PERMANENT DATUM
EPD .                           : ELEVATION PERMANENT DATUM
APD .                        33 : ABOVE PERMANENT DATUM
LMF .                       RKB : LOG MEASURED FROM
DMF .                       RKB : DRILLING MEASURED FROM
API .            17705200940000 : API NUMBER
UWI .                           : UWI NUMBER
DIGC.                     NthDS : DIGITIZING COMPANY
~Params ----------------------------------------------------
SRVC.                     WELEX : LOGGING COMPANY
LOG .                       IEL : LOG
DATE.                1977-09-15 : RUN DATE
RUN .                         1 : RUN NUMBER
TDD .F                    11102 : TOTAL DEPTH DRILLER
TDL .F                    11116 : TOTAL DEPTH LOGGER
BOTL.F                    11110 : BOTTOM LOGGED INTERVAL
TOPL.F                     1790 : TOP LOGGED INTERVAL
CSGS.IN                  13.375 : CASING SIZE
CSGD.F                     1800 : CASING DRILLER
CSGL.F                     1790 : CASING LOGGER
BS  .IN                   12.25 : BIT SIZE
MUD .             LIGNO LIGNITE : MUD TYPE
MUDD.                      10.5 : MUD DENSITY
MUDV.                        43 : MUD VISCOSITY
PH  .                      10.5 : MUD PH
FL  .                       6.2 : FLUID LOSS
MUDS.                       PIT : SOURCE OF SAMPLE
RM  .OHMM                  1.08 : MUD RESISTIVITY
RMT .DEGF                    82 : RM TEMPERATURE
RMF .OHMM                  0.93 : MUD FILTRATE RESISTIVITY
RMFT.DEGF                    82 : RMF TEMPERATURE
RMC .OHMM                  1.37 : MUD CAKE RESISTIVITY
RMCT.DEGF                    82 : RMC TEMPERATURE
RMFS.                      MEAS : RMF SOURCE
RMCS.                      MEAS : RMC SOURCE
RMBH.OHMM                  0.46 : MUD RESISTIVITY AT BHT
BHT .DEGF                   194 : BOTTOM HOLE TEMPERATURE
TIMC.                           : TIME CIRCULATION STOPPED
TIML.                           : TIME LOGGER ON BOTTOM
TMAX.DEGF                   194 : MAXIMUM RECORDED TEMPERATURE
UNIT.                      2844 : EQUIPMENT NUMBER
BASE.                     HOUMA : BASE LOCATION
ENG .          KNOLES, MOBERLEY : RECORDED BY
WIT .               MR. HUBBARD : WITNESSED BY
#
SRVC.                     WELEX : LOGGING COMPANY
LOG .                       IEL : LOG
DATE.                1977-10-19 : RUN DATE
RUN .                         2 : RUN NUMBER
TDD .F                    11644 : TOTAL DEPTH DRILLER
TDL .F                    11647 : TOTAL DEPTH LOGGER
BOTL.F                    11641 : BOTTOM LOGGED INTERVAL
TOPL.F                    11110 : TOP LOGGED INTERVAL
CSGS.IN                   9.625 : CASING SIZE
CSGD.F                    11110 : CASING DRILLER
CSGL.F                    11110 : CASING LOGGER
BS  .IN                     8.5 : BIT SIZE
MUD .             LIGNO LIGNITE : MUD TYPE
MUDD.                        16 : MUD DENSITY
MUDV.                        43 : MUD VISCOSITY
PH  .                        11 : MUD PH
FL  .                      17.4 : FLUID LOSS
MUDS.                       PIT : SOURCE OF SAMPLE
RM  .OHMM                  1.30 : MUD RESISTIVITY
RMT .DEGF                    72 : RM TEMPERATURE
RMF .OHMM                  0.91 : MUD FILTRATE RESISTIVITY
RMFT.DEGF                    72 : RMF TEMPERATURE
RMC .OHMM                  2.64 : MUD CAKE RESISTIVITY
RMCT.DEGF                    72 : RMC TEMPERATURE
RMFS.                      MEAS : RMF SOURCE
RMCS.                      MEAS : RMC SOURCE
RMBH.OHMM                  0.44 : MUD RESISTIVITY AT BHT
BHT .DEGF                  2189 : BOTTOM HOLE TEMPERATURE
TIMC.                           : TIME CIRCULATION STOPPED
TIML.                           : TIME LOGGER ON BOTTOM
TMAX.DEGF                   218 : MAXIMUM RECORDED TEMPERATURE
UNIT.                      2844 : EQUIPMENT NUMBER
BASE.                     HOUMA : BASE LOCATION
ENG .                    KNOLES : RECORDED BY
WIT .        HUBBARD, HENDERSON : WITNESSED BY
#
SRVC.                     WELEX : LOGGING COMPANY
LOG .                       IEL : LOG
DATE.                1977-12-07 : RUN DATE
RUN .                         3 : RUN NUMBER
TDD .F                    12749 : TOTAL DEPTH DRILLER
TDL .F                    12750 : TOTAL DEPTH LOGGER
BOTL.F                    12744 : BOTTOM LOGGED INTERVAL
TOPL.F                    11618 : TOP LOGGED INTERVAL
CSGS.IN                   7.625 : CASING SIZE
CSGD.F                    11626 : CASING DRILLER
CSGL.F                    11618 : CASING LOGGER
BS  .IN                     6.5 : BIT SIZE
MUD .             LIGNO LIGNITE : MUD TYPE
MUDD.                      16.4 : MUD DENSITY
MUDV.                        50 : MUD VISCOSITY
PH  .                      11.5 : MUD PH
FL  .                       3.5 : FLUID LOSS
MUDS.                       PIT : SOURCE OF SAMPLE
RM  .OHMM                  0.98 : MUD RESISTIVITY
RMT .DEGF                    82 : RM TEMPERATURE
RMF .OHMM                  0.57 : MUD FILTRATE RESISTIVITY
RMFT.DEGF                    50 : RMF TEMPERATURE
RMC .OHMM                  2.48 : MUD CAKE RESISTIVITY
RMCT.DEGF                    50 : RMC TEMPERATURE
RMFS.                      MEAS : RMF SOURCE
RMCS.                      MEAS : RMC SOURCE
RMBH.OHMM                  0.34 : MUD RESISTIVITY AT BHT
BHT .DEGF                   235 : BOTTOM HOLE TEMPERATURE
TIMC.                           : TIME CIRCULATION STOPPED
TIML.                           : TIME LOGGER ON BOTTOM
TMAX.DEGF                   235 : MAXIMUM RECORDED TEMPERATURE
UNIT.                      2844 : EQUIPMENT NUMBER
BASE.                     HOUMA : BASE LOCATION
ENG .                  CROTHERS : RECORDED BY
WIT .                   HUBBARD : WITNESSED BY
~Curve Information -----------------------------------------
DEPT.F          :DEPTH
ASN.OHMM        :
CILD.MMHO       :
ILD.OHMM        :
SP.MV           :
~ASCII ------------------------------------------------------
# ...
9813.00000        0.98428     1016.42987        0.98232      -52.51029
9813.50000        0.97576     1035.93668        0.97014      -52.64385
9814.00000        0.96727     1055.44350        0.95815      -52.77741
9814.50000        0.95874     1074.95032        0.94597      -52.91495
9815.00000        0.95022     1094.45713        0.93399      -53.04851
9815.50000        0.94173     1113.96395        0.92181      -53.18207
9816.00000        0.93320     1133.47076        0.90982      -53.31961
9816.50000        0.92468     1152.89742        0.89764      -53.45317
9817.00000        0.91619     1172.40423        0.88566      -53.58673
9817.50000        0.90766     1191.91105        0.87348      -53.72427
9818.00000        0.93081     1211.41787        0.86149      -53.85783
9818.50000        0.95395     1178.58032        0.84931      -53.99138
9819.00000        0.97709     1145.74278        0.83733      -54.12893
9819.50000        1.00024     1112.90524        0.82515      -54.26248
9820.00000        1.02334     1080.06770        0.85717      -54.05740
9820.50000        1.04648     1047.23016        0.88900      -53.84834
9821.00000        1.06963     1014.39261        0.92102      -53.64325
9821.50000        1.09277      981.55507        0.95285      -53.22911
9822.00000        1.11591      948.71753        0.98487      -53.02402
9822.50000        1.12377      915.87999        1.01670      -52.81496
9823.00000        1.13163      883.04245        1.04872      -52.60987
9823.50000        1.13949      898.06031        1.08055      -52.40479
9824.00000        1.14735      912.99802        1.06739      -52.19573
9824.50000        1.15521      928.01588        1.05442      -51.99064
9825.00000        1.13065      943.03375        1.04126      -51.78158
9825.50000        1.10609      957.97146        1.02809      -51.57649
9826.00000        1.08153      972.98932        1.01513      -51.37141
9826.50000        1.05697      988.00719        1.00196      -51.16235
9827.00000        1.03340     1002.94489        0.98880      -50.95726
9827.50000        1.00982     1017.96276        0.97583      -50.75218
9828.00000        0.98625     1032.98063        0.96267      -50.54311
9828.50000        0.96267     1047.91833        0.94951      -50.33803
9829.00000        0.93910     1062.93620        0.93654      -50.12897
9829.50000        0.95136     1077.95407        0.92338      -49.92388
9830.00000        0.96365     1092.89177        0.91022      -49.82637
9830.50000        0.97591     1107.90964        0.89725      -49.72885
9831.00000        0.98821     1107.93762        0.88409      -49.63134
9831.50000        1.00047     1107.96560        0.90766      -49.53383
9832.00000        1.01277     1107.99358        0.93124      -49.43631
9832.50000        1.02503     1108.02156        0.95481      -49.33880
9833.00000        1.03733     1108.04954        0.97839      -49.24128
9833.50000        1.06483     1087.39629        1.00196      -49.14377
9834.00000        1.09234     1066.66288        1.02554      -49.04626
9834.50000        1.11984     1046.00963        1.04912      -48.94874
9835.00000        1.14735     1025.35638        1.07269      -48.85123
9835.50000        1.15001     1004.62297        1.09627      -48.75371
9836.00000        1.15128      983.96972        1.11984      -48.65620
9836.50000        1.16405      963.31647        1.10471      -48.55868
9837.00000        1.17682      942.58306        1.08959      -48.46117
9837.50000        1.18959      921.92981        1.07446      -48.36366
9838.00000        1.20236      901.27656        1.05933      -48.26614
9838.50000        1.14833      880.54315        1.04420      -48.16863
9839.00000        1.09430      859.88990        1.02908      -48.07111
9839.50000        1.04027      908.01377        1.01415      -47.97360
9840.00000        0.98625      956.13764        0.99902      -47.87609
9840.50000        0.99442     1052.38537        0.98389      -47.77857
9841.00000        1.00263     1100.50924        0.96876      -47.68106
9841.50000        1.01081     1148.63311        0.95363      -47.58354
9842.00000        1.01898     1130.46481        0.93851      -47.56571
9842.50000        1.02719     1112.21636        0.92338      -47.54787
9843.00000        1.03536     1094.04806        0.93595      -47.53402
9843.50000        1.04354     1075.87977        0.94833      -47.51619
9844.00000        1.05175     1057.71147        0.96090      -47.49836
9844.50000        1.05992     1039.46301        0.97348      -47.48052
9845.00000        1.06809     1021.29472        0.98585      -47.46667
9845.50000        1.07631     1003.12642        0.99843      -47.44884
9846.00000        1.08448      984.95813        1.01081      -47.43100
9846.50000        1.09010      966.70967        1.02338      -47.41317
9847.00000        1.09572      948.54137        1.03595      -47.39932
9847.50000        1.10134      955.70358        1.04833      -47.38149
9848.00000        1.10692      962.86578        1.06090      -47.36365
9848.50000        1.11253      970.02799        1.05363      -47.34582
9849.00000        1.11815      977.19019        1.04617      -47.33197
9849.50000        1.12377      984.27224        1.03890      -47.31413
9850.00000        1.10582      991.43444        1.02416      -47.29630
9850.50000        1.09682      998.59664        1.01670      -47.27847
9851.00000        1.08786     1005.75885        1.00943      -47.26462
9851.50000        1.07886     1012.92105        1.00196      -47.24678
9852.00000        1.06990     1020.08326        0.99470      -47.22895
9852.50000        1.06090     1027.24546        0.98723      -47.60553
9853.00000        1.07124     1034.40767        0.97996      -47.98211
9853.50000        1.08153     1041.56987        0.97249      -48.35870
9854.00000        1.09187     1048.65192        0.96523      -48.73528
9854.50000        1.10216     1055.81412        0.95776      -49.11585
9855.00000        1.11249     1062.97632        0.95049      -49.49243
9855.50000        1.12279     1070.13853        0.94303      -49.86901
9856.00000        1.13312     1077.30073        1.01081      -50.24560
9856.50000        1.14342     1028.43123        1.07878      -50.62218
9857.00000        1.23969      979.56172        1.14656      -50.99876
9857.50000        1.33595      930.69222        1.21454      -51.37534
9858.00000        1.43222      881.82272        1.28232      -51.75193
9858.50000        1.52849      832.95321        1.35029      -52.13249
9859.00000        1.62475      784.08371        1.41807      -52.50908
9859.50000        1.72102      735.21420        1.48605      -52.88566
9860.00000        1.81729      686.34470        1.55383      -53.26224
9860.50000        1.91356      637.47519        1.62181      -53.63882
9861.00000        1.90373      588.60569        1.68959      -55.75642
9861.50000        1.89391      599.85604        1.66817      -57.87401
9862.00000        1.88409      611.10640        1.64676      -59.98762
9862.50000        1.87426      622.35675        1.62534      -62.10522
9863.00000        1.86444      633.60711        1.60393      -66.34041
9863.50000        1.85462      644.85746        1.58251      -68.45402
9864.00000        1.91552      656.10782        1.56090      -70.57161
9864.50000        1.97642      667.35817        1.53949      -72.68921
9865.00000        2.02367      678.60853        1.51807      -74.80680
9865.50000        2.12181      689.85888        1.49666      -76.92041
9866.00000        2.16444      701.10924        1.47525      -79.03801
9866.50000        2.20688      689.11325        1.45383      -81.15560
9867.00000        2.24951      677.11726        1.48330      -83.14969
9867.50000        2.29214      623.67864        1.51277      -85.14378
9868.00000        2.33458      570.32019        1.54224      -87.13787
9868.50000        2.37721      516.88158        1.57171      -89.13196
9869.00000        2.63752      463.44296        1.60118      -91.12605
