~Version ---------------------------------------------------
VERS. 2.0 : CWLS LOG ASCII STANDARD - VERSION 2.0
WRAP. NO  : One line per depth step
DLM . SPACE : Column Data Section Delimiter
~Well ------------------------------------------------------
STRT.F         1790 : START DEPTH
STOP.F        12744 : STOP DEPTH
STEP.F          0.5 : STEP
NULL.       -999.25 : NULL VALUE
COMP.            AMOCO PRODUCTION COMPANY : COMPANY
WELL.             155847-SL862-011-862-30 : WELL
FLD .                  VERMILION BLOCK 15 : FIELD
CNTY.                           VERMILION : COUNTY
STAT.                           LOUISIANA : STATE
CTRY.                                 USA : COUNTRY
SEC .                                     : SECTION
TWP .                                     : TOWNSHIP
RGE .                                     : RANGE
LOC .                                     : LOCATION
EKB .F                    44.35 : ELEVATION KELLY BUSHING
EDF .F                     44.5 : ELEVATION DERRICK FLOOR
EGL .F                          : ELEVATION GROUND LEVEL
PDAT.                       BHF : PERMANENT DATUM
EPD .                           : ELEVATION PERMANENT DATUM
APD .                        33 : ABOVE PERMANENT DATUM
LMF .                       RKB : LOG MEASURED FROM
DMF .                       RKB : DRILLING MEASURED FROM
API .            17705200940000 : API NUMBER
UWI .                           : UWI NUMBER
DIGC.                     NthDS : DIGITIZING COMPANY
~Params ----------------------------------------------------
SRVC.                     WELEX : LOGGING COMPANY
LOG .                       IEL : LOG
DATE.                1977-09-15 : RUN DATE
RUN .                         1 : RUN NUMBER
TDD .F                    11102 : TOTAL DEPTH DRILLER
TDL .F                    11116 : TOTAL DEPTH LOGGER
BOTL.F                    11110 : BOTTOM LOGGED INTERVAL
TOPL.F                     1790 : TOP LOGGED INTERVAL
CSGS.IN                  13.375 : CASING SIZE
CSGD.F                     1800 : CASING DRILLER
CSGL.F                     1790 : CASING LOGGER
BS  .IN                   12.25 : BIT SIZE
MUD .             LIGNO LIGNITE : MUD TYPE
MUDD.                      10.5 : MUD DENSITY
MUDV.                        43 : MUD VISCOSITY
PH  .                      10.5 : MUD PH
FL  .                       6.2 : FLUID LOSS
MUDS.                       PIT : SOURCE OF SAMPLE
RM  .OHMM                  1.08 : MUD RESISTIVITY
RMT .DEGF                    82 : RM TEMPERATURE
RMF .OHMM                  0.93 : MUD FILTRATE RESISTIVITY
RMFT.DEGF                    82 : RMF TEMPERATURE
RMC .OHMM                  1.37 : MUD CAKE RESISTIVITY
RMCT.DEGF                    82 : RMC TEMPERATURE
RMFS.                      MEAS : RMF SOURCE
RMCS.                      MEAS : RMC SOURCE
RMBH.OHMM                  0.46 : MUD RESISTIVITY AT BHT
BHT .DEGF                   194 : BOTTOM HOLE TEMPERATURE
TIMC.                           : TIME CIRCULATION STOPPED
TIML.                           : TIME LOGGER ON BOTTOM
TMAX.DEGF                   194 : MAXIMUM RECORDED TEMPERATURE
UNIT.                      2844 : EQUIPMENT NUMBER
BASE.                     HOUMA : BASE LOCATION
ENG .          KNOLES, MOBERLEY : RECORDED BY
WIT .               MR. HUBBARD : WITNESSED BY
#
SRVC.                     WELEX : LOGGING COMPANY
LOG .                       IEL : LOG
DATE.                1977-10-19 : RUN DATE
RUN .                         2 : RUN NUMBER
TDD .F                    11644 : TOTAL DEPTH DRILLER
TDL .F                    11647 : TOTAL DEPTH LOGGER
BOTL.F                    11641 : BOTTOM LOGGED INTERVAL
TOPL.F                    11110 : TOP LOGGED INTERVAL
CSGS.IN                   9.625 : CASING SIZE
CSGD.F                    11110 : CASING DRILLER
CSGL.F                    11110 : CASING LOGGER
BS  .IN                     8.5 : BIT SIZE
MUD .             LIGNO LIGNITE : MUD TYPE
MUDD.                        16 : MUD DENSITY
MUDV.                        43 : MUD VISCOSITY
PH  .                        11 : MUD PH
FL  .                      17.4 : FLUID LOSS
MUDS.                       PIT : SOURCE OF SAMPLE
RM  .OHMM                  1.30 : MUD RESISTIVITY
RMT .DEGF                    72 : RM TEMPERATURE
RMF .OHMM                  0.91 : MUD FILTRATE RESISTIVITY
RMFT.DEGF                    72 : RMF TEMPERATURE
RMC .OHMM                  2.64 : MUD CAKE RESISTIVITY
RMCT.DEGF                    72 : RMC TEMPERATURE
RMFS.                      MEAS : RMF SOURCE
RMCS.                      MEAS : RMC SOURCE
RMBH.OHMM                  0.44 : MUD RESISTIVITY AT BHT
BHT .DEGF                  2189 : BOTTOM HOLE TEMPERATURE
TIMC.                           : TIME CIRCULATION STOPPED
TIML.                           : TIME LOGGER ON BOTTOM
TMAX.DEGF                   218 : MAXIMUM RECORDED TEMPERATURE
UNIT.                      2844 : EQUIPMENT NUMBER
BASE.                     HOUMA : BASE LOCATION
ENG .                    KNOLES : RECORDED BY
WIT .        HUBBARD, HENDERSON : WITNESSED BY
#
SRVC.                     WELEX : LOGGING COMPANY
LOG .                       IEL : LOG
DATE.                1977-12-07 : RUN DATE
RUN .                         3 : RUN NUMBER
TDD .F                    12749 : TOTAL DEPTH DRILLER
TDL .F                    12750 : TOTAL DEPTH LOGGER
BOTL.F                    12744 : BOTTOM LOGGED INTERVAL
TOPL.F                    11618 : TOP LOGGED INTERVAL
CSGS.IN                   7.625 : CASING SIZE
CSGD.F                    11626 : CASING DRILLER
CSGL.F                    11618 : CASING LOGGER
BS  .IN                     6.5 : BIT SIZE
MUD .             LIGNO LIGNITE : MUD TYPE
MUDD.                      16.4 : MUD DENSITY
MUDV.                        50 : MUD VISCOSITY
PH  .                      11.5 : MUD PH
FL  .                       3.5 : FLUID LOSS
MUDS.                       PIT : SOURCE OF SAMPLE
RM  .OHMM                  0.98 : MUD RESISTIVITY
RMT .DEGF                    82 : RM TEMPERATURE
RMF .OHMM                  0.57 : MUD FILTRATE RESISTIVITY
RMFT.DEGF                    50 : RMF TEMPERATURE
RMC .OHMM                  2.48 : MUD CAKE RESISTIVITY
RMCT.DEGF                    50 : RMC TEMPERATURE
RMFS.                      MEAS : RMF SOURCE
RMCS.                      MEAS : RMC SOURCE
RMBH.OHMM                  0.34 : MUD RESISTIVITY AT BHT
BHT .DEGF                   235 : BOTTOM HOLE TEMPERATURE
TIMC.                           : TIME CIRCULATION STOPPED
TIML.                           : TIME LOGGER ON BOTTOM
TMAX.DEGF                   235 : MAXIMUM RECORDED TEMPERATURE
UNIT.                      2844 : EQUIPMENT NUMBER
BASE.                     HOUMA : BASE LOCATION
ENG .                  CROTHERS : RECORDED BY
WIT .                   HUBBARD : WITNESSED BY
~Curve Information -----------------------------------------
DEPT.F          :DEPTH
ASN.OHMM        :
CILD.MMHO       :
ILD.OHMM        :
SP.MV           :
~ASCII ------------------------------------------------------
# ...
3259.00000        0.64063     2847.64454        0.39448     -114.75163
3259.50000        0.63826     2727.49462        0.39448     -110.93131
3260.00000        0.63590     2672.34931        0.39448     -107.11099
3260.50000        0.63353     2607.34471        0.39448     -105.19511
3261.00000        0.63116     2487.19479        0.39448     -103.29067
3261.50000        0.65286     2367.04487        0.44043      -95.72554
3262.00000        0.67456     2010.43504        0.48659      -88.16041
3262.50000        0.70513     1853.76496        0.53254      -80.59527
3263.00000        0.73570     1653.82520        0.58600      -73.03014
3263.50000        0.76627     1485.58174        0.63964      -74.17369
3264.00000        0.79684     1317.33828        0.69310      -75.31326
3264.50000        0.82742     1149.09482        0.74675      -76.45681
3265.00000        0.85799     1166.97337        0.80020      -77.60036
3265.50000        0.88856     1184.85193        0.85385      -78.74391
3266.00000        0.91913     1202.81064        0.90730      -79.88348
3266.50000        0.90927     1220.68919        0.89093      -81.02703
3267.00000        0.89941     1238.56774        0.87436      -78.64090
3267.50000        0.88955     1256.44629        0.85799      -76.25476
3268.00000        0.87968     1274.40500        0.84162      -73.86863
3268.50000        0.86982     1292.28356        0.82505      -71.48250
3269.00000        0.85996     1310.16211        0.80868      -69.09636
3269.50000        0.87377     1279.54634        0.83333      -67.85766
3270.00000        0.88757     1248.85042        0.85799      -66.71023
3270.50000        0.90138     1218.23465        0.88264      -64.32409
3271.00000        0.91519     1187.61888        0.90730      -64.88600
3271.50000        0.90375     1156.92295        0.89191      -65.44791
3272.00000        0.89231     1126.30718        0.87653      -66.00982
3272.50000        0.88087     1173.12202        0.86134      -66.57173
3273.00000        0.86943     1220.01701        0.84596      -67.69555
3273.50000        0.85799     1266.83184        0.83057      -68.25746
3274.00000        0.84655     1313.64668        0.81519      -68.81937
3274.50000        0.83511     1360.54167        0.80000      -69.38128
3275.00000        0.82367     1407.35650        0.78462      -69.94319
3275.50000        0.81223     1383.39367        0.76923      -69.94737
3276.00000        0.80079     1359.43084        0.77061      -69.95154
3276.50000        0.80158     1335.46801        0.77179      -69.95571
3277.00000        0.80237     1311.50518        0.77318      -69.95988
3277.50000        0.80316     1287.54236        0.77456      -69.96405
3278.00000        0.80394     1263.57953        0.77574      -69.96645
3278.50000        0.80473     1311.75701        0.77712      -69.97240
3279.00000        0.80249     1359.93450        0.77850      -70.71757
3279.50000        0.80024     1408.11198        0.77968      -71.45875
3280.00000        0.79799     1384.14915        0.78106      -72.20392
3280.50000        0.79570     1360.18632        0.78245      -72.94908
3281.00000        0.79345     1336.22349        0.78363      -73.69425
3281.50000        0.79120     1312.26066        0.78501      -74.43543
3282.00000        0.78895     1288.29783        0.78639      -75.18060
3282.50000        0.77219     1413.98608        0.78757      -80.03311
3283.00000        0.75542     1665.28242        0.78895      -84.88164
3283.50000        0.73866     1844.91559        0.72978      -89.73415
3284.00000        0.72189     2024.54876        0.67061      -94.58666
3284.50000        0.70513     2383.81510        0.61144      -99.43518
3285.00000        0.68836     2563.44827        0.55227     -104.28770
3285.50000        0.67160     2468.70778        0.49310      -92.87019
3286.00000        0.65483     2373.88713        0.43392      -81.45666
3286.50000        0.63807     2323.62890        0.45365      -70.03915
3287.00000        0.62130     2279.14663        0.47337      -69.64494
3287.50000        0.60454     2184.40614        0.49310      -69.25073
3288.00000        0.58777     2089.58549        0.51282      -68.85651
3288.50000        0.64233     1994.84499        0.55878      -68.46230
3289.00000        0.67720     1560.28798        0.60493      -68.06809
3289.50000        0.71203     1249.47901        0.65089      -67.67388
3290.00000        0.74686     1292.28605        0.69684      -67.27966
3290.50000        0.78174     1335.17325        0.74300      -67.08394
3291.00000        0.81657     1377.98029        0.78895      -66.88545
3291.50000        0.80146     1463.67452        0.75819      -66.49124
3292.00000        0.78631     1506.48156        0.72761      -67.87401
3292.50000        0.77120     1589.36656        0.69684      -68.56739
3293.00000        0.75609     1672.33171        0.66627      -69.26076
3293.50000        0.74095     1755.21670        0.63550      -69.95414
3294.00000        0.72584     1838.10169        0.60493      -70.64353
3294.50000        0.67061     1921.06684        0.57416      -71.33691
3295.00000        0.61538     2003.95183        0.54359      -72.03029
3295.50000        0.62623     1947.92664        0.51282      -72.72366
3296.00000        0.63708     1891.90145        0.54576      -73.41306
3296.50000        0.64793     1835.87626        0.57850      -74.10644
3297.00000        0.65878     1779.85106        0.61144      -73.22619
3297.50000        0.71479     1723.82587        0.64438      -72.34595
3298.00000        0.77081     1667.80068        0.67712      -71.46173
3298.50000        0.82682     1611.77549        0.71006      -70.58149
3299.00000        0.88284     1407.46187        0.74300      -69.70124
3299.50000        0.93886     1311.95739        0.77574      -68.82100
3300.00000        0.93018     1203.14825        0.80868      -67.89914
3300.50000        0.91968     1212.64718        0.83996      -67.01890
3301.00000        0.91102     1239.02226        0.87264      -66.58478
3301.50000        0.90236     1265.47749        0.90551      -68.66460
3302.00000        0.89370     1291.85257        0.87933      -71.19453
3302.50000        0.92390     1318.30781        0.85295      -73.72048
3303.00000        0.95405     1371.13812        0.82677      -76.24642
3303.50000        0.98425     1365.31425        0.80059      -78.77635
3304.00000        0.96921     1359.19868        0.77421      -81.30230
3304.50000        0.95417     1347.25923        0.74803      -80.11132
3305.00000        0.93917     1335.31979        0.75669      -78.92034
3305.50000        0.92413     1323.38035        0.76555      -77.72936
3306.00000        0.90909     1311.44090        0.77421      -76.53837
3306.50000        0.89405     1299.50146        0.78307      -75.34739
3307.00000        0.87902     1287.56202        0.79173      -74.15641
3307.50000        0.86398     1275.62257        0.80059      -72.96543
3308.00000        0.84898     1263.68313        0.80925      -71.77445
3308.50000        0.83394     1251.74368        0.81811      -70.58347
3309.00000        0.81890     1476.34810        0.82677      -77.01756
3309.50000        0.78740     1692.85299        0.74803      -83.45565
3310.00000        0.75591     2542.67348        0.66929      -89.88974
3310.50000        0.72441     2642.95230        0.59055      -96.32384
3311.00000        0.69291     2743.23112        0.51181     -109.19602
3311.50000        0.66142     2613.46250        0.43307     -115.63011
3312.00000        0.65276     2483.69387        0.35433     -108.61877
3312.50000        0.64409     2353.92525        0.40020     -103.88194
3313.00000        0.63543     2288.65613        0.44626      -92.13378
3313.50000        0.62677     2224.15662        0.49213      -80.38561
3314.00000        0.61811     2094.38800        0.53799      -68.63744
3314.50000        0.65681     1832.60260        0.58405      -68.41055
3315.00000        0.69555     1570.89735        0.62992      -68.17967
