~Version ---------------------------------------------------
VERS. 2.0 : CWLS LOG ASCII STANDARD - VERSION 2.0
WRAP. NO  : One line per depth step
DLM . SPACE : Column Data Section Delimiter
~Well ------------------------------------------------------
STRT.F         1790 : START DEPTH
STOP.F        12744 : STOP DEPTH
STEP.F          0.5 : STEP
NULL.       -999.25 : NULL VALUE
COMP.            AMOCO PRODUCTION COMPANY : COMPANY
WELL.             155847-SL862-011-862-30 : WELL
FLD .                  VERMILION BLOCK 15 : FIELD
CNTY.                           VERMILION : COUNTY
STAT.                           LOUISIANA : STATE
CTRY.                                 USA : COUNTRY
SEC .                                     : SECTION
TWP .                                     : TOWNSHIP
RGE .                                     : RANGE
LOC .                                     : LOCATION
EKB .F                    44.35 : ELEVATION KELLY BUSHING
EDF .F                     44.5 : ELEVATION DERRICK FLOOR
EGL .F                          : ELEVATION GROUND LEVEL
PDAT.                       BHF : PERMANENT DATUM
EPD .                           : ELEVATION PERMANENT DATUM
APD .                        33 : ABOVE PERMANENT DATUM
LMF .                       RKB : LOG MEASURED FROM
DMF .                       RKB : DRILLING MEASURED FROM
API .            17705200940000 : API NUMBER
UWI .                           : UWI NUMBER
DIGC.                     NthDS : DIGITIZING COMPANY
~Params ----------------------------------------------------
SRVC.                     WELEX : LOGGING COMPANY
LOG .                       IEL : LOG
DATE.                1977-09-15 : RUN DATE
RUN .                         1 : RUN NUMBER
TDD .F                    11102 : TOTAL DEPTH DRILLER
TDL .F                    11116 : TOTAL DEPTH LOGGER
BOTL.F                    11110 : BOTTOM LOGGED INTERVAL
TOPL.F                     1790 : TOP LOGGED INTERVAL
CSGS.IN                  13.375 : CASING SIZE
CSGD.F                     1800 : CASING DRILLER
CSGL.F                     1790 : CASING LOGGER
BS  .IN                   12.25 : BIT SIZE
MUD .             LIGNO LIGNITE : MUD TYPE
MUDD.                      10.5 : MUD DENSITY
MUDV.                        43 : MUD VISCOSITY
PH  .                      10.5 : MUD PH
FL  .                       6.2 : FLUID LOSS
MUDS.                       PIT : SOURCE OF SAMPLE
RM  .OHMM                  1.08 : MUD RESISTIVITY
RMT .DEGF                    82 : RM TEMPERATURE
RMF .OHMM                  0.93 : MUD FILTRATE RESISTIVITY
RMFT.DEGF                    82 : RMF TEMPERATURE
RMC .OHMM                  1.37 : MUD CAKE RESISTIVITY
RMCT.DEGF                    82 : RMC TEMPERATURE
RMFS.                      MEAS : RMF SOURCE
RMCS.                      MEAS : RMC SOURCE
RMBH.OHMM                  0.46 : MUD RESISTIVITY AT BHT
BHT .DEGF                   194 : BOTTOM HOLE TEMPERATURE
TIMC.                           : TIME CIRCULATION STOPPED
TIML.                           : TIME LOGGER ON BOTTOM
TMAX.DEGF                   194 : MAXIMUM RECORDED TEMPERATURE
UNIT.                      2844 : EQUIPMENT NUMBER
BASE.                     HOUMA : BASE LOCATION
ENG .          KNOLES, MOBERLEY : RECORDED BY
WIT .               MR. HUBBARD : WITNESSED BY
#
SRVC.                     WELEX : LOGGING COMPANY
LOG .                       IEL : LOG
DATE.                1977-10-19 : RUN DATE
RUN .                         2 : RUN NUMBER
TDD .F                    11644 : TOTAL DEPTH DRILLER
TDL .F                    11647 : TOTAL DEPTH LOGGER
BOTL.F                    11641 : BOTTOM LOGGED INTERVAL
TOPL.F                    11110 : TOP LOGGED INTERVAL
CSGS.IN                   9.625 : CASING SIZE
CSGD.F                    11110 : CASING DRILLER
CSGL.F                    11110 : CASING LOGGER
BS  .IN                     8.5 : BIT SIZE
MUD .             LIGNO LIGNITE : MUD TYPE
MUDD.                        16 : MUD DENSITY
MUDV.                        43 : MUD VISCOSITY
PH  .                        11 : MUD PH
FL  .                      17.4 : FLUID LOSS
MUDS.                       PIT : SOURCE OF SAMPLE
RM  .OHMM                  1.30 : MUD RESISTIVITY
RMT .DEGF                    72 : RM TEMPERATURE
RMF .OHMM                  0.91 : MUD FILTRATE RESISTIVITY
RMFT.DEGF                    72 : RMF TEMPERATURE
RMC .OHMM                  2.64 : MUD CAKE RESISTIVITY
RMCT.DEGF                    72 : RMC TEMPERATURE
RMFS.                      MEAS : RMF SOURCE
RMCS.                      MEAS : RMC SOURCE
RMBH.OHMM                  0.44 : MUD RESISTIVITY AT BHT
BHT .DEGF                  2189 : BOTTOM HOLE TEMPERATURE
TIMC.                           : TIME CIRCULATION STOPPED
TIML.                           : TIME LOGGER ON BOTTOM
TMAX.DEGF                   218 : MAXIMUM RECORDED TEMPERATURE
UNIT.                      2844 : EQUIPMENT NUMBER
BASE.                     HOUMA : BASE LOCATION
ENG .                    KNOLES : RECORDED BY
WIT .        HUBBARD, HENDERSON : WITNESSED BY
#
SRVC.                     WELEX : LOGGING COMPANY
LOG .                       IEL : LOG
DATE.                1977-12-07 : RUN DATE
RUN .                         3 : RUN NUMBER
TDD .F                    12749 : TOTAL DEPTH DRILLER
TDL .F                    12750 : TOTAL DEPTH LOGGER
BOTL.F                    12744 : BOTTOM LOGGED INTERVAL
TOPL.F                    11618 : TOP LOGGED INTERVAL
CSGS.IN                   7.625 : CASING SIZE
CSGD.F                    11626 : CASING DRILLER
CSGL.F                    11618 : CASING LOGGER
BS  .IN                     6.5 : BIT SIZE
MUD .             LIGNO LIGNITE : MUD TYPE
MUDD.                      16.4 : MUD DENSITY
MUDV.                        50 : MUD VISCOSITY
PH  .                      11.5 : MUD PH
FL  .                       3.5 : FLUID LOSS
MUDS.                       PIT : SOURCE OF SAMPLE
RM  .OHMM                  0.98 : MUD RESISTIVITY
RMT .DEGF                    82 : RM TEMPERATURE
RMF .OHMM                  0.57 : MUD FILTRATE RESISTIVITY
RMFT.DEGF                    50 : RMF TEMPERATURE
RMC .OHMM                  2.48 : MUD CAKE RESISTIVITY
RMCT.DEGF                    50 : RMC TEMPERATURE
RMFS.                      MEAS : RMF SOURCE
RMCS.                      MEAS : RMC SOURCE
RMBH.OHMM                  0.34 : MUD RESISTIVITY AT BHT
BHT .DEGF                   235 : BOTTOM HOLE TEMPERATURE
TIMC.                           : TIME CIRCULATION STOPPED
TIML.                           : TIME LOGGER ON BOTTOM
TMAX.DEGF                   235 : MAXIMUM RECORDED TEMPERATURE
UNIT.                      2844 : EQUIPMENT NUMBER
BASE.                     HOUMA : BASE LOCATION
ENG .                  CROTHERS : RECORDED BY
WIT .                   HUBBARD : WITNESSED BY
~Curve Information -----------------------------------------
DEPT.F          :DEPTH
ASN.OHMM        :
CILD.MMHO       :
ILD.OHMM        :
SP.MV           :
~ASCII ------------------------------------------------------
# ...
11942.50000        0.78016     1267.26963        0.79051      -49.17111
11943.00000        0.77775     1280.36366        0.79051      -48.68861
11943.50000        0.77530     1293.53785        0.79051      -48.20313
11944.00000        0.77289     1306.63189        0.79051      -47.72064
11944.50000        0.77043     1319.72592        0.79051      -47.23516
11945.00000        0.76802     1332.90011        0.78557      -46.75267
11945.50000        0.76557     1345.99414        0.78063      -47.35183
11946.00000        0.76316     1359.08817        0.77569      -47.95100
11946.50000        0.76071     1372.26236        0.77075      -48.55016
11947.00000        0.75830     1385.35639        0.76581      -49.14933
11947.50000        0.75585     1398.45042        0.76087      -49.74850
11948.00000        0.75344     1411.62461        0.75593      -50.34766
11948.50000        0.75099     1424.71864        0.75099      -50.94683
11949.00000        0.75257     1437.81267        0.74605      -51.54599
11949.50000        0.75415     1450.98686        0.74111      -52.14516
11950.00000        0.75494     1464.08089        0.73864      -52.74432
11950.50000        0.75573     1477.17492        0.73617      -53.34349
11951.00000        0.75731     1490.34911        0.73123      -53.94266
11951.50000        0.75889     1503.44314        0.72628      -54.54182
11952.00000        0.76047     1516.53717        0.72134      -54.52546
11952.50000        0.76206     1529.71136        0.71640      -54.51208
11953.00000        0.76364     1542.80540        0.71146      -54.49572
11953.50000        0.76522     1555.89943        0.70652      -54.48234
11954.00000        0.76680     1569.07362        0.70158      -54.46598
11954.50000        0.78755     1582.16765        0.69664      -54.45260
11955.00000        0.80830     1564.80095        0.69170      -54.43624
11955.50000        0.82905     1547.51441        0.68676      -54.42287
11956.00000        0.84980     1530.14771        0.68182      -54.40650
11956.50000        0.90119     1512.78101        0.67688      -54.39014
11957.00000        0.95257     1495.49448        0.67194      -54.37676
11957.50000        1.00395     1478.12778        0.69447      -54.36040
11958.00000        1.05534     1376.59328        0.71719      -54.34702
11958.50000        1.10672     1275.13893        0.73972      -54.33066
11959.00000        1.15810     1173.60443        0.76225      -54.31729
11959.50000        1.20949     1072.06993        0.78478      -54.30092
11960.00000        1.26087     1021.12964        0.80751      -54.28755
11960.50000        1.21838      970.61559        0.83004      -54.27118
11961.00000        1.17589      869.08109        0.85257      -55.66815
11961.50000        1.13340      895.16101        0.87530      -57.06212
11962.00000        1.09091      921.24093        0.89783      -58.45908
11962.50000        1.05731      947.32085        0.92036      -59.85605
11963.00000        1.02372      973.40077        0.94289      -61.25002
11963.50000        0.99012      999.48069        0.96561      -62.64699
11964.00000        0.95652     1025.56061        0.98814      -61.00515
11964.50000        0.94565     1051.64053        0.97055      -59.36331
11965.00000        0.93478     1077.72045        0.95296      -57.72147
11965.50000        0.92391     1103.80037        0.93538      -56.07963
11966.00000        0.91304     1129.88029        0.91779      -57.07620
11966.50000        0.91976     1155.96021        0.90040      -58.07576
11967.00000        0.92648     1182.04013        0.88281      -59.07233
11967.50000        0.93320     1171.72750        0.86522      -60.06890
11968.00000        0.93992     1161.49502        0.84763      -61.06846
11968.50000        0.94664     1151.18239        0.83004      -62.06503
11969.00000        0.95336     1140.94991        0.84051      -61.76780
11969.50000        0.96008     1130.63728        0.85099      -61.47056
11970.00000        0.96680     1120.40480        0.86146      -61.17332
11970.50000        0.97352     1110.09217        0.87194      -60.53545
11971.00000        0.98024     1099.77953        0.88241      -59.89460
11971.50000        0.99209     1089.54706        0.89289      -59.25673
11972.00000        1.00395     1079.23442        0.90336      -58.61886
11972.50000        1.01581     1069.00195        0.91383      -57.98099
11973.00000        1.02767     1058.68932        0.92411      -57.34013
11973.50000        1.03953     1048.45684        0.93458      -56.70227
11974.00000        1.05138     1038.14421        0.94506      -57.86318
11974.50000        1.03644     1027.83157        0.95553      -59.02110
11975.00000        1.02150     1017.59910        0.96601      -60.18201
11975.50000        1.00660     1007.28646        0.97648      -61.33993
11976.00000        0.99166      997.05399        0.98696      -62.50084
11976.50000        0.97672      986.74135        0.99743      -63.65877
11977.00000        0.96178      976.50888        1.00790      -64.81968
11977.50000        0.94688      966.19624        0.99447      -65.97760
11978.00000        0.93194      993.79920        0.98103      -65.30686
11978.50000        0.91700     1021.48232        0.96759      -64.63613
11979.00000        0.89565     1049.08527        0.95415      -63.96539
11979.50000        0.87431     1076.76839        0.94071      -63.29465
11980.00000        0.85296     1104.37135        0.92727      -62.62392
11980.50000        0.83162     1132.05446        0.91383      -61.95318
11981.00000        0.81028     1159.65742        0.90040      -61.28244
11981.50000        0.80336     1187.34054        0.88696      -60.61171
11982.00000        0.79644     1214.94349        0.87352      -59.94097
11982.50000        0.78953     1239.01942        0.86008      -59.27023
11983.00000        0.78261     1263.09534        0.84664      -58.59950
11983.50000        0.77569     1287.17127        0.83320      -57.92876
11984.00000        0.76877     1311.24719        0.81976      -58.37852
11984.50000        0.76186     1335.32312        0.80632      -58.82829
11985.00000        0.75494     1359.39904        0.79289      -59.27805
11985.50000        0.74802     1383.47497        0.77945      -59.72782
11986.00000        0.74111     1407.55089        0.76601      -60.17759
11986.50000        0.73419     1431.62682        0.75257      -60.62735
11987.00000        0.72727     1455.70274        0.73913      -62.27232
11987.50000        0.72036     1479.77867        0.72569      -63.91729
11988.00000        0.71344     1503.85459        0.71225      -65.56225
11988.50000        0.70652     1527.93052        0.69881      -67.20722
11989.00000        0.69960     1552.00644        0.68538      -68.85219
11989.50000        0.70158     1576.08237        0.67194      -70.49716
11990.00000        0.70356     1557.91407        0.67451      -70.16705
11990.50000        0.70553     1539.66561        0.67727      -69.83695
11991.00000        0.70751     1521.49732        0.67984      -69.50685
11991.50000        0.70949     1503.32902        0.68241      -69.17674
11992.00000        0.71146     1485.16072        0.68518      -68.84365
11992.50000        0.71344     1466.91227        0.68775      -68.51355
11993.00000        0.71541     1448.74397        0.69032      -68.18344
11993.50000        0.71739     1430.57568        0.69308      -67.85334
11994.00000        0.71937     1412.40738        0.69565      -67.52323
11994.50000        0.71146     1394.15892        0.69822      -68.00885
11995.00000        0.70356     1375.99063        0.70099      -68.49149
11995.50000        0.69565     1374.65589        0.70356      -68.97711
11996.00000        0.68775     1373.40132        0.70613      -69.45974
11996.50000        0.67984     1372.06658        0.70889      -69.94536
11997.00000        0.67194     1370.73184        0.71146      -70.42800
11997.50000        0.66403     1369.47727        0.70553      -70.91362
11998.00000        0.65613     1368.14253        0.69960      -71.39625
