~Version ---------------------------------------------------
VERS. 2.0 : CWLS LOG ASCII STANDARD - VERSION 2.0
WRAP. NO  : One line per depth step
DLM . SPACE : Column Data Section Delimiter
~Well ------------------------------------------------------
STRT.F         1790 : START DEPTH
STOP.F        12744 : STOP DEPTH
STEP.F          0.5 : STEP
NULL.       -999.25 : NULL VALUE
COMP.            AMOCO PRODUCTION COMPANY : COMPANY
WELL.             155847-SL862-011-862-30 : WELL
FLD .                  VERMILION BLOCK 15 : FIELD
CNTY.                           VERMILION : COUNTY
STAT.                           LOUISIANA : STATE
CTRY.                                 USA : COUNTRY
SEC .                                     : SECTION
TWP .                                     : TOWNSHIP
RGE .                                     : RANGE
LOC .                                     : LOCATION
EKB .F                    44.35 : ELEVATION KELLY BUSHING
EDF .F                     44.5 : ELEVATION DERRICK FLOOR
EGL .F                          : ELEVATION GROUND LEVEL
PDAT.                       BHF : PERMANENT DATUM
EPD .                           : ELEVATION PERMANENT DATUM
APD .                        33 : ABOVE PERMANENT DATUM
LMF .                       RKB : LOG MEASURED FROM
DMF .                       RKB : DRILLING MEASURED FROM
API .            17705200940000 : API NUMBER
UWI .                           : UWI NUMBER
DIGC.                     NthDS : DIGITIZING COMPANY
~Params ----------------------------------------------------
SRVC.                     WELEX : LOGGING COMPANY
LOG .                       IEL : LOG
DATE.                1977-09-15 : RUN DATE
RUN .                         1 : RUN NUMBER
TDD .F                    11102 : TOTAL DEPTH DRILLER
TDL .F                    11116 : TOTAL DEPTH LOGGER
BOTL.F                    11110 : BOTTOM LOGGED INTERVAL
TOPL.F                     1790 : TOP LOGGED INTERVAL
CSGS.IN                  13.375 : CASING SIZE
CSGD.F                     1800 : CASING DRILLER
CSGL.F                     1790 : CASING LOGGER
BS  .IN                   12.25 : BIT SIZE
MUD .             LIGNO LIGNITE : MUD TYPE
MUDD.                      10.5 : MUD DENSITY
MUDV.                        43 : MUD VISCOSITY
PH  .                      10.5 : MUD PH
FL  .                       6.2 : FLUID LOSS
MUDS.                       PIT : SOURCE OF SAMPLE
RM  .OHMM                  1.08 : MUD RESISTIVITY
RMT .DEGF                    82 : RM TEMPERATURE
RMF .OHMM                  0.93 : MUD FILTRATE RESISTIVITY
RMFT.DEGF                    82 : RMF TEMPERATURE
RMC .OHMM                  1.37 : MUD CAKE RESISTIVITY
RMCT.DEGF                    82 : RMC TEMPERATURE
RMFS.                      MEAS : RMF SOURCE
RMCS.                      MEAS : RMC SOURCE
RMBH.OHMM                  0.46 : MUD RESISTIVITY AT BHT
BHT .DEGF                   194 : BOTTOM HOLE TEMPERATURE
TIMC.                           : TIME CIRCULATION STOPPED
TIML.                           : TIME LOGGER ON BOTTOM
TMAX.DEGF                   194 : MAXIMUM RECORDED TEMPERATURE
UNIT.                      2844 : EQUIPMENT NUMBER
BASE.                     HOUMA : BASE LOCATION
ENG .          KNOLES, MOBERLEY : RECORDED BY
WIT .               MR. HUBBARD : WITNESSED BY
#
SRVC.                     WELEX : LOGGING COMPANY
LOG .                       IEL : LOG
DATE.                1977-10-19 : RUN DATE
RUN .                         2 : RUN NUMBER
TDD .F                    11644 : TOTAL DEPTH DRILLER
TDL .F                    11647 : TOTAL DEPTH LOGGER
BOTL.F                    11641 : BOTTOM LOGGED INTERVAL
TOPL.F                    11110 : TOP LOGGED INTERVAL
CSGS.IN                   9.625 : CASING SIZE
CSGD.F                    11110 : CASING DRILLER
CSGL.F                    11110 : CASING LOGGER
BS  .IN                     8.5 : BIT SIZE
MUD .             LIGNO LIGNITE : MUD TYPE
MUDD.                        16 : MUD DENSITY
MUDV.                        43 : MUD VISCOSITY
PH  .                        11 : MUD PH
FL  .                      17.4 : FLUID LOSS
MUDS.                       PIT : SOURCE OF SAMPLE
RM  .OHMM                  1.30 : MUD RESISTIVITY
RMT .DEGF                    72 : RM TEMPERATURE
RMF .OHMM                  0.91 : MUD FILTRATE RESISTIVITY
RMFT.DEGF                    72 : RMF TEMPERATURE
RMC .OHMM                  2.64 : MUD CAKE RESISTIVITY
RMCT.DEGF                    72 : RMC TEMPERATURE
RMFS.                      MEAS : RMF SOURCE
RMCS.                      MEAS : RMC SOURCE
RMBH.OHMM                  0.44 : MUD RESISTIVITY AT BHT
BHT .DEGF                  2189 : BOTTOM HOLE TEMPERATURE
TIMC.                           : TIME CIRCULATION STOPPED
TIML.                           : TIME LOGGER ON BOTTOM
TMAX.DEGF                   218 : MAXIMUM RECORDED TEMPERATURE
UNIT.                      2844 : EQUIPMENT NUMBER
BASE.                     HOUMA : BASE LOCATION
ENG .                    KNOLES : RECORDED BY
WIT .        HUBBARD, HENDERSON : WITNESSED BY
#
SRVC.                     WELEX : LOGGING COMPANY
LOG .                       IEL : LOG
DATE.                1977-12-07 : RUN DATE
RUN .                         3 : RUN NUMBER
TDD .F                    12749 : TOTAL DEPTH DRILLER
TDL .F                    12750 : TOTAL DEPTH LOGGER
BOTL.F                    12744 : BOTTOM LOGGED INTERVAL
TOPL.F                    11618 : TOP LOGGED INTERVAL
CSGS.IN                   7.625 : CASING SIZE
CSGD.F                    11626 : CASING DRILLER
CSGL.F                    11618 : CASING LOGGER
BS  .IN                     6.5 : BIT SIZE
MUD .             LIGNO LIGNITE : MUD TYPE
MUDD.                      16.4 : MUD DENSITY
MUDV.                        50 : MUD VISCOSITY
PH  .                      11.5 : MUD PH
FL  .                       3.5 : FLUID LOSS
MUDS.                       PIT : SOURCE OF SAMPLE
RM  .OHMM                  0.98 : MUD RESISTIVITY
RMT .DEGF                    82 : RM TEMPERATURE
RMF .OHMM                  0.57 : MUD FILTRATE RESISTIVITY
RMFT.DEGF                    50 : RMF TEMPERATURE
RMC .OHMM                  2.48 : MUD CAKE RESISTIVITY
RMCT.DEGF                    50 : RMC TEMPERATURE
RMFS.                      MEAS : RMF SOURCE
RMCS.                      MEAS : RMC SOURCE
RMBH.OHMM                  0.34 : MUD RESISTIVITY AT BHT
BHT .DEGF                   235 : BOTTOM HOLE TEMPERATURE
TIMC.                           : TIME CIRCULATION STOPPED
TIML.                           : TIME LOGGER ON BOTTOM
TMAX.DEGF                   235 : MAXIMUM RECORDED TEMPERATURE
UNIT.                      2844 : EQUIPMENT NUMBER
BASE.                     HOUMA : BASE LOCATION
ENG .                  CROTHERS : RECORDED BY
WIT .                   HUBBARD : WITNESSED BY
~Curve Information -----------------------------------------
DEPT.F          :DEPTH
ASN.OHMM        :
CILD.MMHO       :
ILD.OHMM        :
SP.MV           :
~ASCII ------------------------------------------------------
# ...
9078.50000        0.99360     1166.56224        0.93024      -51.99852
9079.00000        1.00889     1154.99024        0.93538      -51.54643
9079.50000        1.02423     1143.33824        0.94071      -51.09434
9080.00000        1.03953     1131.76624        0.94605      -50.64225
9080.50000        1.02273     1120.11424        0.95119      -50.18618
9081.00000        1.00593     1108.54224        0.95652      -49.73409
9081.50000        0.98913     1108.97016        0.96186      -51.27400
9082.00000        0.97233     1109.47808        0.96700      -52.80993
9082.50000        1.00099     1109.90601        0.97233      -54.34984
9083.00000        1.02964     1110.33393        0.97767      -55.88975
9083.50000        1.05830     1110.76185        0.98281      -57.42967
9084.00000        1.08696     1111.26977        0.98814      -58.96560
9084.50000        1.07707     1111.69770        0.98162      -60.50551
9085.00000        1.06719     1112.12562        0.97490      -59.57932
9085.50000        1.05731     1112.55354        0.96838      -58.64915
9086.00000        1.04743     1113.06146        0.96186      -57.72296
9086.50000        1.03755     1113.48939        0.95514      -56.79678
9087.00000        1.02767     1113.91731        0.94862      -55.86660
9087.50000        1.04217     1114.34523        0.94209      -54.94042
9088.00000        1.05664     1115.28108        0.93538      -54.01423
9088.50000        1.07115     1115.70900        0.92885      -53.08406
9089.00000        1.06028     1116.13692        0.92233      -52.15787
9089.50000        1.04941     1116.64484        0.91561      -51.23168
9090.00000        1.03854     1117.07277        0.90909      -50.30151
9090.50000        1.02767     1117.10069        0.91403      -49.37532
9091.00000        1.03715     1117.12862        0.91897      -49.89931
9091.50000        1.04664     1117.15654        0.92391      -50.42330
9092.00000        1.05613     1117.18447        0.92885      -50.94331
9092.50000        1.06561     1117.21239        0.93379      -51.46730
9093.00000        1.07510     1117.24032        0.93873      -51.99129
9093.50000        1.04941     1110.06829        0.94368      -52.51528
9094.00000        1.02372     1102.89626        0.94862      -53.03529
9094.50000        1.04478     1095.72423        0.95356      -53.55928
9095.00000        1.06589     1088.55220        0.95850      -54.08327
9095.50000        1.08696     1081.38017        0.96344      -54.60726
9096.00000        1.07826     1074.20814        0.96838      -55.12727
9096.50000        1.06956     1067.03611        0.96364      -55.65126
9097.00000        1.06087     1059.86409        0.95909      -56.17525
9097.50000        1.05217     1052.69206        0.95435      -56.22116
9098.00000        1.04348     1045.52003        0.94980      -56.26707
9098.50000        1.02522     1071.54779        0.94506      -56.31298
9099.00000        1.00692     1097.57555        0.94051      -56.35889
9099.50000        0.98866     1123.60331        0.93577      -56.40879
9100.00000        0.97036     1143.99018        0.93123      -56.45470
9100.50000        0.95022     1170.01794        0.92465      -56.48597
9101.00000        0.93195     1196.04570        0.92012      -56.53188
9101.50000        0.91373     1222.07346        0.91538      -56.57779
9102.00000        0.89546     1248.10122        0.91085      -56.34482
9102.50000        0.91519     1228.92927        0.90611      -56.11584
9103.00000        0.93491     1209.75731        0.90158      -55.88287
9103.50000        0.95463     1190.58536        0.89684      -55.65388
9104.00000        0.97436     1171.41341        0.89231      -55.42091
9104.50000        0.99408     1152.24145        0.88757      -55.18794
9105.00000        0.99310     1133.06950        0.90039      -54.95895
9105.50000        0.99211     1113.89755        0.91302      -54.72598
9106.00000        0.99112     1104.37910        0.92584      -54.49301
9106.50000        0.99014     1094.72559        0.93866      -54.26402
9107.00000        1.00627     1075.55364        0.95148      -54.03105
9107.50000        1.02241     1056.38169        0.96410      -53.80207
9108.00000        1.03854     1028.40979        0.97692      -53.56910
9108.50000        1.05467     1000.43789        0.98974      -53.33613
9109.00000        1.07081      972.46600        1.00237      -53.10714
9109.50000        1.08698      944.49410        1.01519      -52.87417
9110.00000        1.10312      916.52220        1.02801      -52.64120
9110.50000        1.11925      888.55030        1.04063      -52.41221
9111.00000        1.13538      860.57841        1.05345      -52.17924
9111.50000        1.15152      832.60651        1.06627      -51.95026
9112.00000        1.16765      871.03419        1.07909      -51.71729
9112.50000        1.13609      909.46187        1.09172      -51.48431
9113.00000        1.10454      947.88955        1.10454      -51.25533
9113.50000        1.07298      986.31724        1.08047      -51.02236
9114.00000        1.04142     1024.74492        1.05641      -50.78939
9114.50000        1.00986     1063.17260        1.03215      -50.56040
9115.00000        0.97830     1101.60028        1.00809      -50.32743
9115.50000        0.94675     1140.02796        0.98402      -50.09844
9116.00000        0.91519     1178.45565        0.95996      -49.86547
9116.50000        0.92552     1216.88333        0.93570      -50.05879
9117.00000        0.93590     1191.79141        0.91164      -50.24813
9117.50000        0.94623     1166.61950        0.88757      -50.44145
9118.00000        0.95661     1141.52758        0.89625      -50.63078
9118.50000        0.96694     1116.43567        0.90513      -50.82410
9119.00000        0.97732     1091.34375        0.91381      -51.01742
9119.50000        0.98765     1066.17183        0.92268      -51.20675
9120.00000        0.99803     1041.07992        0.93136      -51.40007
9120.50000        0.97830     1076.62762        0.94024      -51.59339
9121.00000        0.95858     1112.25532        0.94891      -51.78272
9121.50000        0.93886     1147.80302        0.95779      -51.97604
9122.00000        0.91913     1183.43072        0.96647      -52.16537
9122.50000        0.89941     1218.97842        0.95168      -52.35869
9123.00000        0.87968     1254.60612        0.93688      -52.55201
9123.50000        0.85996     1290.15382        0.92209      -52.74135
9124.00000        0.84024     1325.78152        0.90730      -52.93466
9124.50000        0.85337     1361.32922        0.89250      -53.12798
9125.00000        0.86655     1337.35730        0.87771      -53.31732
9125.50000        0.87968     1313.38537        0.86292      -53.51064
9126.00000        0.89282     1289.41345        0.84813      -53.69997
9126.50000        0.90600     1265.44153        0.83333      -53.89329
9127.00000        0.91913     1241.46960        0.81854      -53.86350
9127.50000        0.92043     1262.29740        0.80375      -53.83770
9128.00000        0.92177     1283.12519        0.78895      -53.80791
9128.50000        0.92308     1303.95298        0.82682      -53.77813
9129.00000        0.92438     1324.78078        0.86450      -53.75233
9129.50000        0.92572     1345.60857        0.90237      -53.72254
9130.00000        0.92702     1283.39689        0.94024      -53.69275
9130.50000        0.97389     1221.18521        0.97791      -53.66297
9131.00000        1.02071     1159.05353        1.01578      -53.63717
9131.50000        1.06757     1128.76796        1.05365      -53.60738
9132.00000        1.11440     1096.84185        1.09132      -53.57759
9132.50000        1.16126     1034.63017        1.12919      -53.55179
9133.00000        1.20809      972.41849        1.16706      -53.52201
9133.50000        1.25495      910.28681        1.20473      -53.49222
9134.00000        1.30177      848.07513        1.24260      -53.46642
9134.50000        1.28075      785.86345        1.22465      -53.43663
