~Version ---------------------------------------------------
VERS. 2.0 : CWLS LOG ASCII STANDARD - VERSION 2.0
WRAP. NO  : One line per depth step
DLM . SPACE : Column Data Section Delimiter
~Well ------------------------------------------------------
STRT.F         8350 : START DEPTH
STOP.F      12743.5 : STOP DEPTH
STEP.F          0.5 : STEP
NULL.       -999.25 : NULL VALUE
COMP.            AMOCO PRODUCTION COMPANY : COMPANY
WELL.             155847-SL862-011-862-30 : WELL
FLD .                  VERMILION BLOCK 15 : FIELD
CNTY.                           VERMILION : COUNTY
STAT.                           LOUISIANA : STATE
CTRY.                                 USA : COUNTRY
SEC .                                     : SECTION
TWP .                                     : TOWNSHIP
RGE .                                     : RANGE
LOC .                                     : LOCATION
EKB .F                    44.35 : ELEVATION KELLY BUSHING
EDF .F                     44.5 : ELEVATION DERRICK FLOOR
EGL .F                          : ELEVATION GROUND LEVEL
PDAT.                       BHF : PERMANENT DATUM
EPD .                           : ELEVATION PERMANENT DATUM
APD .                        33 : ABOVE PERMANENT DATUM
LMF .                       RKB : LOG MEASURED FROM
DMF .                       RKB : DRILLING MEASURED FROM
API .            17705200940000 : API NUMBER
UWI .                           : UWI NUMBER
DIGC.                     NthDS : DIGITIZING COMPANY
~Params ----------------------------------------------------
SRVC.                     WELEX : LOGGING COMPANY
LOG .                       CDL : LOG
DATE.                1977-09-17 : RUN DATE
RUN .                         1 : RUN NUMBER
TDD .F                    11102 : TOTAL DEPTH DRILLER
TDL .F                    11116 : TOTAL DEPTH LOGGER
BOTL.F                    11020 : BOTTOM LOGGED INTERVAL
TOPL.F                     8350 : TOP LOGGED INTERVAL
CSGS.IN                  13.375 : CASING SIZE
CSGD.F                     1800 : CASING DRILLER
CSGL.F                          : CASING LOGGER
BS  .IN                   12.25 : BIT SIZE
MUD .             LIGNO LIGNITE : MUD TYPE
MUDD.                      10.5 : MUD DENSITY
MUDV.                           : MUD VISCOSITY
PH  .                           : MUD PH
FL  .                           : FLUID LOSS
MUDS.                           : SOURCE OF SAMPLE
RM  .OHMM                       : MUD RESISTIVITY
RMT .DEGF                       : RM TEMPERATURE
RMF .OHMM                       : MUD FILTRATE RESISTIVITY
RMFT.DEGF                       : RMF TEMPERATURE
RMC .OHMM                       : MUD CAKE RESISTIVITY
RMCT.DEGF                       : RMC TEMPERATURE
RMFS.                           : RMF SOURCE
RMCS.                           : RMC SOURCE
RMBH.OHMM                       : MUD RESISTIVITY AT BHT
BHT .DEGF                       : BOTTOM HOLE TEMPERATURE
TIMC.                           : TIME CIRCULATION STOPPED
TIML.                           : TIME LOGGER ON BOTTOM
TMAX.DEGF                   194 : MAXIMUM RECORDED TEMPERATURE
UNIT.                           : EQUIPMENT NUMBER
BASE.                           : BASE LOCATION
ENG .          KNOLES, MOBERLEY : RECORDED BY
WIT .               MR. HUBBARD : WITNESSED BY
#
SRVC.                     WELEX : LOGGING COMPANY
LOG .                       CDL : LOG
DATE.                1977-12-08 : RUN DATE
RUN .                         2 : RUN NUMBER
TDD .F                    12749 : TOTAL DEPTH DRILLER
TDL .F                    12746 : TOTAL DEPTH LOGGER
BOTL.F                    12744 : BOTTOM LOGGED INTERVAL
TOPL.F                    12140 : TOP LOGGED INTERVAL
CSGS.IN                  13.375 : CASING SIZE
CSGD.F                     1800 : CASING DRILLER
CSGL.F                          : CASING LOGGER
BS  .IN                     6.5 : BIT SIZE
MUD .             LIGNO LIGNITE : MUD TYPE
MUDD.                      16.4 : MUD DENSITY
MUDV.                           : MUD VISCOSITY
PH  .                           : MUD PH
FL  .                           : FLUID LOSS
MUDS.                           : SOURCE OF SAMPLE
RM  .OHMM                       : MUD RESISTIVITY
RMT .DEGF                       : RM TEMPERATURE
RMF .OHMM                       : MUD FILTRATE RESISTIVITY
RMFT.DEGF                       : RMF TEMPERATURE
RMC .OHMM                       : MUD CAKE RESISTIVITY
RMCT.DEGF                       : RMC TEMPERATURE
RMFS.                           : RMF SOURCE
RMCS.                           : RMC SOURCE
RMBH.OHMM                       : MUD RESISTIVITY AT BHT
BHT .DEGF                       : BOTTOM HOLE TEMPERATURE
TIMC.                           : TIME CIRCULATION STOPPED
TIML.                           : TIME LOGGER ON BOTTOM
TMAX.DEGF                   235 : MAXIMUM RECORDED TEMPERATURE
UNIT.                           : EQUIPMENT NUMBER
BASE.                           : BASE LOCATION
ENG .                  CROTHERS : RECORDED BY
WIT .               MR. HUBBARD : WITNESSED BY
~Curve Information -----------------------------------------
DEPT.F          :DEPTH
CALI.IN         :
DPHI.%          :
DRHO.G/CC       :
GR.GAPI         :
NPHI.%          :
RHOB.G/CC       :
~ASCII ------------------------------------------------------
# ...
10740.50000       14.83044       25.08741        0.00346       83.24296       49.85284        2.21799
10741.00000       14.90435       25.42460        0.00144       85.89227       49.91493        2.20742
10741.50000       14.93729       25.42089        0.00274       88.84746       49.58395        2.20291
10742.00000       14.86394       25.14240        0.00487       92.26148       49.78122        2.20909
10742.50000       14.79060       25.21991        0.00701       94.20726       50.26781        2.21175
10743.00000       14.74883       25.45571        0.00521       93.94599       50.50362        2.20573
10743.50000       14.72804       25.61267        0.00080       94.55060       50.75101        2.19971
10744.00000       14.70705       25.29117       -0.00361       93.37639       49.94362        2.20223
10744.50000       14.87743       25.27618       -0.00803       87.88925       50.15571        2.21046
10745.00000       15.09547       25.60863       -0.00642       86.89622       50.74725        2.20661
10745.50000       15.02565       25.93693       -0.00331       87.03024       51.27949        2.19975
10746.00000       14.95584       26.36898       -0.00583       88.39014       51.27815        2.19136
10746.50000       14.90191       27.22019       -0.01210       89.75005       50.56535        2.17689
10747.00000       14.91190       28.09334       -0.01351       89.66760       49.97112        2.16242
10747.50000       14.90680       27.61769       -0.00763       87.42516       50.18736        2.16086
10748.00000       14.84169       28.75112       -0.00650       85.23683       50.73918        2.16043
10748.50000       14.77659       30.11695       -0.01367       83.27910       51.33071        2.13012
10749.00000       14.62913       29.86660       -0.01966       83.04606       51.23687        2.12411
10749.50000       14.46971       28.61013       -0.01252       83.83185       50.97229        2.13429
10750.00000       14.32747       28.33944       -0.00532       86.43086       50.15794        2.14323
10750.50000       14.10217       28.04166       -0.00971       86.47312       49.56371        2.15103
10751.00000       13.95138       25.71801       -0.01095       84.71067       49.17700        2.15526
10751.50000       14.09862       24.81786       -0.00745       82.94823       49.10154        2.18447
10752.00000       14.29489       24.83608       -0.01684       82.59755       50.35413        2.21367
10752.50000       14.49116       25.23018       -0.02622       84.64686       50.60180        2.21488
10753.00000       14.55507       25.56203       -0.01997       87.82559       50.67160        2.20909
10753.50000       14.61898       25.64488       -0.01370       89.82078       51.13685        2.20331
10754.00000       14.68290       25.18642       -0.01476       87.07716       51.16989        2.20077
10754.50000       14.74681       24.63192       -0.01766       88.13824       50.87685        2.21123
10755.00000       14.72739       24.10351       -0.01729       89.37109       50.12492        2.22168
10755.50000       14.63523       23.77430       -0.01203       88.62511       49.55856        2.23213
10756.00000       14.54326       23.14569       -0.00676       88.27914       49.15761        2.23727
10756.50000       14.45109       23.24276       -0.00255       89.53551       48.68197        2.24107
10757.00000       14.41442       22.96988        0.00272       90.79188       48.40256        2.24488
10757.50000       14.41461       23.28631        0.00799       91.32826       48.90991        2.24868
10758.00000       14.31676       23.70677        0.00416       88.97758       48.91508        2.24700
10758.50000       14.39538       24.72577       -0.00315       86.62690       49.20155        2.23709
10759.00000       14.47400       25.82541       -0.00021       85.01505       50.17609        2.22224
10759.50000       14.37615       27.44084        0.00074       84.51378       50.42909        2.19997
10760.00000       14.27829       29.05687       -0.00629       87.57485       49.96174        2.17770
10760.50000       14.30887       30.48555       -0.01331       87.39594       49.27621        2.15542
10761.00000       14.37142       31.03736       -0.02034       87.21702       48.44483        2.13315
10761.50000       14.38474       30.42357       -0.02456       87.83575       47.75575        2.11088
10762.00000       14.20062       29.07817       -0.02457       89.64741       46.50936        2.10715
10762.50000       13.94786       27.29819       -0.02966       91.45908       45.81612        2.13124
10763.00000       13.85982       25.46722       -0.03130       93.96251       45.24206        2.16028
10763.50000       13.73255       24.32280       -0.02587       96.63770       44.66740        2.19055
10764.00000       13.44843       22.64598       -0.02044       96.69173       44.07317        2.22083
10764.50000       13.21234       20.83635       -0.01500       94.99281       43.32065        2.25489
10765.00000       13.16783       18.47061       -0.01679       96.42095       42.30014        2.28415
10765.50000       13.12350       15.96612       -0.02338       97.77144       41.15573        2.32073
10766.00000       13.02565       14.95688       -0.01513       95.69135       39.70005        2.35850
10766.50000       12.92780       14.30337       -0.01191       93.61362       37.92573        2.38650
10767.00000       12.84952       13.64986       -0.02179       91.50059       36.06096        2.39721
10767.50000       12.83755       12.16632       -0.03561       89.36167       34.13276        2.40790
10768.00000       12.88166       10.20820       -0.04648       87.37525       32.20456        2.43890
10768.50000       13.01068       13.34938       -0.02184       83.84810       30.55323        2.46992
10769.00000       13.13949       19.12861        0.00280       69.85039       30.30465        2.41207
10769.50000       13.25105       24.25594        0.01539       62.59855       31.14342        2.33203
10770.00000       13.29320       30.87528        0.02196       61.12081       34.54105        2.22850
10770.50000       13.33535       33.37200        0.00449       63.91600       38.15654        2.13911
10771.00000       13.38436       33.84199       -0.01297       69.62413       41.78658        2.04972
10771.50000       13.44337       33.99361       -0.01627       77.27343       43.13047        2.05535
10772.00000       13.42650       34.31361       -0.01821       82.37450       44.05165        2.05085
10772.50000       13.29610       34.38637       -0.02217       82.01441       44.22014        2.03960
10773.00000       13.16551       31.85284       -0.01357       80.29197       44.54310        2.05506
10773.50000       13.16569       27.99514       -0.00183       78.56952       45.03621        2.11061
10774.00000       13.16588       24.65885        0.00565       81.04942       46.12161        2.16615
10774.50000       13.31313       24.06462       -0.00395       84.89403       46.21928        2.22170
10775.00000       13.46038       23.55518       -0.01353       89.19981       46.30687        2.23082
10775.50000       13.60762       22.87618       -0.02312       92.27735       46.35473        2.23993
10776.00000       13.53369       22.02523       -0.01747       95.35725       46.64982        2.25456
10776.50000       13.40447       20.96145       -0.00800       97.57833       46.86310        2.27747
10777.00000       13.27525       20.44133       -0.00241      103.35705       46.75089        2.29581
10777.50000       13.14602       20.73643       -0.01229      107.34989       46.59836        2.28801
10778.00000       13.01680       19.99991       -0.01378      102.94980       46.12567        2.29719
10778.50000       13.25914       19.91023       -0.00271       93.87678       45.45734        2.30937
10779.00000       13.59423       21.42428       -0.00947       89.03905       46.31863        2.28844
10779.50000       13.87148       22.17794       -0.02069       87.42720       47.17933        2.26330
