~Version ---------------------------------------------------
VERS. 2.0 : CWLS LOG ASCII STANDARD - VERSION 2.0
WRAP. NO  : One line per depth step
DLM . SPACE : Column Data Section Delimiter
~Well ------------------------------------------------------
STRT.F       3816.5 : START DEPTH
STOP.F        13000 : STOP DEPTH
STEP.F          0.5 : STEP
NULL.       -999.25 : NULL VALUE
COMP.             UNION PACIFIC RESOURCES : COMPANY
WELL.                 219499-LLECO-003-29 : WELL
FLD .                     FOUR LEAGUE BAY : FIELD
CNTY.                          TERREBONNE : COUNTY
STAT.                           LOUISIANA : STATE
CTRY.                                 USA : COUNTRY
SEC .                                     : SECTION
TWP .                                     : TOWNSHIP
RGE .                                     : RANGE
LOC .                                     : LOCATION
EKB .F                          : ELEVATION KELLY BUSHING
EDF .F                          : ELEVATION DERRICK FLOOR
EGL .F                          : ELEVATION GROUND LEVEL
PDAT.                       BHF : PERMANENT DATUM
EPD .                           : ELEVATION PERMANENT DATUM
APD .                           : ABOVE PERMANENT DATUM
LMF .                       RKB : LOG MEASURED FROM
DMF .                       RKB : DRILLING MEASURED FROM
API .            17109235220000 : API NUMBER
UWI .                           : UWI NUMBER
DIGC.                     NthDS : DIGITIZING COMPANY
~Params ----------------------------------------------------
SRVC.              SCHLUMBERGER : LOGGING COMPANY
LOG .                   AIT/LSS : LOG
DATE.                1996-12-21 : RUN DATE
RUN .                         1 : RUN NUMBER
TDD .F                    13000 : TOTAL DEPTH DRILLER
TDL .F                    12998 : TOTAL DEPTH LOGGER
BOTL.F                    12990 : BOTTOM LOGGED INTERVAL
TOPL.F                     4026 : TOP LOGGED INTERVAL
CSGS.IN                   10.75 : CASING SIZE
CSGD.F                     4025 : CASING DRILLER
CSGL.F                     4026 : CASING LOGGER
BS  .IN                   9.875 : BIT SIZE
MUD .          CARBOMAX/QBROXIN : MUD TYPE
MUDD.                       9.8 : MUD DENSITY
MUDV.                        41 : MUD VISCOSITY
PH  .                       8.2 : MUD PH
FL  .                        11 : FLUID LOSS
MUDS.                  CIRC PIT : SOURCE OF SAMPLE
RM  .OHMM                 0.620 : MUD RESISTIVITY
RMT .DEGF                    75 : RM TEMPERATURE
RMF .OHMM                 0.926 : MUD FILTRATE RESISTIVITY
RMFT.DEGF                    75 : RMF TEMPERATURE
RMC .OHMM                 0.310 : MUD CAKE RESISTIVITY
RMCT.DEGF                    75 : RMC TEMPERATURE
RMFS.                      CALC : RMF SOURCE
RMCS.                      CALC : RMC SOURCE
RMBH.OHMM                 0.251 : MUD RESISTIVITY AT BHT
BHT .DEGF                   195 : BOTTOM HOLE TEMPERATURE
TIMC.                2000 11-21 : TIME CIRCULATION STOPPED
TIML.                1800 11-21 : TIME LOGGER ON BOTTOM
TMAX.DEGF                   195 : MAXIMUM RECORDED TEMPERATURE
UNIT.                      2015 : EQUIPMENT NUMBER
BASE.              HOUMA INLAND : BASE LOCATION
ENG .       T.NESBIT/L.GUERRERO : RECORDED BY
WIT .          HERMAN DEVILLIER : WITNESSED BY
~Curve Information -----------------------------------------
DEPT.F          :DEPTH
AHT10.OHMM      :
AHT30.OHMM      :
AHT90.OHMM      :
CILD.MMHO       :
DCAL.IN         :
DTLF.US/F       :
DTLN.US/F       :
GR.GAPI         :
SP.MV           :
TENS.LBF        :
~ASCII ------------------------------------------------------
# ...
6391.50000        1.04604        0.54801        0.48704     2148.59438        1.11304      109.04193      108.31937       63.04779      -25.73708     2822.55665
6392.00000        0.93023        0.51833        0.46701     2146.55531        1.10015      107.52496      106.49901       65.73704      -24.94027     2817.96584
6392.50000        0.85994        0.52238        0.45295     2144.51624        1.08766      104.63075      104.67865       66.75297      -24.14346     2813.37502
6393.00000        0.86206        0.53927        0.46004     2102.63766        1.14430      102.89422      102.85830       64.97210      -24.14346     2808.98380
6393.50000        0.88755        0.56430        0.47322     2060.75907        1.37397      105.16967      103.29342       59.66234      -23.74505     2804.39298
6394.00000        0.92607        0.58603        0.48843     2018.88049        1.70793      109.24552      107.71259       56.65337      -24.14346     2799.80217
6394.50000        0.93935        0.60861        0.50413     1977.00190        2.04149      113.50899      112.13374       59.27090      -23.34665     2795.41095
6395.00000        0.91957        0.62041        0.52037     1935.12331        1.74249      115.80240      115.46907       63.43325      -21.35462     2796.60855
6395.50000        0.90021        0.62458        0.53626     1893.24473        1.44349      113.67266      113.82835       67.59261      -16.97215     2799.80217
6396.00000        0.88094        0.62883        0.55247     1851.28615        1.16461      109.68065      110.61278       71.73703      -11.79286     2802.59658
6396.50000        0.86104        0.63305        0.56912     1809.40756        0.96551      105.68863      107.39722       75.87249       -4.62155     2805.39099
6397.00000        0.85329        0.63736        0.59470     1767.52897        0.83673      102.52895      104.17965       79.86751       -0.23908     2807.98580
6397.50000        0.86532        0.64164        0.62142     1725.65039        0.81425      102.07386      102.65470       83.27986        2.15135     2810.78021
6398.00000        0.87748        0.66137        0.65513     1683.77180        0.79138      102.29542      103.47307       84.56173        1.35454     2813.37502
6398.50000        0.87763        0.67830        0.68457     1641.89322        0.76850      104.29143      104.37127       85.30874       -1.83271     2816.16943
6399.00000        0.87777        0.69567        0.69624     1600.01463        0.82354      105.08983      105.21358       86.03484       -4.22315     2818.96384
6399.50000        0.89487        0.71341        0.70811     1596.77558        0.87898      105.58883      105.83833       86.73404       -7.01199     2821.55865
6400.00000        0.88120        0.68983        0.68629     1593.53652        0.78297      105.70261      105.83634       87.43026       -7.41040     2824.35306
6400.50000        0.89072        0.68640        0.68640     1587.11212        0.83801      104.94412      105.13175       88.80476       -3.02793     2807.58660
6401.00000        0.89514        0.68298        0.68085     1583.87306        0.84670      104.47706      104.71259       89.90137        0.55773     2810.38101
6401.50000        0.89966        0.67876        0.67162     1605.51370        0.81916      104.41119      104.29143       90.99500        4.54179     2813.17542
6402.00000        0.90412        0.67111        0.65302     1627.23434        0.79629      105.38923      105.78843       91.56273        4.94020     2815.77023
6402.50000        0.91632        0.66354        0.62883     1648.87498        0.77341      106.88624      107.28544       91.43424        2.54976     2818.56464
6403.00000        0.92812        0.65606        0.60553     1670.59562        0.75093      107.70859      108.22955       86.75197       -1.83271     2821.35905
6403.50000        0.91555        0.63832        0.57968     1692.23626        0.72805      108.08384      108.80640       81.27488       -5.81677     2823.95386
6404.00000        0.89669        0.60972        0.53460     1713.95690        0.70517      109.08185      109.38125       76.97209       -9.40243     2826.74827
6404.50000        0.85320        0.58240        0.49967     1735.59754        0.66591      110.07985      109.95610       77.11552      -11.39446     2829.34308
6405.00000        0.81183        0.55630        0.46707     1863.55689        0.62665      110.35131      110.53294       80.21711      -11.39446     2832.13749
6405.50000        0.81136        0.54942        0.46003     1991.51623        0.58738      110.44312      110.97805       83.94022      -10.59765     2832.93589
6406.00000        0.82148        0.54008        0.45870     2015.47685        0.54812      110.38324      110.97007       83.96412       -9.40243     2825.75026
6406.50000        0.84515        0.54032        0.46623     2039.43746        0.57399      110.19163      110.75650       81.87249       -8.60561     2817.16743
6407.00000        0.87698        0.54686        0.47387     2063.39807        0.59947      110.03195      110.57885       79.87946       -8.20721     2810.18141
6407.50000        0.91000        0.55353        0.48164     2047.35917        0.63027      109.87227      110.40121       80.80576       -7.01199     2802.99578
6408.00000        0.92365        0.56028        0.48954     2031.32027        0.65614      109.71258      110.22157       82.08464       -6.61358     2795.81015
6408.50000        0.92380        0.56706        0.48553     2015.28137        0.68162      109.92017      110.19761       83.36651       -6.61358     2799.40297
6409.00000        0.90330        0.57260        0.48156     1999.24247        0.70749      110.21957      110.78843       82.55078       -7.01199     2805.59059
6409.50000        0.87820        0.57270        0.47499     1983.20357        0.75294      110.99801      111.37725       80.51293       -9.40243     2811.77821
6410.00000        0.85176        0.56364        0.46782     1975.16457        0.80359      111.89622      111.96608       78.35257      -12.58968     2818.16544
6410.50000        0.81787        0.54588        0.46076     1992.72526        0.80349      112.30340      112.55690       75.16731      -14.58171     2824.35306
6411.00000        0.78540        0.53150        0.45245     2010.28595        0.72746      112.31538      112.40919       74.25297      -14.58171     2830.54068
6411.50000        0.75422        0.51754        0.45394     2027.84664        0.65104      111.59682      112.07586       74.50098      -12.58968     2833.73429
6412.00000        0.72421        0.50390        0.45749     2045.40733        0.62216      109.96608      110.65071       74.75197      -11.39446     2831.93789
6412.50000        0.69546        0.50658        0.46650     2062.96802        0.60448      107.68464      109.22356       74.99998       -9.80083     2830.34108
6413.00000        0.69917        0.51238        0.49487     2026.36937        0.60198      107.51298      108.08384       74.36054       -9.00402     2828.14547
6413.50000        0.70574        0.53114        0.54066     1989.77072        0.60947      108.28344      108.78843       76.34460       -7.01199     2826.54867
6414.00000        0.72408        0.55058        0.59014     1953.17207        0.61830      109.28145      110.54891       80.50994       -4.62155     2824.95186
6414.50000        0.73880        0.57069        0.62087     1916.49343        0.62539      110.33534      112.31139       85.32667       -0.23908     2823.15545
6415.00000        0.73824        0.57373        0.64722     1879.89478        0.63288      111.38923      114.07187       88.14739        3.34657     2821.55865
6415.50000        0.73159        0.56507        0.65753     1843.29613        0.64037      112.44113      114.47107       89.15735        4.94020     2819.76224
6416.00000        0.70705        0.55829        0.63325     1806.69748        0.72219      113.07386      114.87027       89.34261        4.94020     2818.16544
