~Version ---------------------------------------------------
VERS. 2.0 : CWLS LOG ASCII STANDARD - VERSION 2.0
WRAP. NO  : One line per depth step
DLM . SPACE : Column Data Section Delimiter
~Well ------------------------------------------------------
STRT.F       3816.5 : START DEPTH
STOP.F        13000 : STOP DEPTH
STEP.F          0.5 : STEP
NULL.       -999.25 : NULL VALUE
COMP.             UNION PACIFIC RESOURCES : COMPANY
WELL.                 219499-LLECO-003-29 : WELL
FLD .                     FOUR LEAGUE BAY : FIELD
CNTY.                          TERREBONNE : COUNTY
STAT.                           LOUISIANA : STATE
CTRY.                                 USA : COUNTRY
SEC .                                     : SECTION
TWP .                                     : TOWNSHIP
RGE .                                     : RANGE
LOC .                                     : LOCATION
EKB .F                          : ELEVATION KELLY BUSHING
EDF .F                          : ELEVATION DERRICK FLOOR
EGL .F                          : ELEVATION GROUND LEVEL
PDAT.                       BHF : PERMANENT DATUM
EPD .                           : ELEVATION PERMANENT DATUM
APD .                           : ABOVE PERMANENT DATUM
LMF .                       RKB : LOG MEASURED FROM
DMF .                       RKB : DRILLING MEASURED FROM
API .            17109235220000 : API NUMBER
UWI .                           : UWI NUMBER
DIGC.                     NthDS : DIGITIZING COMPANY
~Params ----------------------------------------------------
SRVC.              SCHLUMBERGER : LOGGING COMPANY
LOG .                   AIT/LSS : LOG
DATE.                1996-12-21 : RUN DATE
RUN .                         1 : RUN NUMBER
TDD .F                    13000 : TOTAL DEPTH DRILLER
TDL .F                    12998 : TOTAL DEPTH LOGGER
BOTL.F                    12990 : BOTTOM LOGGED INTERVAL
TOPL.F                     4026 : TOP LOGGED INTERVAL
CSGS.IN                   10.75 : CASING SIZE
CSGD.F                     4025 : CASING DRILLER
CSGL.F                     4026 : CASING LOGGER
BS  .IN                   9.875 : BIT SIZE
MUD .          CARBOMAX/QBROXIN : MUD TYPE
MUDD.                       9.8 : MUD DENSITY
MUDV.                        41 : MUD VISCOSITY
PH  .                       8.2 : MUD PH
FL  .                        11 : FLUID LOSS
MUDS.                  CIRC PIT : SOURCE OF SAMPLE
RM  .OHMM                 0.620 : MUD RESISTIVITY
RMT .DEGF                    75 : RM TEMPERATURE
RMF .OHMM                 0.926 : MUD FILTRATE RESISTIVITY
RMFT.DEGF                    75 : RMF TEMPERATURE
RMC .OHMM                 0.310 : MUD CAKE RESISTIVITY
RMCT.DEGF                    75 : RMC TEMPERATURE
RMFS.                      CALC : RMF SOURCE
RMCS.                      CALC : RMC SOURCE
RMBH.OHMM                 0.251 : MUD RESISTIVITY AT BHT
BHT .DEGF                   195 : BOTTOM HOLE TEMPERATURE
TIMC.                2000 11-21 : TIME CIRCULATION STOPPED
TIML.                1800 11-21 : TIME LOGGER ON BOTTOM
TMAX.DEGF                   195 : MAXIMUM RECORDED TEMPERATURE
UNIT.                      2015 : EQUIPMENT NUMBER
BASE.              HOUMA INLAND : BASE LOCATION
ENG .       T.NESBIT/L.GUERRERO : RECORDED BY
WIT .          HERMAN DEVILLIER : WITNESSED BY
~Curve Information -----------------------------------------
DEPT.F          :DEPTH
AHT10.OHMM      :
AHT30.OHMM      :
AHT90.OHMM      :
CILD.MMHO       :
DCAL.IN         :
DTLF.US/F       :
DTLN.US/F       :
GR.GAPI         :
SP.MV           :
TENS.LBF        :
~ASCII ------------------------------------------------------
# ...
7591.50000        1.09056        0.46836        0.37041     2751.64488        0.12443      103.67466      104.83833       71.41433      -56.66536     3200.80007
7592.00000        1.11502        0.47420        0.35544     2836.70328        0.20585      104.30939      105.52097       71.77289      -60.11556     3193.61445
7592.50000        1.12292        0.47067        0.35318     3008.66209        0.42193      105.40320      106.20360       73.35656      -64.47811     3186.42882
7593.00000        1.05305        0.44460        0.34508     3189.98079        0.63761      107.18564      106.88624       71.08564      -68.10759     3179.44279
7593.50000        0.78821        0.37497        0.30693     3371.21948        1.05429      108.96807      107.74253       67.05178      -71.95221     3173.05557
7594.00000        0.58998        0.31627        0.26741     3552.53818        1.33151      109.78045      108.98205       65.43823      -73.94424     3170.46076
7594.50000        0.44434        0.25779        0.23190     3768.49645        1.08525      109.53893      110.17965       65.43823      -73.14743     3167.26715
7595.00000        0.39369        0.24852        0.20675     3984.45472        0.73950      108.63873      109.57087       67.08166      -70.75699     3164.47274
7595.50000        0.43670        0.25474        0.21918     3987.90097        0.39375      106.42117      107.30340       68.72508      -69.16337     3161.87793
7596.00000        0.53624        0.28803        0.24406     3992.37643        0.34529      104.95610      105.59682       67.05178      -67.96815     3159.08352
7596.50000        0.66383        0.32566        0.27010     3992.25734        0.52595      104.89023      106.13374       60.69919      -68.36656     3156.48871
7597.00000        0.72305        0.32473        0.26522     3992.05825        1.68108      106.17366      106.67067       54.38246      -70.35859     3153.69430
7597.50000        0.55892        0.27019        0.22194     3991.93915        2.92493      109.38125      109.53095       49.84063      -73.14743     3156.88791
7598.00000        0.44373        0.23685        0.19175     3991.74006        3.82872      113.87226      113.93813       48.40636      -75.53787     3159.88192
7598.50000        0.37434        0.21496        0.17378     3991.62096        3.68556      115.66867      117.46508       48.40636      -76.33468     3163.07553
7599.00000        0.31901        0.20854        0.17116     3991.42187        3.15360      115.46907      117.46508       51.82170      -77.52990     3166.06954
7599.50000        0.32876        0.20572        0.17266     3991.30278        2.52013      113.48903      115.75450       55.05477      -77.92831     3169.26315
7600.00000        0.33792        0.20160        0.16767     3991.18368        1.67047      111.03195      113.07386       56.73704      -78.32671     3172.45677
7600.50000        0.37055        0.20698        0.17066     3983.05666        1.61922      108.28344      109.08185       55.35357      -79.07173     3201.59848
7601.00000        0.40633        0.20993        0.17238     3982.93851        2.60907      107.48504      108.58284       53.68624      -78.82472     3211.57851
7601.50000        0.41394        0.20266        0.17092     3982.74100        2.93943      107.70261      108.05590       51.60656      -79.07572     3221.55855
7602.00000        0.39357        0.19566        0.16949     3982.62285        2.55372      107.91817      107.48504       51.18226      -79.66137     3231.53859
7602.50000        0.37421        0.19508        0.16806     3982.42533        2.07170      108.13574      106.91418       50.75497      -80.24703     3226.54857
7603.00000        0.38949        0.20409        0.17032     3982.30719        1.94253      108.35330      106.53694       49.99899      -80.83269     3217.76614
7603.50000        0.44294        0.21734        0.17848     3982.18904        2.43074      108.51897      107.71458       48.75596      -81.41835     3208.78410
7604.00000        0.59312        0.23075        0.18435     3981.99152        3.05081      108.61079      109.25151       47.50995      -82.00799     3200.00167
7604.50000        0.59125        0.23627        0.18247     3981.87337        3.50305      108.88225      110.56488       46.26393      -82.59364     3191.21924
7605.00000        0.55538        0.22516        0.17330     3981.67586        3.54930      109.88025      110.99203       46.49401      -82.13946     3182.43680
7605.50000        0.52168        0.21458        0.16315     3981.55771        3.55440      110.87825      111.41917       48.49302      -81.43030     3173.65437
7606.00000        0.51272        0.20449        0.15267     3981.36020        3.87931      111.87626      111.61678       50.61752      -80.71715     3173.65437
7606.50000        0.50387        0.19652        0.14958     3981.24205        4.17091      111.37725      111.51698       52.76891      -81.09564     3173.65437
7607.00000        0.49522        0.19590        0.15002     3981.12390        4.34584      110.78843      110.92616       53.48604      -81.41038     3173.65437
7607.50000        0.48667        0.19529        0.15074     3980.92639        4.34653      110.06189      110.00799       53.18724      -81.72512     3175.05158
7608.00000        0.47245        0.19469        0.15146     3980.80824        4.28729      109.21558      109.08983       51.26592      -81.59364     3178.44479
7608.50000        0.45726        0.19408        0.15218     3980.61073        3.99109      107.88424      108.17167       49.34461      -81.25898     3181.83800
7609.00000        0.44256        0.19347        0.15551     3980.49258        3.64533      108.21758      107.25350       47.89541      -81.62153     3185.23121
7609.50000        0.42055        0.19468        0.15891     3980.29506        3.29958      110.27945      108.41718       48.31971      -81.98408     3188.62443
7610.00000        0.40378        0.19635        0.16238     3980.17691        2.80477      112.25151      110.96608       50.31871      -82.34663     3192.01764
7610.50000        0.40999        0.19812        0.16493     3980.05877        2.27281      112.13374      111.27745       54.49003      -82.70918     3195.21125
7611.00000        0.42902        0.19998        0.16904     3979.86125        1.59858      112.01797      111.02795       59.10955      -81.56974     3198.60446
7611.50000        0.45323        0.21559        0.17977     3979.74310        0.71138      111.87626      110.02197       64.00397      -79.25500     3202.79608
7612.00000        0.49131        0.24284        0.19712     3979.42744        0.27691      110.75250      108.59682       66.39441      -76.15938     3206.18929
7612.50000        0.53259        0.26782        0.22018     3979.22993        0.64404      109.63075      107.17167       64.16831      -74.47412     3209.58251
7613.00000        0.50350        0.26962        0.21780     3979.11178        1.01077      108.50700      106.48704       57.37050      -76.21914     3212.97572
7613.50000        0.43613        0.24483        0.20462     3978.99363        0.99828      107.77047      105.98803       51.09561      -77.92831     3212.17732
7614.00000        0.40379        0.22232        0.19101     3978.79612        0.67944      107.12776      105.48903       47.21114      -76.58169     3210.38091
7614.50000        0.39384        0.21981        0.18329     3978.67797        0.94906      106.48704      106.48704       49.13246      -74.34265     3208.58450
7615.00000        0.39616        0.21527        0.17710     3978.48045        1.89561      108.08384      108.48304       51.46911      -73.14743     3206.78809
7615.50000        0.38632        0.20783        0.16709     3978.36231        2.84216      109.68065      110.47905       50.49800      -72.35062     3204.99169
7616.00000        0.36901        0.20062        0.15762     3978.16479        3.68281      111.27745      112.47506       47.19023      -72.74903     3203.19528
