~Version ---------------------------------------------------
VERS. 2.0 : CWLS LOG ASCII STANDARD - VERSION 2.0
WRAP. NO  : One line per depth step
DLM . SPACE : Column Data Section Delimiter
~Well ------------------------------------------------------
STRT.F         8350 : START DEPTH
STOP.F      12743.5 : STOP DEPTH
STEP.F          0.5 : STEP
NULL.       -999.25 : NULL VALUE
COMP.            AMOCO PRODUCTION COMPANY : COMPANY
WELL.             155847-SL862-011-862-30 : WELL
FLD .                  VERMILION BLOCK 15 : FIELD
CNTY.                           VERMILION : COUNTY
STAT.                           LOUISIANA : STATE
CTRY.                                 USA : COUNTRY
SEC .                                     : SECTION
TWP .                                     : TOWNSHIP
RGE .                                     : RANGE
LOC .                                     : LOCATION
EKB .F                    44.35 : ELEVATION KELLY BUSHING
EDF .F                     44.5 : ELEVATION DERRICK FLOOR
EGL .F                          : ELEVATION GROUND LEVEL
PDAT.                       BHF : PERMANENT DATUM
EPD .                           : ELEVATION PERMANENT DATUM
APD .                        33 : ABOVE PERMANENT DATUM
LMF .                       RKB : LOG MEASURED FROM
DMF .                       RKB : DRILLING MEASURED FROM
API .            17705200940000 : API NUMBER
UWI .                           : UWI NUMBER
DIGC.                     NthDS : DIGITIZING COMPANY
~Params ----------------------------------------------------
SRVC.                     WELEX : LOGGING COMPANY
LOG .                       CDL : LOG
DATE.                1977-09-17 : RUN DATE
RUN .                         1 : RUN NUMBER
TDD .F                    11102 : TOTAL DEPTH DRILLER
TDL .F                    11116 : TOTAL DEPTH LOGGER
BOTL.F                    11020 : BOTTOM LOGGED INTERVAL
TOPL.F                     8350 : TOP LOGGED INTERVAL
CSGS.IN                  13.375 : CASING SIZE
CSGD.F                     1800 : CASING DRILLER
CSGL.F                          : CASING LOGGER
BS  .IN                   12.25 : BIT SIZE
MUD .             LIGNO LIGNITE : MUD TYPE
MUDD.                      10.5 : MUD DENSITY
MUDV.                           : MUD VISCOSITY
PH  .                           : MUD PH
FL  .                           : FLUID LOSS
MUDS.                           : SOURCE OF SAMPLE
RM  .OHMM                       : MUD RESISTIVITY
RMT .DEGF                       : RM TEMPERATURE
RMF .OHMM                       : MUD FILTRATE RESISTIVITY
RMFT.DEGF                       : RMF TEMPERATURE
RMC .OHMM                       : MUD CAKE RESISTIVITY
RMCT.DEGF                       : RMC TEMPERATURE
RMFS.                           : RMF SOURCE
RMCS.                           : RMC SOURCE
RMBH.OHMM                       : MUD RESISTIVITY AT BHT
BHT .DEGF                       : BOTTOM HOLE TEMPERATURE
TIMC.                           : TIME CIRCULATION STOPPED
TIML.                           : TIME LOGGER ON BOTTOM
TMAX.DEGF                   194 : MAXIMUM RECORDED TEMPERATURE
UNIT.                           : EQUIPMENT NUMBER
BASE.                           : BASE LOCATION
ENG .          KNOLES, MOBERLEY : RECORDED BY
WIT .               MR. HUBBARD : WITNESSED BY
#
SRVC.                     WELEX : LOGGING COMPANY
LOG .                       CDL : LOG
DATE.                1977-12-08 : RUN DATE
RUN .                         2 : RUN NUMBER
TDD .F                    12749 : TOTAL DEPTH DRILLER
TDL .F                    12746 : TOTAL DEPTH LOGGER
BOTL.F                    12744 : BOTTOM LOGGED INTERVAL
TOPL.F                    12140 : TOP LOGGED INTERVAL
CSGS.IN                  13.375 : CASING SIZE
CSGD.F                     1800 : CASING DRILLER
CSGL.F                          : CASING LOGGER
BS  .IN                     6.5 : BIT SIZE
MUD .             LIGNO LIGNITE : MUD TYPE
MUDD.                      16.4 : MUD DENSITY
MUDV.                           : MUD VISCOSITY
PH  .                           : MUD PH
FL  .                           : FLUID LOSS
MUDS.                           : SOURCE OF SAMPLE
RM  .OHMM                       : MUD RESISTIVITY
RMT .DEGF                       : RM TEMPERATURE
RMF .OHMM                       : MUD FILTRATE RESISTIVITY
RMFT.DEGF                       : RMF TEMPERATURE
RMC .OHMM                       : MUD CAKE RESISTIVITY
RMCT.DEGF                       : RMC TEMPERATURE
RMFS.                           : RMF SOURCE
RMCS.                           : RMC SOURCE
RMBH.OHMM                       : MUD RESISTIVITY AT BHT
BHT .DEGF                       : BOTTOM HOLE TEMPERATURE
TIMC.                           : TIME CIRCULATION STOPPED
TIML.                           : TIME LOGGER ON BOTTOM
TMAX.DEGF                   235 : MAXIMUM RECORDED TEMPERATURE
UNIT.                           : EQUIPMENT NUMBER
BASE.                           : BASE LOCATION
ENG .                  CROTHERS : RECORDED BY
WIT .               MR. HUBBARD : WITNESSED BY
~Curve Information -----------------------------------------
DEPT.F          :DEPTH
CALI.IN         :
DPHI.%          :
DRHO.G/CC       :
GR.GAPI         :
NPHI.%          :
RHOB.G/CC       :
~ASCII ------------------------------------------------------
# ...
12360.00000        9.43039       22.33664        0.04960       51.02025       48.09921        2.26843
12360.50000        9.35941       21.74258        0.04268       52.63202       48.46040        2.27763
12361.00000        9.29961       21.36238        0.04678       50.92028       49.02951        2.28684
12361.50000        9.28471       20.89901        0.05089       50.48304       49.64852        2.29604
12362.00000        9.26981       20.40000        0.05499       51.88108       50.27703        2.30033
12362.50000        9.25491       20.44753        0.05909       52.97521       50.92099        2.30461
12363.00000        9.24001       20.03169        0.06320       51.80268       51.56436        2.30888
12363.50000        9.22511       19.84159        0.06730       49.12546       51.37842        2.31316
12364.00000        9.21021       20.16832        0.06838       46.73726       51.13961        2.31289
12364.50000        9.22315       20.17842        0.06870       47.05492       50.81941        2.30582
12365.00000        9.24315       19.96040        0.06903       50.31373       50.49980        2.31033
12365.50000        9.26315       19.91288        0.06636       50.51374       50.25743        2.31485
12366.00000        9.28315       19.66337        0.06368       53.45883       50.03465        2.31121
12366.50000        9.30316       20.28713        0.06026       53.13532       49.81188        2.30881
12367.00000        9.32551       19.78218        0.05571       54.38238       49.58911        2.31643
12367.50000        9.34865       19.50000        0.05096       55.36670       49.60396        2.32115
12368.00000        9.35453       20.06733        0.04984       56.83533       49.92654        2.31435
12368.50000        9.29257       20.48317        0.04872       56.81181       50.24970        2.30753
12369.00000        9.23061       21.15446        0.04759       53.87459       50.57228        2.30073
12369.50000        9.16866       21.95644        0.04329       52.47854       50.89545        2.27683
12370.00000        9.10670       21.95050        0.03686       50.89229       50.86990        2.27836
12370.50000        9.11995       21.74258        0.03487       45.84725       50.32159        2.28625
12371.00000        9.16309       23.16832        0.03121       44.67473       49.77327        2.27319
12371.50000        9.20603       22.63367        0.02447       45.31983       49.42574        2.25489
12372.00000        9.24917       21.86139        0.02042       46.92768       49.12871        2.26752
12372.50000        9.29211       20.31684        0.02039       48.09827       48.83168        2.28789
12373.00000        9.25486       20.13862        0.02036       46.89633       48.56436        2.30825
12373.50000        9.21741       21.36654        0.01886       45.23362       48.29703        2.30612
12374.00000        9.21310       22.99010        0.01145       46.58656       47.38099        2.28902
12374.50000        9.25800       23.47367        0.00404       45.82893       46.46555        2.27192
12375.00000        9.30291       24.08495       -0.00337       43.23485       45.62376        2.25482
12375.50000        9.34800       23.69466       -0.01078       42.55251       44.43565        2.23772
12376.00000        9.39291       23.37981       -0.01819       41.42901       42.71287        2.25009
12376.50000        9.39977       23.61030       -0.00640       40.79569       40.81901        2.25551
12377.00000        9.40683       23.80218       -0.00615       38.11142       38.77723        2.25137
12377.50000        9.41370       23.96674       -0.00590       34.33303       36.55426        2.24724
12378.00000        9.42801       23.61387       -0.00566       35.57813       34.21129        2.24310
12378.50000        9.51429       22.69307       -0.00095       35.88599       31.94733        2.25555
12379.00000        9.64840       21.68317        0.01044       36.74678       29.70297        2.26799
12379.50000        9.68193       21.08911        0.02182       36.37425       29.03466        2.28043
12380.00000        9.56468       20.94060        0.03321       35.18015       28.97050        2.29287
12380.50000        9.50017       22.25347        0.04459       34.81350       30.45565        2.29143
12381.00000        9.51449       22.57426        0.03754       32.57432       34.81188        2.26454
12381.50000        9.47292       22.15842        0.03892       27.56653       39.22515        2.27098
12382.00000        9.32900       22.65327        0.04314       24.87755       42.36475        2.27243
12382.50000        9.14038       22.74535        0.03785       26.45010       44.37624        2.26388
12383.00000        9.01736       22.41090        0.03905       29.38930       44.42079        2.26213
12383.50000        9.12638       21.80198        0.04720       33.18732       43.90099        2.27058
12384.00000        9.30109       19.42575        0.05997       37.80769       42.64456        2.30206
12384.50000        9.47579       19.42575        0.07275       41.65866       41.38753        2.32226
12385.00000        9.48481       18.49010        0.08523       42.36651       40.32475        2.33542
12385.50000        8.83168       17.33882        0.09751       40.71948       39.55248        2.35105
12386.00000        8.17855       17.39406        0.09983       38.36970       38.78020        2.35844
12386.50000        8.07228       17.74634        0.09549       37.63835       38.13862        2.35348
12387.00000        8.10287       18.09743        0.08759       37.60895       37.69307        2.34852
12387.50000        8.17228       18.23763        0.07968       38.05014       37.24753        2.33944
12388.00000        8.39660       19.06931        0.07178       39.87171       37.03664        2.32414
12388.50000        8.76679       19.82199        0.06388       39.71290       36.98317        2.31377
12389.00000        9.08934       20.31684        0.05597       41.08937       37.38119        2.32301
12389.50000        9.16561       22.03961        0.04807       44.23054       38.45763        2.30557
12390.00000        9.21169       21.44555        0.04017       46.58739       39.51802        2.27036
12390.50000        9.25777       21.00595        0.04761       45.31683       40.57426        2.28869
12391.00000        9.22032       20.55446        0.05507       45.88155       40.15842        2.30702
12391.50000        9.16189       18.89109        0.06252       45.08353       39.47525        2.32536
12392.00000        9.01974       18.02674        0.06997       44.86001       38.79208        2.34370
12392.50000        8.97915       18.45921        0.07742       46.93452       37.79466        2.34124
12393.00000        9.01974       18.89109        0.08212       47.47375       36.79782        2.33358
12393.50000        9.06053       17.76238        0.08500       46.74631       35.84792        2.33662
12394.00000        9.09327       17.88119        0.08786       46.68358       35.08931        2.34678
12394.50000        9.09367       17.21585        0.09109       45.73066       34.33010        2.35695
12395.00000        9.06386       16.90100        0.09575       46.53852       33.57089        2.36711
12395.50000        9.03398       16.39604        0.10042       45.79736       33.21624        2.37727
12396.00000        8.99673       16.18812        0.10508       42.73661       33.40575        2.38744
12396.50000        8.98830       15.14852        0.10974       42.83467       34.69307        2.39760
12397.00000        8.97967       15.89109        0.10449       43.72095       36.48179        2.38470
12397.50000        9.03066       16.81189        0.09922       44.90919       39.02317        2.37179
12398.00000        9.09634       17.35664        0.09397       44.73861       41.12673        2.35889
12398.50000        9.16536       18.17822        0.09723       42.87903       42.93862        2.34598
12399.00000        8.88635       17.97030        0.10262       38.12811       43.95327        2.34029
