~Version ---------------------------------------------------
VERS. 2.0 : CWLS LOG ASCII STANDARD - VERSION 2.0
WRAP. NO  : One line per depth step
DLM . SPACE : Column Data Section Delimiter
~Well ------------------------------------------------------
STRT.F       3816.5 : START DEPTH
STOP.F        13000 : STOP DEPTH
STEP.F          0.5 : STEP
NULL.       -999.25 : NULL VALUE
COMP.             UNION PACIFIC RESOURCES : COMPANY
WELL.                 219499-LLECO-003-29 : WELL
FLD .                     FOUR LEAGUE BAY : FIELD
CNTY.                          TERREBONNE : COUNTY
STAT.                           LOUISIANA : STATE
CTRY.                                 USA : COUNTRY
SEC .                                     : SECTION
TWP .                                     : TOWNSHIP
RGE .                                     : RANGE
LOC .                                     : LOCATION
EKB .F                          : ELEVATION KELLY BUSHING
EDF .F                          : ELEVATION DERRICK FLOOR
EGL .F                          : ELEVATION GROUND LEVEL
PDAT.                       BHF : PERMANENT DATUM
EPD .                           : ELEVATION PERMANENT DATUM
APD .                           : ABOVE PERMANENT DATUM
LMF .                       RKB : LOG MEASURED FROM
DMF .                       RKB : DRILLING MEASURED FROM
API .            17109235220000 : API NUMBER
UWI .                           : UWI NUMBER
DIGC.                     NthDS : DIGITIZING COMPANY
~Params ----------------------------------------------------
SRVC.              SCHLUMBERGER : LOGGING COMPANY
LOG .                   AIT/LSS : LOG
DATE.                1996-12-21 : RUN DATE
RUN .                         1 : RUN NUMBER
TDD .F                    13000 : TOTAL DEPTH DRILLER
TDL .F                    12998 : TOTAL DEPTH LOGGER
BOTL.F                    12990 : BOTTOM LOGGED INTERVAL
TOPL.F                     4026 : TOP LOGGED INTERVAL
CSGS.IN                   10.75 : CASING SIZE
CSGD.F                     4025 : CASING DRILLER
CSGL.F                     4026 : CASING LOGGER
BS  .IN                   9.875 : BIT SIZE
MUD .          CARBOMAX/QBROXIN : MUD TYPE
MUDD.                       9.8 : MUD DENSITY
MUDV.                        41 : MUD VISCOSITY
PH  .                       8.2 : MUD PH
FL  .                        11 : FLUID LOSS
MUDS.                  CIRC PIT : SOURCE OF SAMPLE
RM  .OHMM                 0.620 : MUD RESISTIVITY
RMT .DEGF                    75 : RM TEMPERATURE
RMF .OHMM                 0.926 : MUD FILTRATE RESISTIVITY
RMFT.DEGF                    75 : RMF TEMPERATURE
RMC .OHMM                 0.310 : MUD CAKE RESISTIVITY
RMCT.DEGF                    75 : RMC TEMPERATURE
RMFS.                      CALC : RMF SOURCE
RMCS.                      CALC : RMC SOURCE
RMBH.OHMM                 0.251 : MUD RESISTIVITY AT BHT
BHT .DEGF                   195 : BOTTOM HOLE TEMPERATURE
TIMC.                2000 11-21 : TIME CIRCULATION STOPPED
TIML.                1800 11-21 : TIME LOGGER ON BOTTOM
TMAX.DEGF                   195 : MAXIMUM RECORDED TEMPERATURE
UNIT.                      2015 : EQUIPMENT NUMBER
BASE.              HOUMA INLAND : BASE LOCATION
ENG .       T.NESBIT/L.GUERRERO : RECORDED BY
WIT .          HERMAN DEVILLIER : WITNESSED BY
~Curve Information -----------------------------------------
DEPT.F          :DEPTH
AHT10.OHMM      :
AHT30.OHMM      :
AHT90.OHMM      :
CILD.MMHO       :
DCAL.IN         :
DTLF.US/F       :
DTLN.US/F       :
GR.GAPI         :
SP.MV           :
TENS.LBF        :
~ASCII ------------------------------------------------------
# ...
6991.50000        0.82018        0.45814        0.39325     3016.74019        1.09945      108.88225      110.87825       80.15436      -32.90840     3043.91388
6992.00000        0.83639        0.47759        0.40731     2778.66490        1.22816      109.88025      112.57486       79.03385      -30.91637     3056.28913
6992.50000        0.78434        0.47394        0.40562     2756.62607        1.33555      113.60081      116.81638       74.99998      -31.31477     3068.86398
6993.00000        0.73028        0.46456        0.39045     2734.58724        1.35782      117.31937      121.05789       70.51791      -31.71318     3066.86797
6993.50000        0.68618        0.45541        0.37581     2712.54841        1.25263      116.70260      119.89422       69.62150      -31.71318     3055.09153
6994.00000        0.67732        0.45339        0.38462     2653.07004        1.14783      111.89422      114.14372       70.81672      -29.32274     3043.31508
6994.50000        0.68792        0.46169        0.41343     2593.59167        1.04264      107.08584      107.24951       75.44819      -22.54983     3031.53864
6995.00000        0.74284        0.49099        0.45569     2534.11330        1.12645      105.25550      104.49103       79.30875      -17.76896     3019.76219
6995.50000        0.76925        0.50878        0.47507     2474.71493        1.21066      105.76448      105.11378       85.60755      -12.98808     3005.79014
6996.00000        0.78525        0.50704        0.47778     2415.23656        1.20457      107.68464      106.48704       87.84858      -10.59765     2994.01370
6996.50000        0.78864        0.50535        0.47785     2355.75819        1.12548      111.17765      108.98205       87.34958       -9.80083     3002.99573
6997.00000        0.79211        0.52952        0.48744     2296.27982        1.10221      114.80041      111.47706       86.95217      -10.99605     3012.17736
6997.50000        0.78325        0.54875        0.49139     2386.87962        1.14286      118.61478      114.55091       87.96213      -14.58171     3021.15940
6998.00000        0.74358        0.51883        0.46876     2477.55942        1.30060      122.43114      119.94013       89.64141      -20.15940     3030.34103
6998.50000        0.63894        0.45094        0.41921     2568.15922        1.63457      126.24751      125.13773       86.40536      -27.33071     3039.32307
6999.00000        0.54903        0.38110        0.32856     2992.11495        1.96813      130.36527      129.57486       79.58066      -32.90840     3048.50470
6999.50000        0.47833        0.33120        0.26691     3193.57905        1.62237      132.53493      132.10180       75.29879      -33.30680     3053.89392
7000.00000        0.44946        0.30539        0.24640     3416.07069        1.08906      127.97007      127.82236       77.33066      -29.72115     3053.89392
7000.50000        0.51777        0.31616        0.25723     3545.96644        0.83002      119.49502      121.50101       83.90436      -24.94027     3053.89392
7001.00000        0.59641        0.34273        0.27043     3683.92566        0.75599      112.67466      116.23354       87.54978      -25.78888     3053.89392
7001.50000        0.67410        0.35681        0.28126     3821.88488        0.78706      112.71458      112.97406       83.79380      -30.01995     3053.89392
7002.00000        0.69307        0.35406        0.27503     3959.84411        1.00208      115.48703      117.32336       76.44321      -35.00003     3053.89392
7002.50000        0.63927        0.32299        0.24569     3975.80482        1.30247      119.84232      123.62476       68.72508      -40.47812     3053.89392
7003.00000        0.56729        0.29464        0.21949     3976.40571        1.30317      123.18763      125.47705       66.75297      -45.25899     3053.89392
7003.50000        0.51751        0.27479        0.21160     3976.92661        1.10407      124.45110      125.16368       69.14341      -45.25899     3053.89392
7004.00000        0.53110        0.28174        0.21870     3977.52751        1.19308      122.65470      124.08583       70.81672      -44.86059     3053.89392
7004.50000        0.58620        0.29642        0.22456     3978.12841        1.63653      122.05590      122.67067       68.42628      -46.45421     3053.89392
7005.00000        0.59468        0.30100        0.22371     3978.64930        2.07958      123.65270      121.25749       64.24301      -48.04784     3053.89392
7005.50000        0.50893        0.26527        0.19671     3979.25020        2.23892      125.16967      123.62675       62.15138      -49.24306     3053.89392
7006.00000        0.42494        0.24230        0.17296     3979.85110        1.97349      126.11378      125.64871       61.40437      -48.44624     3056.28913
7006.50000        0.36561        0.22664        0.16905     3980.45199        1.70765      127.52496      126.24751       59.84162      -46.85262     3060.08154
7007.00000        0.35464        0.21810        0.17064     3980.97289        2.37448      129.59082      125.72256       58.07568      -45.65740     3063.87396
7007.50000        0.35469        0.21896        0.17517     3981.57379        2.92782      129.68064      125.13573       57.66931      -44.86059     3068.46478
7008.00000        0.34828        0.21985        0.18629     3982.17469        2.21084      128.50899      126.56088       59.91034      -42.47015     3072.25719
7008.50000        0.36474        0.23887        0.20680     3982.69558        1.28927      126.95809      123.91817       67.16532      -36.49405     3071.05959
7009.00000        0.42995        0.27427        0.23946     3983.29648        0.55231      123.45310      120.00001       73.95417      -30.11955     3066.26917
7009.50000        0.52375        0.31491        0.30317     3972.06736        0.55300      119.46109      115.90819       80.67727      -22.94824     3061.47875
7010.00000        0.63795        0.35922        0.35144     3515.18490        0.55370      115.06987      113.37326       83.10357      -18.56577     3056.68833
7010.50000        0.68439        0.40972        0.39849     3063.15131        0.55813      113.27346      112.61678       84.61253      -13.78490     3054.89192
7011.00000        0.70063        0.45708        0.43979     2949.11361        0.57761      114.19562      113.33933       84.73504      -12.58968     3057.28713
7011.50000        0.70280        0.46663        0.45114     2835.07590        0.59709      116.49701      116.00200       84.86054      -13.78490     3059.68234
7012.00000        0.67696        0.46812        0.43868     2721.03819        0.61657      118.80041      118.66268       84.44221      -17.76896     3061.87795
7012.50000        0.65206        0.45755        0.41779     2607.00049        0.63605      121.31538      121.32336       83.39639      -22.54983     3064.27316
7013.00000        0.62445        0.44722        0.39794     2557.36200        0.65553      122.91218      123.37326       82.76890      -23.34665     3066.66837
7013.50000        0.59282        0.43712        0.37902     2539.72312        0.67500      123.05390      122.71458       86.92229      -21.35462     3069.06358
7014.00000        0.56772        0.43518        0.37620     2522.08424        0.69408      121.05789      121.02396       91.85257      -16.97215     3071.45879
7014.50000        0.55802        0.43527        0.39699     2486.80648        0.71356      117.66468      118.99202       95.16930      -11.39446     3072.45679
7015.00000        0.56140        0.47366        0.43135     2340.76916        0.73304      115.98803      117.29941       94.72109       -7.80880     3065.67037
7015.50000        0.57817        0.48659        0.46408     2194.73184        0.75252      115.18963      115.60879       92.18125       -5.01996     3058.68434
7016.00000        0.59543        0.51156        0.50057     2048.69453        0.77200      114.95610      115.42915       90.38842       -3.02793     3051.89791
