~Version ---------------------------------------------------
VERS. 2.0 : CWLS LOG ASCII STANDARD - VERSION 2.0
WRAP. NO  : One line per depth step
DLM . SPACE : Column Data Section Delimiter
~Well ------------------------------------------------------
STRT.F       3816.5 : START DEPTH
STOP.F        13000 : STOP DEPTH
STEP.F          0.5 : STEP
NULL.       -999.25 : NULL VALUE
COMP.             UNION PACIFIC RESOURCES : COMPANY
WELL.                 219499-LLECO-003-29 : WELL
FLD .                     FOUR LEAGUE BAY : FIELD
CNTY.                          TERREBONNE : COUNTY
STAT.                           LOUISIANA : STATE
CTRY.                                 USA : COUNTRY
SEC .                                     : SECTION
TWP .                                     : TOWNSHIP
RGE .                                     : RANGE
LOC .                                     : LOCATION
EKB .F                          : ELEVATION KELLY BUSHING
EDF .F                          : ELEVATION DERRICK FLOOR
EGL .F                          : ELEVATION GROUND LEVEL
PDAT.                       BHF : PERMANENT DATUM
EPD .                           : ELEVATION PERMANENT DATUM
APD .                           : ABOVE PERMANENT DATUM
LMF .                       RKB : LOG MEASURED FROM
DMF .                       RKB : DRILLING MEASURED FROM
API .            17109235220000 : API NUMBER
UWI .                           : UWI NUMBER
DIGC.                     NthDS : DIGITIZING COMPANY
~Params ----------------------------------------------------
SRVC.              SCHLUMBERGER : LOGGING COMPANY
LOG .                   AIT/LSS : LOG
DATE.                1996-12-21 : RUN DATE
RUN .                         1 : RUN NUMBER
TDD .F                    13000 : TOTAL DEPTH DRILLER
TDL .F                    12998 : TOTAL DEPTH LOGGER
BOTL.F                    12990 : BOTTOM LOGGED INTERVAL
TOPL.F                     4026 : TOP LOGGED INTERVAL
CSGS.IN                   10.75 : CASING SIZE
CSGD.F                     4025 : CASING DRILLER
CSGL.F                     4026 : CASING LOGGER
BS  .IN                   9.875 : BIT SIZE
MUD .          CARBOMAX/QBROXIN : MUD TYPE
MUDD.                       9.8 : MUD DENSITY
MUDV.                        41 : MUD VISCOSITY
PH  .                       8.2 : MUD PH
FL  .                        11 : FLUID LOSS
MUDS.                  CIRC PIT : SOURCE OF SAMPLE
RM  .OHMM                 0.620 : MUD RESISTIVITY
RMT .DEGF                    75 : RM TEMPERATURE
RMF .OHMM                 0.926 : MUD FILTRATE RESISTIVITY
RMFT.DEGF                    75 : RMF TEMPERATURE
RMC .OHMM                 0.310 : MUD CAKE RESISTIVITY
RMCT.DEGF                    75 : RMC TEMPERATURE
RMFS.                      CALC : RMF SOURCE
RMCS.                      CALC : RMC SOURCE
RMBH.OHMM                 0.251 : MUD RESISTIVITY AT BHT
BHT .DEGF                   195 : BOTTOM HOLE TEMPERATURE
TIMC.                2000 11-21 : TIME CIRCULATION STOPPED
TIML.                1800 11-21 : TIME LOGGER ON BOTTOM
TMAX.DEGF                   195 : MAXIMUM RECORDED TEMPERATURE
UNIT.                      2015 : EQUIPMENT NUMBER
BASE.              HOUMA INLAND : BASE LOCATION
ENG .       T.NESBIT/L.GUERRERO : RECORDED BY
WIT .          HERMAN DEVILLIER : WITNESSED BY
~Curve Information -----------------------------------------
DEPT.F          :DEPTH
AHT10.OHMM      :
AHT30.OHMM      :
AHT90.OHMM      :
CILD.MMHO       :
DCAL.IN         :
DTLF.US/F       :
DTLN.US/F       :
GR.GAPI         :
SP.MV           :
TENS.LBF        :
~ASCII ------------------------------------------------------
# ...
12366.50000        2.86823        1.37782        1.17905      722.72293       -3.21036       91.51698       90.11978       43.80264      -41.71873     5040.71978
12367.00000        3.23165        1.37527        1.12302      750.68349       -3.21326       90.31938       86.52696       43.59832      -45.69231     5021.55811
12367.50000        7.48767        1.40376        1.15705      778.64405       -3.21576       84.89024       78.04393       42.11214      -46.08028     5034.93136
12368.00000       11.69304        1.43652        1.19146      806.60462       -3.21865       78.50301       72.15571       41.52236      -45.67145     5097.20679
12368.50000       13.78730        1.39144        1.23290      834.56518       -3.22155       73.55291       70.55890       44.34346      -45.26262     5159.68183
12369.00000        8.32999        1.25108        1.20186      862.52574       -3.22405       73.75251       71.30740       47.86816      -45.25219     5209.58201
12369.50000        3.75807        1.07539        1.05113      890.48631       -3.22695       77.54493       74.99603       51.38988      -44.84127     5209.58201
12370.00000        2.30451        0.92428        0.91921      935.24667       -3.22811       82.53495       78.60481       54.75324      -42.83884     5209.58201
12370.50000        1.65716        0.86770        0.82490      980.00703       -3.22742       88.52297       82.93415       57.87157      -39.64120     5209.58201
12371.00000        1.43795        0.83278        0.82028     1024.76738       -3.22672       96.80640       89.49303       60.99290      -34.45156     5209.58201
12371.50000        1.35501        0.83307        0.81577     1069.52774       -3.22602      105.40919       97.38524       67.66255      -30.45712     5209.58201
12372.00000        1.38880        0.84210        0.81120     1114.28810       -3.22532       99.07386       97.55490       70.37153      -31.64189     5209.58201
12372.50000        1.56950        0.85327        0.81282     1114.24901       -3.22463       90.94612       96.18365       66.24694      -36.01387     5209.58201
12373.00000        1.77877        0.87319        0.82043     1114.20991       -3.22393       72.89623       94.81039       56.30470      -42.37785     5209.58201
12373.50000        2.06689        0.97039        0.85276     1114.17082       -3.22323       70.75850       93.21359       47.28875      -47.54663     5209.58201
12374.00000        1.97463        1.07842        0.97055     1338.12899       -3.22253       82.93415       90.71858       45.08545      -50.32501     5198.20477
12374.50000        1.13960        0.84216        0.83066     1562.08717       -3.21504       87.52497       84.23155       44.83929      -52.30658     5179.44230
12375.00000        0.84402        0.61117        0.67136     1659.64688       -3.20595       88.52297       77.74453       43.72661      -52.29615     5160.48023
12375.50000        0.63995        0.47292        0.51594     1757.20660       -3.19473       89.20161       77.34533       42.24043      -52.28364     5137.92535
12376.00000        0.58738        0.41700        0.45181     1854.76631       -3.18564       87.85830       82.83435       42.24825      -52.67161     5118.96327
12376.50000        0.56137        0.43047        0.46343     1952.32603       -3.17655       89.37127       84.79642       44.29389      -52.26278     5100.00120
12377.00000        0.57426        0.44867        0.47971     2049.88574       -3.16706       92.11578       85.62876       46.33954      -51.05714     5081.23873
12377.50000        0.58858        0.44998        0.46892     2103.84599       -3.15797       93.77846       87.79043       47.35133      -50.64831     5071.25870
12378.00000        0.60326        0.43986        0.44119     2157.80624       -3.14888       93.91219       91.95011       47.47867      -50.63788     5074.85151
12378.50000        0.60446        0.42996        0.41513     2211.76648       -3.13979       91.74453       96.10780       46.26440      -50.22905     5078.24472
12379.00000        0.60224        0.43121        0.41319     2265.72673       -3.13550       90.06987       96.10780       44.43161      -49.42182     5081.83753
12379.50000        0.60371        0.44493        0.42963     2220.64818       -3.13480       89.94413       96.10780       42.72289      -48.61459     5085.23075
12380.00000        0.62779        0.46162        0.45787     2175.64964       -3.13411       91.15371       96.25750       44.30540      -48.20576     5088.82356
12380.50000        0.66491        0.47893        0.48793     2130.57109       -3.13341       97.35929       95.92616       49.79023      -47.79693     5093.01518
12381.00000        0.71235        0.49689        0.50055     2085.57254       -3.13257      102.59482       93.02397       52.35878      -47.78441     5096.40839
12381.50000        0.73907        0.50065        0.49608     2040.49400       -3.13187      101.69662       90.11978       53.92933      -47.37558     5100.00120
12382.00000        0.75632        0.50073        0.50303     1995.49545       -3.12358       95.70860       90.23155       54.83355      -47.36515     5103.39442
12382.50000        0.77397        0.52089        0.52070     1950.41690       -3.11529       89.72057       90.01997       55.28958      -46.55792     5106.98723
12383.00000        0.81747        0.54896        0.53899     1905.41836       -3.10660       88.09782       88.52297       55.44680      -45.75069     5109.78164
12383.50000        0.87034        0.54905        0.52977     1911.77918       -3.09831       87.12576       87.02596       56.37052      -44.94345     5109.78164
12384.00000        0.89253        0.54913        0.52066     1918.14001       -3.09003       88.98804       85.52896       57.44506      -43.73782     5109.78164
12384.50000        0.87413        0.54103        0.51176     1924.50084       -2.80801       93.23355       85.92816       58.51960      -43.32899     5109.78164
12385.00000        0.85173        0.52779        0.50296     1930.86166       -2.45767       95.30939       87.59083       58.52742      -44.11536     5109.78164
12385.50000        0.82983        0.52148        0.50590     1937.22249       -2.22160       92.61478       89.58684       58.53524      -43.70653     5109.78164
12386.00000        0.80431        0.52526        0.51181     1923.82356       -2.14365       89.92017       89.65471       59.73827      -42.10041     5105.98923
12386.50000        0.81505        0.52907        0.51779     1910.50462       -2.07861       88.52297       89.32137       62.73410      -40.49638     5096.20879
12387.00000        0.83852        0.54802        0.52506     1897.10569       -2.01358       88.52297       91.93215       64.02377      -38.89234     5086.62795
12387.50000        0.86567        0.56680        0.54977     1868.02695       -1.94895       88.20361       94.54093       65.08039      -37.68671     5076.84752
12388.00000        0.89370        0.58629        0.57039     1839.02821       -1.88391       87.80441       95.95810       65.24657      -36.48108     5067.26668
12388.50000        0.88569        0.58066        0.56641     1809.94947       -1.86324       88.72257       95.58484       64.85856      -35.67385     5057.68584
12389.00000        0.87775        0.57508        0.54666     1780.95072       -1.84256       89.72057       95.68664       64.53471      -35.26502     5051.49822
12389.50000        0.87789        0.57417        0.54013     1751.87198       -2.18711       89.49502       95.90820       64.24074      -35.25459     5059.88145
12390.00000        0.92724        0.59658        0.55946     1722.87324       -2.53127       88.37327       93.77047       64.06032      -36.04096     5068.26468
12390.50000        0.97936        0.62311        0.58423     1693.79450       -2.83946       87.72457       91.20361       64.21755      -36.42893     5078.24472
12391.00000        1.04588        0.65076        0.61010     1664.79576       -3.13846       88.04193       89.66668       64.59887      -35.61961     5086.42835
