~Version ---------------------------------------------------
VERS. 2.0 : CWLS LOG ASCII STANDARD - VERSION 2.0
WRAP. NO  : One line per depth step
DLM . SPACE : Column Data Section Delimiter
~Well ------------------------------------------------------
STRT.F       3816.5 : START DEPTH
STOP.F        13000 : STOP DEPTH
STEP.F          0.5 : STEP
NULL.       -999.25 : NULL VALUE
COMP.             UNION PACIFIC RESOURCES : COMPANY
WELL.                 219499-LLECO-003-29 : WELL
FLD .                     FOUR LEAGUE BAY : FIELD
CNTY.                          TERREBONNE : COUNTY
STAT.                           LOUISIANA : STATE
CTRY.                                 USA : COUNTRY
SEC .                                     : SECTION
TWP .                                     : TOWNSHIP
RGE .                                     : RANGE
LOC .                                     : LOCATION
EKB .F                          : ELEVATION KELLY BUSHING
EDF .F                          : ELEVATION DERRICK FLOOR
EGL .F                          : ELEVATION GROUND LEVEL
PDAT.                       BHF : PERMANENT DATUM
EPD .                           : ELEVATION PERMANENT DATUM
APD .                           : ABOVE PERMANENT DATUM
LMF .                       RKB : LOG MEASURED FROM
DMF .                       RKB : DRILLING MEASURED FROM
API .            17109235220000 : API NUMBER
UWI .                           : UWI NUMBER
DIGC.                     NthDS : DIGITIZING COMPANY
~Params ----------------------------------------------------
SRVC.              SCHLUMBERGER : LOGGING COMPANY
LOG .                   AIT/LSS : LOG
DATE.                1996-12-21 : RUN DATE
RUN .                         1 : RUN NUMBER
TDD .F                    13000 : TOTAL DEPTH DRILLER
TDL .F                    12998 : TOTAL DEPTH LOGGER
BOTL.F                    12990 : BOTTOM LOGGED INTERVAL
TOPL.F                     4026 : TOP LOGGED INTERVAL
CSGS.IN                   10.75 : CASING SIZE
CSGD.F                     4025 : CASING DRILLER
CSGL.F                     4026 : CASING LOGGER
BS  .IN                   9.875 : BIT SIZE
MUD .          CARBOMAX/QBROXIN : MUD TYPE
MUDD.                       9.8 : MUD DENSITY
MUDV.                        41 : MUD VISCOSITY
PH  .                       8.2 : MUD PH
FL  .                        11 : FLUID LOSS
MUDS.                  CIRC PIT : SOURCE OF SAMPLE
RM  .OHMM                 0.620 : MUD RESISTIVITY
RMT .DEGF                    75 : RM TEMPERATURE
RMF .OHMM                 0.926 : MUD FILTRATE RESISTIVITY
RMFT.DEGF                    75 : RMF TEMPERATURE
RMC .OHMM                 0.310 : MUD CAKE RESISTIVITY
RMCT.DEGF                    75 : RMC TEMPERATURE
RMFS.                      CALC : RMF SOURCE
RMCS.                      CALC : RMC SOURCE
RMBH.OHMM                 0.251 : MUD RESISTIVITY AT BHT
BHT .DEGF                   195 : BOTTOM HOLE TEMPERATURE
TIMC.                2000 11-21 : TIME CIRCULATION STOPPED
TIML.                1800 11-21 : TIME LOGGER ON BOTTOM
TMAX.DEGF                   195 : MAXIMUM RECORDED TEMPERATURE
UNIT.                      2015 : EQUIPMENT NUMBER
BASE.              HOUMA INLAND : BASE LOCATION
ENG .       T.NESBIT/L.GUERRERO : RECORDED BY
WIT .          HERMAN DEVILLIER : WITNESSED BY
~Curve Information -----------------------------------------
DEPT.F          :DEPTH
AHT10.OHMM      :
AHT30.OHMM      :
AHT90.OHMM      :
CILD.MMHO       :
DCAL.IN         :
DTLF.US/F       :
DTLN.US/F       :
GR.GAPI         :
SP.MV           :
TENS.LBF        :
~ASCII ------------------------------------------------------
# ...
8791.50000        1.05468        0.63536        0.51646     2032.55670        0.67272      101.29742      101.55889       80.59062      -21.75302     3552.89579
8792.00000        1.09440        0.61839        0.47222     2176.51585        0.60468      100.58684      101.13774       78.93524      -24.94027     3552.89579
8792.50000        1.09367        0.59210        0.43817     2320.47500        0.52360       99.70061      100.53893       79.18325      -27.33071     3552.89579
8793.00000        1.07186        0.56692        0.41566     2352.43552        0.45557      100.44911      101.04392       82.55974      -27.72912     3552.89579
8793.50000        1.01913        0.53816        0.39430     2384.39603        0.44268      101.49702      101.97606       85.99599      -27.72912     3552.89579
8794.00000        0.97105        0.52272        0.37012     2416.35655        0.44338      102.49502      102.90820       88.81970      -29.32274     3552.89579
8794.50000        0.93284        0.50773        0.36386     2480.27758        0.44408      102.76049      102.89422       87.84858      -32.11159     3552.89579
8795.00000        0.91809        0.50483        0.37007     2421.91919        0.44477      102.53893      102.64472       85.85556      -32.90840     3552.89579
8795.50000        0.92459        0.51221        0.39024     2363.64081        0.44561      101.79642      102.34532       85.45815      -31.31477     3552.89579
8796.00000        0.97582        0.53091        0.40867     2305.28242        0.44631      101.09782      102.57486       85.64639      -29.32274     3552.89579
8796.50000        1.02749        0.55433        0.43195     2247.00404        0.44701      101.29742      102.92416       85.39839      -26.53390     3552.89579
8797.00000        1.08180        0.57462        0.45236     2188.64565        0.44770      102.04592      103.27346       84.50197      -24.54187     3552.89579
8797.50000        1.11862        0.59260        0.47213     2130.36727        0.44840      102.79442      103.62277       84.86054      -22.54983     3552.89579
8798.00000        1.14283        0.61119        0.49158     2072.00888        0.44924      103.22756      103.69263       88.96910      -22.15143     3552.89579
8798.50000        1.16761        0.63031        0.51187     2044.53012        0.44993      103.39323      103.64273       93.07767      -21.75302     3552.89579
8799.00000        1.16094        0.64326        0.52654     2017.05136        0.45063      103.19362      103.39323       95.84161      -20.95621     3552.89579
8799.50000        1.12723        0.64520        0.52769     1989.57260        0.45133      102.29542      103.14372       96.75296      -19.76099     3552.89579
8800.00000        1.08649        0.64235        0.51541     1962.17384        0.41973      102.15370      102.89422       95.88344      -19.36258     3552.89579
8800.50000        1.05368        0.64506        0.50721     1934.82698        0.42043      102.39522      102.79442       92.39639      -18.96418     3572.85587
8801.00000        1.02007        0.64892        0.49910     1907.34822        0.42113      101.79642      102.54492       87.88743      -18.96418     3572.85587
8801.50000        0.98754        0.65273        0.49757     1879.86946        0.42916      101.21758      102.29542       82.47010      -18.56577     3572.85587
8802.00000        0.95605        0.65766        0.50225     1831.83095        0.43545      100.61877      102.04592       82.17129      -17.37055     3572.85587
8802.50000        0.92556        0.66691        0.51402     1701.75434        0.44214      100.49901      101.79642       86.35456      -14.98012     3572.85587
8803.00000        0.89327        0.67872        0.53761     1619.71624        0.44883      100.49901      101.54692       92.82966      -12.19127     3572.85587
8803.50000        0.86845        0.70534        0.56540     1537.67815        0.45512      100.49901      101.89622       95.01990       -9.00402     3572.85587
8804.00000        0.84915        0.72827        0.60871     1455.64005        0.46181      100.49901      102.81438       93.52587       -6.61358     3572.85587
8804.50000        0.84929        0.74815        0.65092     1442.56112        0.42135      102.36129      105.40919       92.56970       -4.22315     3572.85587
8805.00000        0.82881        0.76766        0.70179     1429.56218        0.30936      105.88823      108.00400       96.04480       -3.02793     3572.85587
8805.50000        0.79014        0.75607        0.76075     1416.48324        0.19777      109.68065      110.31937      101.80575       -1.83271     3572.05747
8806.00000        0.73975        0.74473        0.78282     1403.48430        0.10976      111.17765      111.51698      106.67328       -0.63749     3567.66625
8806.50000        0.69250        0.73350        0.78626     1390.40537        0.11685      111.47706      112.30939      109.66133       -0.63749     3563.27503
8807.00000        0.65211        0.72243        0.78965     1377.40643        0.12394      110.54492      111.47706      110.85655        0.15932     3558.88382
8807.50000        0.62864        0.71441        0.79189     1364.32749        0.13143      109.14771      110.16967      107.65635        0.15932     3553.69420
8808.00000        0.61028        0.71782        0.79420     1351.32856        0.13986      107.98404      109.08185      104.45316       -0.23908     3549.50258
8808.50000        0.60914        0.72125        0.79645     1349.92948        0.14695      107.10779      107.99402      101.89241       -1.03590     3545.11137
8809.00000        0.60801        0.72469        0.79878     1348.61040        0.15484      106.66468      106.90420      103.68523       -1.43430     3540.72015
8809.50000        0.60688        0.72750        0.80152     1347.21132        0.16553      106.84632      107.76648      106.67328       -1.03590     3536.32893
8810.00000        0.60554        0.72762        0.80379     1345.81224        0.17622      107.84831      109.11777      107.50396        0.15932     3533.53452
8810.50000        0.60170        0.72774        0.79736     1344.49316        0.18691      109.11777      110.46708      108.41232        0.55773     3537.12734
8811.00000        0.59721        0.71616        0.77821     1343.09408        0.20878      109.88025      111.06787      109.63444        1.35454     3540.52055
8811.50000        0.59277        0.70470        0.75944     1344.17497        0.27621      109.56089      110.54492      110.93125        1.75295     3543.91376
8812.00000        0.58830        0.69350        0.74846     1345.33586        0.34364      108.76249      110.02197      110.80276        2.15135     3547.30697
8812.50000        0.58391        0.69036        0.74858     1346.41676        0.39389      108.33135      109.50101      109.92428        3.34657     3550.89979
8813.00000        0.58605        0.69257        0.74898     1347.49765        0.37781      108.44712      109.12177      109.04579        3.74498     3554.29300
8813.50000        0.58825        0.69485        0.75048     1348.57854        0.36132      108.56488      109.32137      108.16730        3.74498     3557.68621
8814.00000        0.59041        0.69708        0.75198     1349.73943        0.34138      108.68264      109.52097      109.66133        2.94817     3561.07943
8814.50000        0.59263        0.69931        0.75349     1350.82032        0.32489      109.52097      109.92017      109.56272        2.94817     3565.27104
8815.00000        0.59480        0.70161        0.75500     1358.78113        0.30881      110.21957      110.51897      107.56969        2.54976     3568.66425
8815.50000        0.59124        0.69973        0.75276     1366.74193        0.29232      110.91817      111.11777      105.57667        2.54976     3572.25707
8816.00000        0.58624        0.69422        0.73241     1374.70274        0.29542      111.51698      111.71658      106.28782        2.54976     3575.65028
