~Version ---------------------------------------------------
VERS. 2.0 : CWLS LOG ASCII STANDARD - VERSION 2.0
WRAP. NO  : One line per depth step
DLM . SPACE : Column Data Section Delimiter
~Well ------------------------------------------------------
STRT.F       3816.5 : START DEPTH
STOP.F        13000 : STOP DEPTH
STEP.F          0.5 : STEP
NULL.       -999.25 : NULL VALUE
COMP.             UNION PACIFIC RESOURCES : COMPANY
WELL.                 219499-LLECO-003-29 : WELL
FLD .                     FOUR LEAGUE BAY : FIELD
CNTY.                          TERREBONNE : COUNTY
STAT.                           LOUISIANA : STATE
CTRY.                                 USA : COUNTRY
SEC .                                     : SECTION
TWP .                                     : TOWNSHIP
RGE .                                     : RANGE
LOC .                                     : LOCATION
EKB .F                          : ELEVATION KELLY BUSHING
EDF .F                          : ELEVATION DERRICK FLOOR
EGL .F                          : ELEVATION GROUND LEVEL
PDAT.                       BHF : PERMANENT DATUM
EPD .                           : ELEVATION PERMANENT DATUM
APD .                           : ABOVE PERMANENT DATUM
LMF .                       RKB : LOG MEASURED FROM
DMF .                       RKB : DRILLING MEASURED FROM
API .            17109235220000 : API NUMBER
UWI .                           : UWI NUMBER
DIGC.                     NthDS : DIGITIZING COMPANY
~Params ----------------------------------------------------
SRVC.              SCHLUMBERGER : LOGGING COMPANY
LOG .                   AIT/LSS : LOG
DATE.                1996-12-21 : RUN DATE
RUN .                         1 : RUN NUMBER
TDD .F                    13000 : TOTAL DEPTH DRILLER
TDL .F                    12998 : TOTAL DEPTH LOGGER
BOTL.F                    12990 : BOTTOM LOGGED INTERVAL
TOPL.F                     4026 : TOP LOGGED INTERVAL
CSGS.IN                   10.75 : CASING SIZE
CSGD.F                     4025 : CASING DRILLER
CSGL.F                     4026 : CASING LOGGER
BS  .IN                   9.875 : BIT SIZE
MUD .          CARBOMAX/QBROXIN : MUD TYPE
MUDD.                       9.8 : MUD DENSITY
MUDV.                        41 : MUD VISCOSITY
PH  .                       8.2 : MUD PH
FL  .                        11 : FLUID LOSS
MUDS.                  CIRC PIT : SOURCE OF SAMPLE
RM  .OHMM                 0.620 : MUD RESISTIVITY
RMT .DEGF                    75 : RM TEMPERATURE
RMF .OHMM                 0.926 : MUD FILTRATE RESISTIVITY
RMFT.DEGF                    75 : RMF TEMPERATURE
RMC .OHMM                 0.310 : MUD CAKE RESISTIVITY
RMCT.DEGF                    75 : RMC TEMPERATURE
RMFS.                      CALC : RMF SOURCE
RMCS.                      CALC : RMC SOURCE
RMBH.OHMM                 0.251 : MUD RESISTIVITY AT BHT
BHT .DEGF                   195 : BOTTOM HOLE TEMPERATURE
TIMC.                2000 11-21 : TIME CIRCULATION STOPPED
TIML.                1800 11-21 : TIME LOGGER ON BOTTOM
TMAX.DEGF                   195 : MAXIMUM RECORDED TEMPERATURE
UNIT.                      2015 : EQUIPMENT NUMBER
BASE.              HOUMA INLAND : BASE LOCATION
ENG .       T.NESBIT/L.GUERRERO : RECORDED BY
WIT .          HERMAN DEVILLIER : WITNESSED BY
~Curve Information -----------------------------------------
DEPT.F          :DEPTH
AHT10.OHMM      :
AHT30.OHMM      :
AHT90.OHMM      :
CILD.MMHO       :
DCAL.IN         :
DTLF.US/F       :
DTLN.US/F       :
GR.GAPI         :
SP.MV           :
TENS.LBF        :
~ASCII ------------------------------------------------------
# ...
11766.50000        0.26674        0.23658        0.20703     3975.24329       -3.63287       94.35131       94.73055       47.69820      -75.13946     4631.93745
11767.00000        0.26041        0.23499        0.20547     3975.28419       -3.63217       93.55291       94.42117       46.91234      -75.13946     4637.32667
11767.50000        0.24961        0.22767        0.19894     3975.32510       -3.63148       92.97207       94.05790       48.44820      -75.13946     4642.91549
11768.00000        0.23928        0.22057        0.19236     3975.36600       -3.63078       93.25550       93.87227       48.66333      -75.13946     4648.50431
11768.50000        0.23355        0.21369        0.18602     3975.48690       -3.63008       92.51498       93.80640       48.23306      -75.53787     4647.30670
11769.00000        0.23075        0.20703        0.18288     3975.52781       -3.62938       89.52097       93.73854       45.86652      -75.53787     4641.51828
11769.50000        0.22796        0.20413        0.18178     3975.60961       -3.62869       88.32337       93.71259       43.49999      -74.74106     4635.92946
11770.00000        0.22882        0.20670        0.18071     3975.73052       -3.62799       89.46708       93.71259       43.02788      -73.94424     4630.14104
11770.50000        0.23212        0.20927        0.18029     3975.77142       -3.62729       91.37127       93.80041       46.31473      -73.54584     4624.55222
11771.00000        0.23547        0.21675        0.18199     3975.81232       -3.62660       92.97207       94.23953       52.04282      -73.14743     4618.76380
11771.50000        0.25483        0.23228        0.18810     3975.85323       -3.62576       94.12576       94.76648       58.14740      -69.56178     4611.97737
11772.00000        0.29106        0.24891        0.19570     3975.97413       -3.62506       94.19163       95.20560       59.46214      -65.17931     4616.36859
11772.50000        0.34458        0.26674        0.20359     3976.01504       -3.62436       94.25750       95.64472       55.20417      -63.18727     4623.15501
11773.00000        0.37326        0.27049        0.21183     3976.05594       -3.62367       94.39922       95.90820       49.04282      -63.18727     4630.14104
11773.50000        0.36150        0.26683        0.21793     3976.09684       -3.62297       94.84432       95.90820       46.09063      -64.38249     4636.92746
11774.00000        0.33869        0.25564        0.21067     3976.21775       -3.62307       94.71059       95.22955       47.25298      -65.57771     4643.91349
11774.50000        0.31183        0.23429        0.19838     3976.25865       -3.62717       93.71259       93.53295       49.60158      -67.17134     4650.69992
11775.00000        0.28709        0.21971        0.18732     3976.29955       -3.63127       93.71259       92.43315       51.69321      -69.16337     4650.69992
11775.50000        0.26824        0.21312        0.17893     3976.34046       -3.63496       93.14173       92.22556       53.01991      -71.55381     4650.69992
11776.00000        0.25622        0.20871        0.17896     3976.38136       -3.63906       92.55890       92.01997       54.64242      -73.94424     4650.69992
11776.50000        0.25101        0.20738        0.17899     3976.50226       -3.64276       92.17167       91.81239       57.44521      -74.34265     4650.69992
11777.00000        0.25543        0.20606        0.17902     3976.54317       -3.64686       91.78245       91.60680       60.65736      -73.14743     4650.69992
11777.50000        0.27390        0.20682        0.17905     3976.58407       -3.65096       91.39522       91.39922       60.65736      -71.15540     4650.69992
11778.00000        0.29759        0.20898        0.18537     3976.62498       -3.65465       91.56289       91.41119       56.32469      -69.16337     4645.31070
11778.50000        0.32334        0.21929        0.19766     3976.74588       -3.64437       91.87027       91.56888       51.99202      -67.56974     4636.12906
11779.00000        0.35131        0.23231        0.21113     3976.78678       -3.62409       92.05790       91.75850       49.30278      -65.97612     4625.35062
11779.50000        0.35289        0.24610        0.22550     3976.82769       -3.60381       91.91618       91.91618       49.80178      -65.17931     4616.16899
11780.00000        0.33708        0.24890        0.22457     3976.86859       -3.57980       91.21159       91.16768       50.46513      -65.57771     4612.37657
11780.50000        0.31543        0.23466        0.21219     3976.98949       -3.55952       90.50700       90.41918       48.47210      -65.97612     4616.36859
11781.00000        0.28791        0.22121        0.20051     3977.03040       -3.53924       89.80241       89.67067       45.56772      -68.36656     4620.36060
11781.50000        0.26710        0.21418        0.18946     3977.07130       -3.51896       89.60680       88.92217       41.83266      -69.96018     4624.35262
11782.00000        0.28621        0.21737        0.19491     3977.11220       -3.49909       89.12177       87.51099       42.13146      -69.96018     4628.34463
11782.50000        0.32451        0.22684        0.20480     3977.23311       -3.48280       84.24153       83.44712       42.63047      -68.76496     4628.94343
11783.00000        0.36577        0.23875        0.21519     3977.27401       -3.46932       78.88824       79.38325       42.91433      -67.96815     4624.75182
11783.50000        0.41635        0.25732        0.22565     3977.31491       -3.45583       76.74652       76.94613       42.33764      -65.97612     4620.36060
11784.00000        0.47393        0.27958        0.23246     3977.35582       -3.44235       76.94613       79.52098       41.76393      -65.57771     4615.96939
11784.50000        0.52502        0.29225        0.23948     3977.39672       -3.42887       82.43515       83.81239       41.53385      -65.97612     4611.57817
11785.00000        0.50632        0.29229        0.23735     3977.51762       -3.41538       87.92417       88.10381       42.77987      -69.56178     4630.14104
11785.50000        0.45887        0.27874        0.22030     3977.55853       -3.40190       92.05790       92.39522       45.02091      -73.14743     4654.09313
11786.00000        0.41588        0.25748        0.20445     3977.59943       -3.38841       94.64472       94.32935       47.50995      -74.34265     4683.03524
11786.50000        0.39985        0.24454        0.18977     3977.64034       -3.37533       95.02397       94.60081       49.75098      -73.94424     4707.18693
11787.00000        0.40592        0.24207        0.19078     3977.76124       -3.36104       94.88225       94.76848       51.39441      -73.14743     4731.13902
11787.50000        0.41616        0.23965        0.19247     3977.80214       -3.34556       94.73854       94.86229       51.32568      -71.95221     4747.70588
11788.00000        0.42665        0.23725        0.19698     3977.84305       -3.32634       94.97606       94.95810       50.86553      -71.55381     4734.33263
11788.50000        0.42262        0.23566        0.20085     3977.88395       -3.31086       94.94213       95.05191       50.53684      -71.15540     4720.75978
11789.00000        0.41262        0.23425        0.20181     3978.00485       -3.29498       94.66269       95.04393       50.72210      -70.75699     4707.38653
11789.50000        0.40095        0.23285        0.20363     3978.04576       -3.27909       94.38325       94.87626       50.25895      -70.35859     4693.81368
11790.00000        0.39146        0.23260        0.20892     3978.12756       -3.26321       94.10381       94.71059       48.64541      -69.96018     4680.44043
11790.50000        0.38591        0.23264        0.21046     3978.24847       -3.24773       93.82437       94.54492       46.61353      -69.56178     4666.86758
11791.00000        0.38597        0.23281        0.20624     3978.28937       -3.23185       93.96209       94.37726       46.35656      -70.35859     4653.49433
