~Version ---------------------------------------------------
VERS. 2.0 : CWLS LOG ASCII STANDARD - VERSION 2.0
WRAP. NO  : One line per depth step
DLM . SPACE : Column Data Section Delimiter
~Well ------------------------------------------------------
STRT.F         8350 : START DEPTH
STOP.F      12743.5 : STOP DEPTH
STEP.F          0.5 : STEP
NULL.       -999.25 : NULL VALUE
COMP.            AMOCO PRODUCTION COMPANY : COMPANY
WELL.             155847-SL862-011-862-30 : WELL
FLD .                  VERMILION BLOCK 15 : FIELD
CNTY.                           VERMILION : COUNTY
STAT.                           LOUISIANA : STATE
CTRY.                                 USA : COUNTRY
SEC .                                     : SECTION
TWP .                                     : TOWNSHIP
RGE .                                     : RANGE
LOC .                                     : LOCATION
EKB .F                    44.35 : ELEVATION KELLY BUSHING
EDF .F                     44.5 : ELEVATION DERRICK FLOOR
EGL .F                          : ELEVATION GROUND LEVEL
PDAT.                       BHF : PERMANENT DATUM
EPD .                           : ELEVATION PERMANENT DATUM
APD .                        33 : ABOVE PERMANENT DATUM
LMF .                       RKB : LOG MEASURED FROM
DMF .                       RKB : DRILLING MEASURED FROM
API .            17705200940000 : API NUMBER
UWI .                           : UWI NUMBER
DIGC.                     NthDS : DIGITIZING COMPANY
~Params ----------------------------------------------------
SRVC.                     WELEX : LOGGING COMPANY
LOG .                       CDL : LOG
DATE.                1977-09-17 : RUN DATE
RUN .                         1 : RUN NUMBER
TDD .F                    11102 : TOTAL DEPTH DRILLER
TDL .F                    11116 : TOTAL DEPTH LOGGER
BOTL.F                    11020 : BOTTOM LOGGED INTERVAL
TOPL.F                     8350 : TOP LOGGED INTERVAL
CSGS.IN                  13.375 : CASING SIZE
CSGD.F                     1800 : CASING DRILLER
CSGL.F                          : CASING LOGGER
BS  .IN                   12.25 : BIT SIZE
MUD .             LIGNO LIGNITE : MUD TYPE
MUDD.                      10.5 : MUD DENSITY
MUDV.                           : MUD VISCOSITY
PH  .                           : MUD PH
FL  .                           : FLUID LOSS
MUDS.                           : SOURCE OF SAMPLE
RM  .OHMM                       : MUD RESISTIVITY
RMT .DEGF                       : RM TEMPERATURE
RMF .OHMM                       : MUD FILTRATE RESISTIVITY
RMFT.DEGF                       : RMF TEMPERATURE
RMC .OHMM                       : MUD CAKE RESISTIVITY
RMCT.DEGF                       : RMC TEMPERATURE
RMFS.                           : RMF SOURCE
RMCS.                           : RMC SOURCE
RMBH.OHMM                       : MUD RESISTIVITY AT BHT
BHT .DEGF                       : BOTTOM HOLE TEMPERATURE
TIMC.                           : TIME CIRCULATION STOPPED
TIML.                           : TIME LOGGER ON BOTTOM
TMAX.DEGF                   194 : MAXIMUM RECORDED TEMPERATURE
UNIT.                           : EQUIPMENT NUMBER
BASE.                           : BASE LOCATION
ENG .          KNOLES, MOBERLEY : RECORDED BY
WIT .               MR. HUBBARD : WITNESSED BY
#
SRVC.                     WELEX : LOGGING COMPANY
LOG .                       CDL : LOG
DATE.                1977-12-08 : RUN DATE
RUN .                         2 : RUN NUMBER
TDD .F                    12749 : TOTAL DEPTH DRILLER
TDL .F                    12746 : TOTAL DEPTH LOGGER
BOTL.F                    12744 : BOTTOM LOGGED INTERVAL
TOPL.F                    12140 : TOP LOGGED INTERVAL
CSGS.IN                  13.375 : CASING SIZE
CSGD.F                     1800 : CASING DRILLER
CSGL.F                          : CASING LOGGER
BS  .IN                     6.5 : BIT SIZE
MUD .             LIGNO LIGNITE : MUD TYPE
MUDD.                      16.4 : MUD DENSITY
MUDV.                           : MUD VISCOSITY
PH  .                           : MUD PH
FL  .                           : FLUID LOSS
MUDS.                           : SOURCE OF SAMPLE
RM  .OHMM                       : MUD RESISTIVITY
RMT .DEGF                       : RM TEMPERATURE
RMF .OHMM                       : MUD FILTRATE RESISTIVITY
RMFT.DEGF                       : RMF TEMPERATURE
RMC .OHMM                       : MUD CAKE RESISTIVITY
RMCT.DEGF                       : RMC TEMPERATURE
RMFS.                           : RMF SOURCE
RMCS.                           : RMC SOURCE
RMBH.OHMM                       : MUD RESISTIVITY AT BHT
BHT .DEGF                       : BOTTOM HOLE TEMPERATURE
TIMC.                           : TIME CIRCULATION STOPPED
TIML.                           : TIME LOGGER ON BOTTOM
TMAX.DEGF                   235 : MAXIMUM RECORDED TEMPERATURE
UNIT.                           : EQUIPMENT NUMBER
BASE.                           : BASE LOCATION
ENG .                  CROTHERS : RECORDED BY
WIT .               MR. HUBBARD : WITNESSED BY
~Curve Information -----------------------------------------
DEPT.F          :DEPTH
CALI.IN         :
DPHI.%          :
DRHO.G/CC       :
GR.GAPI         :
NPHI.%          :
RHOB.G/CC       :
~ASCII ------------------------------------------------------
# ...
9030.00000       13.96594       16.33993        0.04084       59.99999       43.06305        2.36356
9030.50000       14.00334       17.51977        0.03768       59.58660       43.19941        2.34151
9031.00000       14.00197       18.59289        0.04817       59.17321       43.75494        2.32718
9031.50000       14.05118       19.39566        0.04941       58.75983       43.95652        2.30869
9032.00000       14.12086       21.51344        0.04447       58.34644       44.87550        2.28398
9032.50000       14.20413       21.69961        0.03953       58.34644       43.39921        2.26677
9033.00000       14.28740       21.40317        0.03458       58.15274       44.54289        2.27457
9033.50000       14.27342       21.59289        0.02498       57.18660       44.58498        2.27886
9034.00000       14.22480       20.59269        0.01538       56.22046       43.41878        2.30811
9034.50000       14.15315       17.72728        0.00576       56.61495       41.27668        2.33737
9035.00000       14.08169       16.89724       -0.00088       56.78739       42.01838        2.35427
9035.50000       14.01004       17.36325       -0.00307       56.90550       43.33992        2.34675
9036.00000       13.94016       16.98024        0.00386       58.30392       42.15415        2.35274
9036.50000       13.87756       16.57115        0.01689       60.02125       41.41305        2.36344
9037.00000       13.81496       16.80238        0.02339       62.12597       41.40534        2.36601
9037.50000       13.84783       17.45455        0.02009       64.48817       43.88834        2.35641
9038.00000       13.88720       17.52985        0.02292       64.79290       45.84961        2.34682
9038.50000       13.88051       18.32016        0.02124       65.04565       47.46403        2.33721
9039.00000       13.86417       19.45198        0.01383       65.62203       46.97609        2.32181
9039.50000       13.84783       20.36858        0.00899       66.68502       45.56324        2.30641
9040.00000       13.82815       21.28459        0.01443       67.74802       45.13814        2.28792
9040.50000       13.79527       22.08914        0.01798       68.81101       43.33992        2.27253
9041.00000       13.76240       22.26878        0.01403       69.92124       43.01976        2.25712
9041.50000       13.72972       21.86917        0.01273       71.10234       42.96700        2.26798
9042.00000       13.74606       21.68657        0.02199       72.28345       43.87352        2.27884
9042.50000       13.80807       22.24625        0.02362       73.46455       43.51779        2.27051
9043.00000       13.88937       22.36364        0.02016       74.64565       41.87727        2.26218
9043.50000       13.97067       22.42589        0.02174       73.81888       41.37510        2.25385
9044.00000       14.05197       23.08518        0.02160       71.62203       42.81463        2.24576
9044.50000       14.13327       23.43736        0.01921       69.37794       39.40316        2.23865
9045.00000       14.11023       23.78953        0.02141       67.13384       38.73498        2.23154
9045.50000       14.06102       23.98222        0.02097       64.88975       40.41522        2.22443
9046.00000       14.01181       22.44427        0.01658       63.68502       42.09486        2.24650
9046.50000       13.99744       20.63242        0.02248       64.03935       40.37550        2.26859
9047.00000       14.00649       20.56661        0.03525       64.67715       41.32411        2.29067
9047.50000       14.06811       20.92886        0.04263       65.74014       39.45237        2.28509
9048.00000       14.20866       23.31107        0.02849       65.68817       37.58894        2.26132
9048.50000       14.21850       24.55079        0.01435       63.96140       37.73716        2.23845
9049.00000       14.22834       25.79052        0.00021       62.23463       38.99704        2.21522
9049.50000       14.29390       26.93064       -0.01393       60.50786       38.72728        2.19174
9050.00000       14.16535       28.07075       -0.02807       58.78345       39.45060        2.16954
9050.50000       13.94129       29.14117       -0.03518       56.97768       40.35933        2.15269
9051.00000       13.76751       29.11155       -0.03123       56.53619       39.04443        2.14565
9051.50000       13.59452       28.88944       -0.03261       57.46613       37.20829        2.13861
9052.00000       13.45421       27.12735       -0.03187       59.11936       35.18263        2.15093
9052.50000       13.44501       27.56150       -0.02734       59.74167       34.14610        2.17613
9053.00000       13.43581       28.84502       -0.02541       60.49314       35.65647        2.15535
9053.50000       13.42661       30.12853       -0.03388       62.01955       37.90721        2.13456
9054.00000       13.41742       31.17453       -0.04235       62.72640       40.64660        2.11377
9054.50000       13.40822       30.44423       -0.04545       62.20507       38.91412        2.10989
9055.00000       13.39902       29.50662       -0.04051       62.70057       38.29813        2.13135
9055.50000       13.38043       28.13426       -0.03395       63.87474       37.19645        2.15480
9056.00000       13.35949       26.35736       -0.02632       64.78355       37.86279        2.18616
9056.50000       13.33855       26.17138       -0.02273       64.62621       37.64423        2.19397
9057.00000       13.31761       26.59428       -0.02520       64.10957       37.01876        2.18609
9057.50000       13.29667       25.29122       -0.01272       64.04147       37.96644        2.20507
9058.00000       13.28376       23.15894       -0.00020       68.40468       39.15104        2.24197
9058.50000       13.29941       21.69300        0.01232       71.50683       38.90879        2.27331
9059.00000       13.31898       21.02666        0.02141       75.89118       38.66654        2.28239
9059.50000       13.44344       20.57888        0.02089       81.27121       38.04285        2.29146
9060.00000       13.56810       20.41481        0.01454       86.65360       38.79566        2.29691
9060.50000       13.61526       20.31590        0.00819       86.65360       40.09872        2.29992
9061.00000       13.64325       20.34966        0.00184       85.47943       41.20928        2.30294
9061.50000       13.67123       20.51906        0.00329       83.15693       41.57118        2.30129
9062.00000       13.69922       21.10543       -0.00040       80.54793       40.80948        2.28696
9062.50000       13.72720       21.55973       -0.00830       81.85360       42.05331        2.26945
9063.00000       13.73640       21.50050       -0.00531       82.61446       43.68213        2.28125
9063.50000       13.67123       20.43436        0.00041       80.31309       43.67799        2.29305
9064.00000       13.60606       19.80237        0.00614       73.87865       43.65252        2.30485
9064.50000       13.60861       19.53406        0.01186       69.74558       43.02054        2.31328
9065.00000       13.62818       19.58559        0.00602       70.33266       41.95854        2.30825
9065.50000       13.64775       20.24660        0.00018       70.91975       41.40178        2.29146
9066.00000       13.66556       20.19744       -0.00566       71.50683       41.10563        2.27746
9066.50000       13.68278       21.71195       -0.01150       72.09392       38.49951        2.26347
9067.00000       13.69648       22.03357       -0.00632       72.48609       37.67858        2.28560
9067.50000       13.69863       20.60198        0.00306       72.97454       39.13149        2.30774
9068.00000       13.63992       18.77592        0.00063       72.48609       39.15104        2.32987
9068.50000       13.60196       18.46792       -0.00476       73.85517       40.18756        2.32554
9069.00000       13.64716       19.01284       -0.00062       76.20350       40.09043        2.31460
9069.50000       13.69237       19.30070        0.00988       79.13892       38.32182        2.31600
