~Version ---------------------------------------------------
VERS. 2.0 : CWLS LOG ASCII STANDARD - VERSION 2.0
WRAP. NO  : One line per depth step
DLM . SPACE : Column Data Section Delimiter
~Well ------------------------------------------------------
STRT.F         8350 : START DEPTH
STOP.F      12743.5 : STOP DEPTH
STEP.F          0.5 : STEP
NULL.       -999.25 : NULL VALUE
COMP.            AMOCO PRODUCTION COMPANY : COMPANY
WELL.             155847-SL862-011-862-30 : WELL
FLD .                  VERMILION BLOCK 15 : FIELD
CNTY.                           VERMILION : COUNTY
STAT.                           LOUISIANA : STATE
CTRY.                                 USA : COUNTRY
SEC .                                     : SECTION
TWP .                                     : TOWNSHIP
RGE .                                     : RANGE
LOC .                                     : LOCATION
EKB .F                    44.35 : ELEVATION KELLY BUSHING
EDF .F                     44.5 : ELEVATION DERRICK FLOOR
EGL .F                          : ELEVATION GROUND LEVEL
PDAT.                       BHF : PERMANENT DATUM
EPD .                           : ELEVATION PERMANENT DATUM
APD .                        33 : ABOVE PERMANENT DATUM
LMF .                       RKB : LOG MEASURED FROM
DMF .                       RKB : DRILLING MEASURED FROM
API .            17705200940000 : API NUMBER
UWI .                           : UWI NUMBER
DIGC.                     NthDS : DIGITIZING COMPANY
~Params ----------------------------------------------------
SRVC.                     WELEX : LOGGING COMPANY
LOG .                       CDL : LOG
DATE.                1977-09-17 : RUN DATE
RUN .                         1 : RUN NUMBER
TDD .F                    11102 : TOTAL DEPTH DRILLER
TDL .F                    11116 : TOTAL DEPTH LOGGER
BOTL.F                    11020 : BOTTOM LOGGED INTERVAL
TOPL.F                     8350 : TOP LOGGED INTERVAL
CSGS.IN                  13.375 : CASING SIZE
CSGD.F                     1800 : CASING DRILLER
CSGL.F                          : CASING LOGGER
BS  .IN                   12.25 : BIT SIZE
MUD .             LIGNO LIGNITE : MUD TYPE
MUDD.                      10.5 : MUD DENSITY
MUDV.                           : MUD VISCOSITY
PH  .                           : MUD PH
FL  .                           : FLUID LOSS
MUDS.                           : SOURCE OF SAMPLE
RM  .OHMM                       : MUD RESISTIVITY
RMT .DEGF                       : RM TEMPERATURE
RMF .OHMM                       : MUD FILTRATE RESISTIVITY
RMFT.DEGF                       : RMF TEMPERATURE
RMC .OHMM                       : MUD CAKE RESISTIVITY
RMCT.DEGF                       : RMC TEMPERATURE
RMFS.                           : RMF SOURCE
RMCS.                           : RMC SOURCE
RMBH.OHMM                       : MUD RESISTIVITY AT BHT
BHT .DEGF                       : BOTTOM HOLE TEMPERATURE
TIMC.                           : TIME CIRCULATION STOPPED
TIML.                           : TIME LOGGER ON BOTTOM
TMAX.DEGF                   194 : MAXIMUM RECORDED TEMPERATURE
UNIT.                           : EQUIPMENT NUMBER
BASE.                           : BASE LOCATION
ENG .          KNOLES, MOBERLEY : RECORDED BY
WIT .               MR. HUBBARD : WITNESSED BY
#
SRVC.                     WELEX : LOGGING COMPANY
LOG .                       CDL : LOG
DATE.                1977-12-08 : RUN DATE
RUN .                         2 : RUN NUMBER
TDD .F                    12749 : TOTAL DEPTH DRILLER
TDL .F                    12746 : TOTAL DEPTH LOGGER
BOTL.F                    12744 : BOTTOM LOGGED INTERVAL
TOPL.F                    12140 : TOP LOGGED INTERVAL
CSGS.IN                  13.375 : CASING SIZE
CSGD.F                     1800 : CASING DRILLER
CSGL.F                          : CASING LOGGER
BS  .IN                     6.5 : BIT SIZE
MUD .             LIGNO LIGNITE : MUD TYPE
MUDD.                      16.4 : MUD DENSITY
MUDV.                           : MUD VISCOSITY
PH  .                           : MUD PH
FL  .                           : FLUID LOSS
MUDS.                           : SOURCE OF SAMPLE
RM  .OHMM                       : MUD RESISTIVITY
RMT .DEGF                       : RM TEMPERATURE
RMF .OHMM                       : MUD FILTRATE RESISTIVITY
RMFT.DEGF                       : RMF TEMPERATURE
RMC .OHMM                       : MUD CAKE RESISTIVITY
RMCT.DEGF                       : RMC TEMPERATURE
RMFS.                           : RMF SOURCE
RMCS.                           : RMC SOURCE
RMBH.OHMM                       : MUD RESISTIVITY AT BHT
BHT .DEGF                       : BOTTOM HOLE TEMPERATURE
TIMC.                           : TIME CIRCULATION STOPPED
TIML.                           : TIME LOGGER ON BOTTOM
TMAX.DEGF                   235 : MAXIMUM RECORDED TEMPERATURE
UNIT.                           : EQUIPMENT NUMBER
BASE.                           : BASE LOCATION
ENG .                  CROTHERS : RECORDED BY
WIT .               MR. HUBBARD : WITNESSED BY
~Curve Information -----------------------------------------
DEPT.F          :DEPTH
CALI.IN         :
DPHI.%          :
DRHO.G/CC       :
GR.GAPI         :
NPHI.%          :
RHOB.G/CC       :
~ASCII ------------------------------------------------------
# ...
8710.00000       14.84107       18.37945       -0.00344       86.08156       42.34032        2.32396
8710.50000       14.93970       17.69763        0.00127       84.42104       42.56917        2.33965
8711.00000       14.63892       16.60080        0.00598       83.66286       42.49032        2.35583
8711.50000       14.36767       15.30831        0.01532       82.90469       40.78399        2.37392
8712.00000       14.58067       15.49803        0.02290       81.56542       39.56502        2.38459
8712.50000       14.85567       15.49803        0.01877       78.26792       38.53755        2.38368
8713.00000       15.05981       15.73755        0.02094       74.97042       37.88538        2.38277
8713.50000       15.15765       16.06720        0.02310       72.61305       36.20573        2.37371
8714.00000       15.25548       16.48222        0.02526       74.00917       36.46245        2.36466
8714.50000       15.35332       17.79487        0.02124       75.40292       36.86917        2.35066
8715.00000       15.31337       18.85376        0.01490       76.79904       35.93716        2.33338
8715.50000       15.18149       19.74309        0.00543       75.21647       33.51107        2.31609
8716.00000       14.92638       20.33597       -0.00403       73.69531       30.71147        2.29881
8716.50000       14.64037       19.77273       -0.00141       72.40801       27.77668        2.29983
8717.00000       14.51184       19.56522       -0.00099       71.12071       24.84190        2.31307
8717.50000       14.42267       18.73518       -0.00840       70.68615       24.60060        2.32631
8718.00000       14.40043       17.90514       -0.00119       70.46419       25.46858        2.33956
8718.50000       14.39493       18.68775       -0.00165       70.24222       26.33657        2.33087
8719.00000       14.38942       19.44665       -0.00494       70.02262       26.58083        2.31672
8719.50000       14.38392       19.81720       -0.00823       70.28962       25.88953        2.30256
8720.00000       14.40597       18.76483       -0.01153       71.29598       25.35119        2.31288
8720.50000       14.43491       17.50198       -0.00988       72.10059       24.91542        2.32932
8721.00000       14.42055       17.01582       -0.00494       73.68096       24.47906        2.34577
8721.50000       14.40284       16.83795       -0.00808       76.12824       24.46245        2.35497
8722.00000       14.41545       16.89724       -0.01123       78.57315       25.87945        2.36007
8722.50000       14.42805       16.92688       -0.00949       80.31651       26.32411        2.35594
8723.00000       14.43062       16.73419       -0.00652       81.88506       26.36384        2.35181
8723.50000       14.39302       16.00791       -0.00751       82.48513       26.13321        2.36727
8724.00000       14.40228       15.08894       -0.00949       81.63483       27.03558        2.38462
8724.50000       14.43469       14.92115       -0.01146       81.08216       28.12649        2.38992
8725.00000       14.47505       14.88143       -0.00822       80.52949       29.61463        2.39523
8725.50000       14.43667       14.98044       -0.00277       79.72407       31.00791        2.39790
8726.00000       14.39810       14.44269        0.00178       79.00841       29.91107        2.39882
8726.50000       14.38058       14.59684        0.00632       79.30140       28.83380        2.39973
8727.00000       14.39397       15.02965        0.01087       80.78964       26.98933        2.39572
8727.50000       14.37154       15.71147        0.00469       82.27788       27.42095        2.38433
8728.00000       14.45186       15.87451       -0.00148       83.35746       28.07313        2.37292
8728.50000       14.45128       15.55910        0.00222       82.80007       27.82589        2.38072
8729.00000       14.52943       14.88143        0.01252       82.24268       28.29368        2.39333
8729.50000       14.62727       15.28874        0.02149       81.68292       28.75494        2.38407
8730.00000       14.69480       15.29645        0.02520       81.12553       30.42688        2.38122
8730.50000       14.76232       15.34091        0.02890       80.56814       31.45672        2.38799
8731.00000       14.76685       15.81048        0.02328       80.19736       32.43083        2.38145
8731.50000       14.67690       16.15020        0.01532       80.58483       34.40692        2.37156
8732.00000       14.56372       16.08676        0.00735       80.97230       35.90929        2.37134
8732.50000       14.35802       16.84981       -0.00099       81.69897       37.29249        2.37352
8733.00000       14.15232       17.37985       -0.01087       82.78091       36.05277        2.36050
8733.50000       14.16335       17.40119       -0.01548       83.86522       34.81305        2.34748
8734.00000       14.22832       16.98617       -0.01218       86.43533       33.08301        2.34947
8734.50000       14.79505       16.89724       -0.00889       89.00544       31.84981        2.35522
8735.00000       14.91966       16.40336       -0.00560       91.25666       32.84585        2.36182
8735.50000       15.02281       15.97471       -0.00681       93.43229       33.33202        2.36971
8736.00000       15.09388       16.30435       -0.00915       95.06699       35.39526        2.37839
8736.50000       15.16495       16.60080       -0.01149       94.55448       35.87965        2.36851
8737.00000       15.22176       15.80040       -0.01383       95.01281       35.92886        2.35863
8737.50000       15.29264       15.55317       -0.00799       98.17110       35.42490        2.37481
8738.00000       15.16469       15.61008       -0.00215       96.94522       34.92095        2.37934
8738.50000       14.98695       15.40613       -0.00198       94.46739       35.51384        2.37933
8739.00000       14.99030       15.08657       -0.00321       93.82732       36.10672        2.37932
8739.50000       15.14227       14.76759       -0.00286       94.41085       36.40316        2.38560
8740.00000       15.36314       14.91937       -0.00011       91.81964       37.11463        2.39608
8740.50000       15.32043       15.18854        0.00000       89.23078       37.58894        2.39279
8741.00000       15.31138       15.22530       -0.00165       86.63957       38.08696        2.38948
8741.50000       15.32477       15.40020       -0.00329       86.74594       38.45573        2.38618
8742.00000       15.33836       15.94862        0.00375       87.52553       39.30830        2.38289
8742.50000       15.26180       16.18578        0.00741       87.40750       40.83261        2.37896
8743.00000       15.16279       16.65001        0.00769       87.28947       40.90909        2.37253
8743.50000       15.06378       17.19368        0.01208       87.17144       40.01977        2.36598
8744.00000       15.00769       17.25297        0.00950       87.05578       39.66403        2.35888
8744.50000       14.96242       18.04329        0.00226       86.93774       39.59407        2.35179
8745.00000       14.91715       18.10020       -0.00498       86.81971       39.24368        2.34469
8745.50000       14.87168       18.77728       -0.01221       86.18437       38.89328        2.33761
8746.00000       14.85653       18.74348       -0.01945       85.20415       37.81542        2.32470
8746.50000       14.88607       18.58281       -0.02668       84.22393       36.73755        2.32074
8747.00000       14.91580       18.49803       -0.01590       83.55788       37.47036        2.32534
8747.50000       14.94376       18.72036       -0.00512       84.14141       38.26838        2.32993
8748.00000       14.95998       19.64408       -0.00568       82.89899       37.51601        2.32252
8748.50000       14.93137       20.67570       -0.00908       80.43770       36.76364        2.30712
8749.00000       14.89575       21.48380       -0.01248       77.97876       35.72135        2.29171
8749.50000       14.85993       22.29249       -0.02065       76.60170       33.37945        2.27630
