~Version ---------------------------------------------------
VERS. 2.0 : CWLS LOG ASCII STANDARD - VERSION 2.0
WRAP. NO  : One line per depth step
DLM . SPACE : Column Data Section Delimiter
~Well ------------------------------------------------------
STRT.F       3816.5 : START DEPTH
STOP.F        13000 : STOP DEPTH
STEP.F          0.5 : STEP
NULL.       -999.25 : NULL VALUE
COMP.             UNION PACIFIC RESOURCES : COMPANY
WELL.                 219499-LLECO-003-29 : WELL
FLD .                     FOUR LEAGUE BAY : FIELD
CNTY.                          TERREBONNE : COUNTY
STAT.                           LOUISIANA : STATE
CTRY.                                 USA : COUNTRY
SEC .                                     : SECTION
TWP .                                     : TOWNSHIP
RGE .                                     : RANGE
LOC .                                     : LOCATION
EKB .F                          : ELEVATION KELLY BUSHING
EDF .F                          : ELEVATION DERRICK FLOOR
EGL .F                          : ELEVATION GROUND LEVEL
PDAT.                       BHF : PERMANENT DATUM
EPD .                           : ELEVATION PERMANENT DATUM
APD .                           : ABOVE PERMANENT DATUM
LMF .                       RKB : LOG MEASURED FROM
DMF .                       RKB : DRILLING MEASURED FROM
API .            17109235220000 : API NUMBER
UWI .                           : UWI NUMBER
DIGC.                     NthDS : DIGITIZING COMPANY
~Params ----------------------------------------------------
SRVC.              SCHLUMBERGER : LOGGING COMPANY
LOG .                   AIT/LSS : LOG
DATE.                1996-12-21 : RUN DATE
RUN .                         1 : RUN NUMBER
TDD .F                    13000 : TOTAL DEPTH DRILLER
TDL .F                    12998 : TOTAL DEPTH LOGGER
BOTL.F                    12990 : BOTTOM LOGGED INTERVAL
TOPL.F                     4026 : TOP LOGGED INTERVAL
CSGS.IN                   10.75 : CASING SIZE
CSGD.F                     4025 : CASING DRILLER
CSGL.F                     4026 : CASING LOGGER
BS  .IN                   9.875 : BIT SIZE
MUD .          CARBOMAX/QBROXIN : MUD TYPE
MUDD.                       9.8 : MUD DENSITY
MUDV.                        41 : MUD VISCOSITY
PH  .                       8.2 : MUD PH
FL  .                        11 : FLUID LOSS
MUDS.                  CIRC PIT : SOURCE OF SAMPLE
RM  .OHMM                 0.620 : MUD RESISTIVITY
RMT .DEGF                    75 : RM TEMPERATURE
RMF .OHMM                 0.926 : MUD FILTRATE RESISTIVITY
RMFT.DEGF                    75 : RMF TEMPERATURE
RMC .OHMM                 0.310 : MUD CAKE RESISTIVITY
RMCT.DEGF                    75 : RMC TEMPERATURE
RMFS.                      CALC : RMF SOURCE
RMCS.                      CALC : RMC SOURCE
RMBH.OHMM                 0.251 : MUD RESISTIVITY AT BHT
BHT .DEGF                   195 : BOTTOM HOLE TEMPERATURE
TIMC.                2000 11-21 : TIME CIRCULATION STOPPED
TIML.                1800 11-21 : TIME LOGGER ON BOTTOM
TMAX.DEGF                   195 : MAXIMUM RECORDED TEMPERATURE
UNIT.                      2015 : EQUIPMENT NUMBER
BASE.              HOUMA INLAND : BASE LOCATION
ENG .       T.NESBIT/L.GUERRERO : RECORDED BY
WIT .          HERMAN DEVILLIER : WITNESSED BY
~Curve Information -----------------------------------------
DEPT.F          :DEPTH
AHT10.OHMM      :
AHT30.OHMM      :
AHT90.OHMM      :
CILD.MMHO       :
DCAL.IN         :
DTLF.US/F       :
DTLN.US/F       :
GR.GAPI         :
SP.MV           :
TENS.LBF        :
~ASCII ------------------------------------------------------
# ...
10591.50000        1.00701        1.23909        1.18251      886.64886       -2.67753       91.56688       92.31538       98.47408      -21.75302     4171.65812
10592.00000        0.97203        1.24249        1.17575      857.61102       -2.67669       90.98405       91.91618      102.28982      -21.75302     4171.65812
10592.50000        0.95165        1.22093        1.20054      843.01210       -2.67600       90.56888       91.51698      104.95515      -21.69725     4152.89565
10593.00000        0.95180        1.19963        1.24289      828.49318       -2.67530       90.81838       91.11778      105.89041      -21.55382     4134.13318
10593.50000        0.95196        1.19201        1.28153      813.97427       -2.67460       91.06788       90.71858      106.00993      -21.41039     4115.57031
10594.00000        0.96979        1.20455        1.30002      799.45535       -2.67390       89.72057       90.31938      104.18424      -22.54983     4129.54236
10594.50000        0.99252        1.25502        1.32247      784.85643       -2.67321       87.12576       87.16169      101.93424      -24.94027     4156.08926
10595.00000        1.02294        1.30997        1.35471      770.33751       -2.67237       85.64872       84.53095      100.39838      -26.40242     4178.24494
10595.50000        1.05125        1.34958        1.39093      755.81859       -2.67167       85.77846       85.21159      101.11551      -25.73708     4192.41660
10596.00000        1.08025        1.39026        1.42825      741.29967       -2.67097       86.40121       85.89223      102.61850      -23.34665     4194.41260
10596.50000        1.10404        1.40424        1.42848      726.70075       -2.67028       86.52696       86.57287      104.04380      -20.95621     4196.40861
10597.00000        1.10422        1.37708        1.40692      712.18184       -2.66958       86.60481       87.25351      103.90934      -20.67334     4198.60422
10597.50000        1.10440        1.35045        1.37174      712.14274       -2.66888       87.06988       87.81439      101.16033      -20.33071     4200.99943
10598.00000        1.10461        1.36081        1.35868      712.10365       -2.66818       87.45910       88.17766       98.44121      -20.04386     4202.99544
10598.50000        1.10479        1.38733        1.39052      712.06455       -2.66735       87.84632       88.17367       96.96213      -19.76099     4204.99144
10599.00000        1.10883        1.39652        1.39806      712.02546       -2.66665       87.76449       87.92417       98.00794      -19.47812     4207.18705
10599.50000        1.11300        1.37937        1.39738      711.98636       -2.66595       86.86029       87.13574       99.50197      -19.68928     4209.18306
10600.00000        1.07663        1.31372        1.36837      711.94726       -2.85697       85.77846       86.34932      100.44918      -20.23111     4211.17907
10600.50000        1.10034        1.34896        1.40044      722.56266       -2.85627       84.77048       85.40321       99.55276      -19.86059     4194.21300
10601.00000        1.12468        1.38515        1.43325      717.24362       -2.85558       84.93016       85.32936       98.30675      -20.02792     4176.84774
10601.50000        1.14945        1.39561        1.45715      711.84459       -2.85488       86.42716       86.32736       98.80575      -20.19127     4159.48247
10602.00000        1.14794        1.36125        1.43958      711.80550       -2.85418       86.92616       87.32536       99.00894      -20.35860     4142.11721
10602.50000        1.14626        1.34714        1.42518      711.76640       -2.85348       85.37327       86.06189       98.04380      -20.52593     4136.32878
10603.00000        1.14476        1.35395        1.41092      711.72731       -2.85279       84.07187       84.79642       97.07567      -20.68928     4147.90563
10603.50000        1.14326        1.36066        1.40144      711.68821       -2.85209       83.77247       83.91020       96.11053      -20.85661     4159.28287
10604.00000        1.14187        1.36753        1.39305      711.64912       -2.85125       83.65670       84.05191       95.91631      -21.44625     4170.85971
10604.50000        1.14037        1.36750        1.38472      711.61002       -2.87293       84.28145       84.45111       95.31870      -22.67334     4182.43656
10605.00000        1.14024        1.36282        1.38838      711.57093       -2.90980       84.53095       84.85032       93.71711      -23.89645     4192.61620
10605.50000        1.14042        1.35828        1.39501      711.53183       -2.94666       84.53095       84.71259       91.54181      -23.07971     4197.00741
10606.00000        1.14060        1.35375        1.39960      705.49281       -3.07304       83.79443       84.44113       90.23902      -21.48609     4201.59823
10606.50000        1.14079        1.34912        1.40383      699.45379       -3.33328       82.87227       83.85231       91.70615      -20.88848     4206.18905
10607.00000        1.13657        1.35058        1.40793      693.41477       -3.59392       82.09183       83.05391       94.15038      -20.78091     4210.58026
10607.50000        1.13122        1.36128        1.41205      687.37574       -3.66235       81.87028       82.25551       95.57269      -20.66936     4204.79184
10608.00000        1.12600        1.37193        1.41618      690.77661       -3.68283       82.42117       83.03395       95.45615      -20.55780     4196.20901
10608.50000        1.12071        1.38267        1.42046      694.17747       -3.70291       84.58485       85.22956       95.34261      -20.05980     4186.02937
10609.00000        1.11062        1.36206        1.40565      697.57833       -3.72339       86.84632       87.05590       95.85057      -19.44227     4177.64614
10609.50000        1.06899        1.32853        1.36132      700.89920       -3.71990       89.10780       88.87826       96.51392      -18.96418     4169.06331
10610.00000        1.02112        1.32325        1.33548      704.30006       -3.71640       91.17966       90.70061       96.96213      -18.96418     4160.68008
10610.50000        0.98293        1.31267        1.35688      707.70092       -3.71291       92.48504       92.52297       97.41033      -18.96418     4152.09724
10611.00000        0.94608        1.26033        1.36826      711.10179       -3.70941       93.78844       94.34532      100.82567      -18.96418     4143.71401
10611.50000        0.91062        1.21543        1.34179      720.66257       -3.70538       94.07187       94.53894      105.77687      -18.96418     4135.13118
10612.00000        0.88044        1.17992        1.29542      730.22336       -3.70189       93.67267       94.32536      108.59459      -18.94027     4155.69006
10612.50000        0.86660        1.14555        1.25054      739.78415       -3.69839       93.51299       94.11179      109.81073      -18.82474     4195.61021
10613.00000        0.85297        1.11208        1.24191      758.90572       -3.69490       93.51299       94.11179      109.06372      -18.70521     4203.99344
10613.50000        0.83956        1.11462        1.24211      768.46651       -3.69140       93.51299       94.11179      106.57468      -18.58968     4191.61819
10614.00000        0.82643        1.11706        1.24231      778.02730       -3.68791       93.51299       94.11179      105.35854      -19.58171     4179.04335
10614.50000        0.82232        1.11960        1.23874      787.58809       -3.68441       93.51299       94.11179      104.46213      -20.84864     4166.66810
10615.00000        0.82411        1.12215        1.22005      797.14888       -3.68092       93.51299       94.11179      104.91033      -20.68928     4154.09325
10615.50000        0.82599        1.11175        1.20163      806.70966       -3.67742       93.29742       93.80041      106.55376      -19.58569     4184.63217
10616.00000        0.82788        1.09286        1.18907      807.63056       -3.67393       92.76049       93.41319      108.25396      -18.83270     4225.74992
