~Version ---------------------------------------------------
VERS. 2.0 : CWLS LOG ASCII STANDARD - VERSION 2.0
WRAP. NO  : One line per depth step
DLM . SPACE : Column Data Section Delimiter
~Well ------------------------------------------------------
STRT.F       3816.5 : START DEPTH
STOP.F        13000 : STOP DEPTH
STEP.F          0.5 : STEP
NULL.       -999.25 : NULL VALUE
COMP.             UNION PACIFIC RESOURCES : COMPANY
WELL.                 219499-LLECO-003-29 : WELL
FLD .                     FOUR LEAGUE BAY : FIELD
CNTY.                          TERREBONNE : COUNTY
STAT.                           LOUISIANA : STATE
CTRY.                                 USA : COUNTRY
SEC .                                     : SECTION
TWP .                                     : TOWNSHIP
RGE .                                     : RANGE
LOC .                                     : LOCATION
EKB .F                          : ELEVATION KELLY BUSHING
EDF .F                          : ELEVATION DERRICK FLOOR
EGL .F                          : ELEVATION GROUND LEVEL
PDAT.                       BHF : PERMANENT DATUM
EPD .                           : ELEVATION PERMANENT DATUM
APD .                           : ABOVE PERMANENT DATUM
LMF .                       RKB : LOG MEASURED FROM
DMF .                       RKB : DRILLING MEASURED FROM
API .            17109235220000 : API NUMBER
UWI .                           : UWI NUMBER
DIGC.                     NthDS : DIGITIZING COMPANY
~Params ----------------------------------------------------
SRVC.              SCHLUMBERGER : LOGGING COMPANY
LOG .                   AIT/LSS : LOG
DATE.                1996-12-21 : RUN DATE
RUN .                         1 : RUN NUMBER
TDD .F                    13000 : TOTAL DEPTH DRILLER
TDL .F                    12998 : TOTAL DEPTH LOGGER
BOTL.F                    12990 : BOTTOM LOGGED INTERVAL
TOPL.F                     4026 : TOP LOGGED INTERVAL
CSGS.IN                   10.75 : CASING SIZE
CSGD.F                     4025 : CASING DRILLER
CSGL.F                     4026 : CASING LOGGER
BS  .IN                   9.875 : BIT SIZE
MUD .          CARBOMAX/QBROXIN : MUD TYPE
MUDD.                       9.8 : MUD DENSITY
MUDV.                        41 : MUD VISCOSITY
PH  .                       8.2 : MUD PH
FL  .                        11 : FLUID LOSS
MUDS.                  CIRC PIT : SOURCE OF SAMPLE
RM  .OHMM                 0.620 : MUD RESISTIVITY
RMT .DEGF                    75 : RM TEMPERATURE
RMF .OHMM                 0.926 : MUD FILTRATE RESISTIVITY
RMFT.DEGF                    75 : RMF TEMPERATURE
RMC .OHMM                 0.310 : MUD CAKE RESISTIVITY
RMCT.DEGF                    75 : RMC TEMPERATURE
RMFS.                      CALC : RMF SOURCE
RMCS.                      CALC : RMC SOURCE
RMBH.OHMM                 0.251 : MUD RESISTIVITY AT BHT
BHT .DEGF                   195 : BOTTOM HOLE TEMPERATURE
TIMC.                2000 11-21 : TIME CIRCULATION STOPPED
TIML.                1800 11-21 : TIME LOGGER ON BOTTOM
TMAX.DEGF                   195 : MAXIMUM RECORDED TEMPERATURE
UNIT.                      2015 : EQUIPMENT NUMBER
BASE.              HOUMA INLAND : BASE LOCATION
ENG .       T.NESBIT/L.GUERRERO : RECORDED BY
WIT .          HERMAN DEVILLIER : WITNESSED BY
~Curve Information -----------------------------------------
DEPT.F          :DEPTH
AHT10.OHMM      :
AHT30.OHMM      :
AHT90.OHMM      :
CILD.MMHO       :
DCAL.IN         :
DTLF.US/F       :
DTLN.US/F       :
GR.GAPI         :
SP.MV           :
TENS.LBF        :
~ASCII ------------------------------------------------------
# ...
5216.50000        0.37942        0.19743        0.15400     3998.67076        4.55771      132.32067      132.99931       51.35855      -54.02393     2505.29424
5217.00000        0.33981        0.19929        0.15670     3998.63167        4.63632      132.13097      132.75173       52.03086      -53.62552     2516.70178
5217.50000        0.30155        0.20116        0.16012     3998.59257        4.71534      131.94327      132.50414       52.58963      -54.02393     2526.27460
5218.00000        0.28804        0.20305        0.16361     3998.55348        4.79436      131.77353      132.41624       51.09561      -54.42234     2535.84742
5218.50000        0.29075        0.20987        0.16844     3998.51438        4.81264      132.10916      133.07722       49.37748      -54.02393     2545.42024
5219.00000        0.32574        0.22151        0.17747     3998.47529        4.72637      132.61007      133.62804       47.50995      -53.22712     2554.79346
5219.50000        0.36524        0.24032        0.19224     3998.43619        4.58081      133.11099      134.17885       47.50995      -51.63349     2557.57987
5220.00000        0.43408        0.25723        0.21571     3998.39710        4.32457      132.91331      134.66979       48.10756      -49.64146     2532.82143
5220.50000        0.46774        0.27532        0.22487     3998.35800        4.06832      131.61782      134.41223       51.39441      -47.64943     2503.11129
5221.00000        0.46098        0.27357        0.22542     3998.31891        3.99030      129.82333      131.91914       55.33863      -46.05580     2507.09530
5221.50000        0.44714        0.27505        0.22288     3998.24072        4.03096      128.07875      129.94701       58.11752      -44.06377     2511.07931
5222.00000        0.46884        0.28272        0.23127     3998.20162        4.13755      127.73136      130.06070       58.56572      -42.47015     2515.06332
5222.50000        0.50474        0.31289        0.25070     3998.16253        4.28809      131.52607      132.40431       56.77289      -42.86855     2518.84773
5223.00000        0.54338        0.34049        0.26805     3998.12343        4.80281      133.92319      133.92319       54.90537      -44.46218     2522.83174
5223.50000        0.55356        0.33914        0.27370     3966.08472        4.82509      132.97700      133.08678       55.21911      -44.46218     2526.81575
5224.00000        0.54355        0.33776        0.27533     3818.04743        4.54727      131.53182      132.97892       56.56373      -42.47015     2531.63649
5224.50000        0.53965        0.34223        0.28602     3670.01014        4.21950      128.93931      132.10858       57.60955      -39.68130     2535.62050
5225.00000        0.55874        0.35025        0.30300     3515.23622        3.89212      130.19633      132.96080       57.07170      -36.09565     2539.60451
5225.50000        0.58867        0.36679        0.32190     3373.93556        3.91959      131.76511      134.24614       54.38246      -32.90840     2543.38892
5226.00000        0.61484        0.38769        0.34201     3289.09750        3.94666      133.16461      135.53187       54.59461      -31.71318     2541.38491
5226.50000        0.67222        0.40601        0.36581     3204.25944        3.97413      132.31224      135.53379       53.69521      -30.91637     2535.38891
5227.00000        0.75776        0.43042        0.38603     3119.42137        4.47647      131.34410      133.87303       52.05178      -31.71318     2529.39290
5227.50000        0.82635        0.45774        0.40120     2949.74525        4.89474      130.34801      132.78713       49.75098      -32.90840     2523.19729
5228.00000        0.85392        0.45183        0.39152     3001.70552        4.95858      131.34793      134.00860       47.01094      -35.29884     2516.04200
5228.50000        0.82509        0.42301        0.35924     3053.66579        5.02241      132.34785      134.99455       44.82071      -37.29087     2510.04599
5229.00000        0.74677        0.39607        0.32959     3209.62480        5.08625      133.28190      135.62520       45.56772      -39.68130     2511.83439
5229.50000        0.67456        0.37081        0.30241     3287.52555        5.17206      134.08260      136.38199       47.06174      -41.67334     2525.59882
5230.00000        0.60934        0.34263        0.27433     3365.58380        5.38268      134.74918      137.01065       47.80875      -43.66537     2539.56285
5230.50000        0.57963        0.32961        0.24325     3582.27607        5.55840      135.41577      137.64131       46.09660      -44.86059     2553.32728
5231.00000        0.55132        0.31921        0.23303     3677.50181        5.71055      135.65121      138.06638       43.24601      -45.65740     2567.09171
5231.50000        0.54590        0.31143        0.22819     3768.10161        5.76799      133.91661      136.95053       41.02290      -46.45421     2557.54121
5232.00000        0.54977        0.31352        0.22991     3858.78141        5.68437      126.69299      131.74288       39.74103      -47.25102     2549.74880
5232.50000        0.56916        0.32025        0.23732     3949.38121        5.56519      118.11209      121.66498       39.62748      -47.64943     2541.75679
5233.00000        0.63281        0.33553        0.25229     3833.34352        5.28018      109.71083      112.35553       39.51095      -48.04784     2533.96438
5233.50000        0.71006        0.35996        0.27739     3569.26855        4.95400      102.77663      106.11994       38.84461      -49.24306     2525.97236
5234.00000        0.80078        0.39162        0.30501     3421.23126        4.76623      102.49151      105.15218       37.84959      -50.43827     2518.17995
5234.50000        0.90416        0.42013        0.34178     3273.19397        4.69420      103.25989      107.05828       37.27589      -50.03987     2510.18794
5235.00000        0.99393        0.44433        0.36626     3125.15668        4.66573      104.03027      107.82267       38.65338      -49.24306     2510.61746
5235.50000        1.05468        0.46000        0.38065     3005.11904        4.66642      103.87849      107.82459       40.41931      -48.44624     2512.60547
5236.00000        1.09011        0.47623        0.38540     3087.71894        4.68830      103.72671      107.82651       41.67429      -48.44624     2514.59347
5236.50000        1.05408        0.46762        0.37153     3175.14935        4.79409      105.27354      109.62482       40.87648      -48.84465     2516.58148
5237.00000        0.96069        0.45917        0.33983     3252.99874        4.89988      109.36726      111.62274       40.07868      -49.24306     2518.56949
5237.50000        0.84588        0.42128        0.31087     3339.59858        5.00567      115.04220      118.01226       39.50198      -50.03987     2520.55749
5238.00000        0.74486        0.39213        0.27932     3426.27843        5.09962      120.40938      122.67085       39.34362      -50.43827     2522.34590
5238.50000        0.67364        0.36500        0.26175     3512.87828        5.15026      122.68674      123.20570       38.34561      -50.03987     2524.77143
5239.00000        0.63844        0.34865        0.25149     3599.47813        5.23807      121.72858      122.66869       37.35059      -50.03987     2526.75943
5239.50000        0.64421        0.34551        0.24866     3686.15798        5.47493      119.32331      121.77241       37.99003      -50.03987     2528.74744
5240.00000        0.66595        0.35140        0.25533     3772.75783        5.71179      116.91805      119.91804       37.97808      -51.23509     2530.73545
5240.50000        0.70974        0.36645        0.26468     3735.35919        5.71249      114.51278      116.92633       37.52987      -51.23509     2533.72145
5241.00000        0.74842        0.38218        0.27548     3698.04055        5.71319      113.17776      114.43324       36.81274      -51.63349     2536.90706
