~Version ---------------------------------------------------
VERS. 2.0 : CWLS LOG ASCII STANDARD - VERSION 2.0
WRAP. NO  : One line per depth step
DLM . SPACE : Column Data Section Delimiter
~Well ------------------------------------------------------
STRT.F         8350 : START DEPTH
STOP.F      12743.5 : STOP DEPTH
STEP.F          0.5 : STEP
NULL.       -999.25 : NULL VALUE
COMP.            AMOCO PRODUCTION COMPANY : COMPANY
WELL.             155847-SL862-011-862-30 : WELL
FLD .                  VERMILION BLOCK 15 : FIELD
CNTY.                           VERMILION : COUNTY
STAT.                           LOUISIANA : STATE
CTRY.                                 USA : COUNTRY
SEC .                                     : SECTION
TWP .                                     : TOWNSHIP
RGE .                                     : RANGE
LOC .                                     : LOCATION
EKB .F                    44.35 : ELEVATION KELLY BUSHING
EDF .F                     44.5 : ELEVATION DERRICK FLOOR
EGL .F                          : ELEVATION GROUND LEVEL
PDAT.                       BHF : PERMANENT DATUM
EPD .                           : ELEVATION PERMANENT DATUM
APD .                        33 : ABOVE PERMANENT DATUM
LMF .                       RKB : LOG MEASURED FROM
DMF .                       RKB : DRILLING MEASURED FROM
API .            17705200940000 : API NUMBER
UWI .                           : UWI NUMBER
DIGC.                     NthDS : DIGITIZING COMPANY
~Params ----------------------------------------------------
SRVC.                     WELEX : LOGGING COMPANY
LOG .                       CDL : LOG
DATE.                1977-09-17 : RUN DATE
RUN .                         1 : RUN NUMBER
TDD .F                    11102 : TOTAL DEPTH DRILLER
TDL .F                    11116 : TOTAL DEPTH LOGGER
BOTL.F                    11020 : BOTTOM LOGGED INTERVAL
TOPL.F                     8350 : TOP LOGGED INTERVAL
CSGS.IN                  13.375 : CASING SIZE
CSGD.F                     1800 : CASING DRILLER
CSGL.F                          : CASING LOGGER
BS  .IN                   12.25 : BIT SIZE
MUD .             LIGNO LIGNITE : MUD TYPE
MUDD.                      10.5 : MUD DENSITY
MUDV.                           : MUD VISCOSITY
PH  .                           : MUD PH
FL  .                           : FLUID LOSS
MUDS.                           : SOURCE OF SAMPLE
RM  .OHMM                       : MUD RESISTIVITY
RMT .DEGF                       : RM TEMPERATURE
RMF .OHMM                       : MUD FILTRATE RESISTIVITY
RMFT.DEGF                       : RMF TEMPERATURE
RMC .OHMM                       : MUD CAKE RESISTIVITY
RMCT.DEGF                       : RMC TEMPERATURE
RMFS.                           : RMF SOURCE
RMCS.                           : RMC SOURCE
RMBH.OHMM                       : MUD RESISTIVITY AT BHT
BHT .DEGF                       : BOTTOM HOLE TEMPERATURE
TIMC.                           : TIME CIRCULATION STOPPED
TIML.                           : TIME LOGGER ON BOTTOM
TMAX.DEGF                   194 : MAXIMUM RECORDED TEMPERATURE
UNIT.                           : EQUIPMENT NUMBER
BASE.                           : BASE LOCATION
ENG .          KNOLES, MOBERLEY : RECORDED BY
WIT .               MR. HUBBARD : WITNESSED BY
#
SRVC.                     WELEX : LOGGING COMPANY
LOG .                       CDL : LOG
DATE.                1977-12-08 : RUN DATE
RUN .                         2 : RUN NUMBER
TDD .F                    12749 : TOTAL DEPTH DRILLER
TDL .F                    12746 : TOTAL DEPTH LOGGER
BOTL.F                    12744 : BOTTOM LOGGED INTERVAL
TOPL.F                    12140 : TOP LOGGED INTERVAL
CSGS.IN                  13.375 : CASING SIZE
CSGD.F                     1800 : CASING DRILLER
CSGL.F                          : CASING LOGGER
BS  .IN                     6.5 : BIT SIZE
MUD .             LIGNO LIGNITE : MUD TYPE
MUDD.                      16.4 : MUD DENSITY
MUDV.                           : MUD VISCOSITY
PH  .                           : MUD PH
FL  .                           : FLUID LOSS
MUDS.                           : SOURCE OF SAMPLE
RM  .OHMM                       : MUD RESISTIVITY
RMT .DEGF                       : RM TEMPERATURE
RMF .OHMM                       : MUD FILTRATE RESISTIVITY
RMFT.DEGF                       : RMF TEMPERATURE
RMC .OHMM                       : MUD CAKE RESISTIVITY
RMCT.DEGF                       : RMC TEMPERATURE
RMFS.                           : RMF SOURCE
RMCS.                           : RMC SOURCE
RMBH.OHMM                       : MUD RESISTIVITY AT BHT
BHT .DEGF                       : BOTTOM HOLE TEMPERATURE
TIMC.                           : TIME CIRCULATION STOPPED
TIML.                           : TIME LOGGER ON BOTTOM
TMAX.DEGF                   235 : MAXIMUM RECORDED TEMPERATURE
UNIT.                           : EQUIPMENT NUMBER
BASE.                           : BASE LOCATION
ENG .                  CROTHERS : RECORDED BY
WIT .               MR. HUBBARD : WITNESSED BY
~Curve Information -----------------------------------------
DEPT.F          :DEPTH
CALI.IN         :
DPHI.%          :
DRHO.G/CC       :
GR.GAPI         :
NPHI.%          :
RHOB.G/CC       :
~ASCII ------------------------------------------------------
# ...
10227.00000       14.74970       15.37530       -0.02802       93.93344       46.34882        2.37780
10227.50000       14.74109       15.16601       -0.03005       91.30330       46.18577        2.38421
10228.00000       14.70841       16.00791       -0.03208       88.25047       45.93380        2.37698
10228.50000       14.76340       16.70929       -0.03034       87.78080       45.01957        2.36064
10229.00000       14.81839       15.77076       -0.02860       91.18589       45.06937        2.36300
10229.50000       14.87358       15.67174       -0.02647       94.16827       45.11858        2.37365
10230.00000       14.86497       15.11858       -0.02280       96.51661       45.33024        2.37806
10230.50000       14.84051       15.10139       -0.01912       98.86495       45.54190        2.38247
10231.00000       14.81604       15.08360       -0.01544       99.63285       45.59289        2.38687
10231.50000       14.82661       15.06641       -0.02130       98.03129       45.00000        2.39337
10232.00000       14.86066       14.47471       -0.02717       96.42503       44.95079        2.40127
10232.50000       14.89471       13.83380       -0.01808       94.79528       44.40356        2.40917
10233.00000       14.92876       15.32016       -0.01468       93.16319       44.68162        2.39721
10233.50000       14.96282       16.53321       -0.01748       91.53344       45.01482        2.37201
10234.00000       14.88454       16.66008       -0.02028       92.28961       45.28044        2.35887
10234.50000       14.80626       16.22550       -0.02140       96.45790       45.49565        2.36380
10235.00000       14.77358       15.88933       -0.01574       92.20272       45.71146        2.36872
10235.50000       14.74109       14.48597       -0.01009       92.28961       46.09269        2.38552
10236.00000       14.70841       13.74309       -0.00556       91.11544       45.91127        2.41023
10236.50000       14.70626       14.15811        0.00009       89.89430       45.35573        2.40856
10237.00000       14.74970       14.56542       -0.00443       90.13383       45.05929        2.40031
10237.50000       14.84540       14.52570       -0.00894       87.57180       44.76285        2.39653
10238.00000       14.97593       15.15534       -0.00239       85.00976       44.33063        2.39164
10238.50000       15.07319       16.30435        0.00691       86.77102       44.18953        2.37498
10239.00000       15.03835       15.90890       -0.00053       87.67043       44.53577        2.36328
10239.50000       15.00332       15.77076       -0.00797       87.28061       44.88142        2.37136
10240.00000       15.07377       16.87352       -0.00182       90.50487       45.22708        2.37943
10240.50000       15.24540       17.33597       -0.00054       92.17219       44.86957        2.35716
10241.00000       15.19021       16.80119       -0.00656       92.39058       44.22925        2.34801
10241.50000       15.13522       15.94862       -0.01258       94.40311       43.97490        2.35854
10242.00000       15.08023       16.57708       -0.00931       93.03403       43.20949        2.36908
10242.50000       15.16712       17.55534        0.00016       91.66260       43.17273        2.36839
10243.00000       15.24325       17.69763        0.00964       91.97023       43.33459        2.35087
10243.50000       15.27593       16.58597        0.00356       93.39567       43.10810        2.33336
10244.00000       15.11291       16.90554       -0.00253       94.82346       42.62312        2.35753
10244.50000       15.21878       17.58321       -0.00861       94.70604       42.17372        2.36365
10245.00000       15.39178       18.26087       -0.01469       94.20115       41.95494        2.35077
10245.50000       15.49511       18.49803       -0.02078       93.69861       42.43992        2.33790
10246.00000       15.31898       18.73518       -0.02685       95.71113       42.92490        2.32502
10246.50000       15.14285       18.55732       -0.02628       98.75458       42.57925        2.32209
10247.00000       15.01174       18.74704       -0.02404      102.48373       42.69961        2.32578
10247.50000       15.10802       19.71759       -0.02180      106.21289       42.30237        2.32337
10248.00000       15.27514       21.96226       -0.01956      111.62346       41.81028        2.29653
10248.50000       15.44227       23.35969       -0.01732      107.25555       41.67984        2.26435
10249.00000       15.60939       23.53755       -0.01900       91.88334       41.97629        2.23752
10249.50000       15.77651       22.20356       -0.01914       82.42659       42.61838        2.24112
10250.00000       15.85734       20.85238       -0.01057       81.95693       44.64427        2.26575
10250.50000       15.89941       19.70397       -0.00463       84.63403       44.81502        2.28880
10251.00000       15.93424       19.15573        0.00130       86.18393       45.07983        2.30462
10251.50000       15.81311       19.23064        0.00241       85.00976       45.46216        2.31568
10252.00000       15.65303       19.23137       -0.00369       84.22072       45.01778        2.31368
10252.50000       15.60078       18.35020       -0.00979       84.96749       44.54077        2.31169
10253.00000       15.62035       17.81917       -0.01590       85.71427       44.05603        2.32005
10253.50000       15.60861       18.14393       -0.01101       84.67160       43.96952        2.33786
10254.00000       15.66732       18.30445       -0.00949       84.26299       44.50036        2.33142
10254.50000       15.86301       18.26600       -0.01224       86.39763       45.07497        2.32823
10255.00000       15.59648       19.05782       -0.00833       87.96162       45.64958        2.33316
10255.50000       15.49550       19.84964       -0.00442       85.11074       45.39155        2.31633
10256.00000       15.70215       19.72396       -0.00405       82.42659       45.26705        2.29949
10256.50000       15.75773       19.04279       -0.01247       80.23560       45.65353        2.30974
10257.00000       15.71252       18.85301        0.00062       79.84343       45.82636        2.32000
10257.50000       15.66732       18.80922        0.00613       80.26613       45.75765        2.32549
10258.00000       15.74559       18.75357        0.00024       82.66143       46.00585        2.32383
10258.50000       15.82387       18.81364       -0.00565       86.18393       45.87958        2.32216
10259.00000       15.90215       18.88558       -0.01153       88.86104       46.00745        2.32049
10259.50000       15.90215       18.14447       -0.01505       88.64969       46.03785        2.32586
10260.00000       15.90215       17.42071       -0.00909       87.84655       45.29674        2.33299
10260.50000       15.83698       17.50571       -0.00314       89.10996       45.55206        2.34568
10261.00000       15.72172       17.71356       -0.00238       90.37571       45.46258        2.34033
10261.50000       15.79784       17.95167       -0.00941       90.88060       45.14342        2.33499
10262.00000       15.77945       17.39453       -0.01642       90.64577       44.82486        2.34281
10262.50000       15.61937       17.03384       -0.02344       89.70644       44.38048        2.35392
10263.00000       15.49334       17.28916       -0.02503       87.49900       43.93611        2.35644
10263.50000       15.50430       17.51244       -0.02301       83.92953       43.81814        2.34608
10264.00000       15.54246       17.32444       -0.01980       84.07043       43.68058        2.33992
10264.50000       15.59511       16.51982       -0.01182       90.13618       44.04392        2.35056
10265.00000       15.64775       16.78405       -0.01498       92.66534       45.00740        2.36119
10265.50000       15.58669       16.90124       -0.02213       92.80624       45.12682        2.35950
10266.00000       15.52544       17.20048       -0.01559       94.23638       45.83970        2.34959
