~Version ---------------------------------------------------
VERS. 2.0 : CWLS LOG ASCII STANDARD - VERSION 2.0
WRAP. NO  : One line per depth step
DLM . SPACE : Column Data Section Delimiter
~Well ------------------------------------------------------
STRT.F       3816.5 : START DEPTH
STOP.F        13000 : STOP DEPTH
STEP.F          0.5 : STEP
NULL.       -999.25 : NULL VALUE
COMP.             UNION PACIFIC RESOURCES : COMPANY
WELL.                 219499-LLECO-003-29 : WELL
FLD .                     FOUR LEAGUE BAY : FIELD
CNTY.                          TERREBONNE : COUNTY
STAT.                           LOUISIANA : STATE
CTRY.                                 USA : COUNTRY
SEC .                                     : SECTION
TWP .                                     : TOWNSHIP
RGE .                                     : RANGE
LOC .                                     : LOCATION
EKB .F                          : ELEVATION KELLY BUSHING
EDF .F                          : ELEVATION DERRICK FLOOR
EGL .F                          : ELEVATION GROUND LEVEL
PDAT.                       BHF : PERMANENT DATUM
EPD .                           : ELEVATION PERMANENT DATUM
APD .                           : ABOVE PERMANENT DATUM
LMF .                       RKB : LOG MEASURED FROM
DMF .                       RKB : DRILLING MEASURED FROM
API .            17109235220000 : API NUMBER
UWI .                           : UWI NUMBER
DIGC.                     NthDS : DIGITIZING COMPANY
~Params ----------------------------------------------------
SRVC.              SCHLUMBERGER : LOGGING COMPANY
LOG .                   AIT/LSS : LOG
DATE.                1996-12-21 : RUN DATE
RUN .                         1 : RUN NUMBER
TDD .F                    13000 : TOTAL DEPTH DRILLER
TDL .F                    12998 : TOTAL DEPTH LOGGER
BOTL.F                    12990 : BOTTOM LOGGED INTERVAL
TOPL.F                     4026 : TOP LOGGED INTERVAL
CSGS.IN                   10.75 : CASING SIZE
CSGD.F                     4025 : CASING DRILLER
CSGL.F                     4026 : CASING LOGGER
BS  .IN                   9.875 : BIT SIZE
MUD .          CARBOMAX/QBROXIN : MUD TYPE
MUDD.                       9.8 : MUD DENSITY
MUDV.                        41 : MUD VISCOSITY
PH  .                       8.2 : MUD PH
FL  .                        11 : FLUID LOSS
MUDS.                  CIRC PIT : SOURCE OF SAMPLE
RM  .OHMM                 0.620 : MUD RESISTIVITY
RMT .DEGF                    75 : RM TEMPERATURE
RMF .OHMM                 0.926 : MUD FILTRATE RESISTIVITY
RMFT.DEGF                    75 : RMF TEMPERATURE
RMC .OHMM                 0.310 : MUD CAKE RESISTIVITY
RMCT.DEGF                    75 : RMC TEMPERATURE
RMFS.                      CALC : RMF SOURCE
RMCS.                      CALC : RMC SOURCE
RMBH.OHMM                 0.251 : MUD RESISTIVITY AT BHT
BHT .DEGF                   195 : BOTTOM HOLE TEMPERATURE
TIMC.                2000 11-21 : TIME CIRCULATION STOPPED
TIML.                1800 11-21 : TIME LOGGER ON BOTTOM
TMAX.DEGF                   195 : MAXIMUM RECORDED TEMPERATURE
UNIT.                      2015 : EQUIPMENT NUMBER
BASE.              HOUMA INLAND : BASE LOCATION
ENG .       T.NESBIT/L.GUERRERO : RECORDED BY
WIT .          HERMAN DEVILLIER : WITNESSED BY
~Curve Information -----------------------------------------
DEPT.F          :DEPTH
AHT10.OHMM      :
AHT30.OHMM      :
AHT90.OHMM      :
CILD.MMHO       :
DCAL.IN         :
DTLF.US/F       :
DTLN.US/F       :
GR.GAPI         :
SP.MV           :
TENS.LBF        :
~ASCII ------------------------------------------------------
# ...
9991.50000        1.30677        0.89802        0.78933     1391.56361       -1.91815       91.37127       92.79842      103.62547      -27.72912     3908.38473
9992.00000        1.32519        0.94568        0.90482     1346.56506       -1.91732       94.00201       95.25151      102.38245      -25.73708     3904.59231
9992.50000        1.29526        0.98736        0.96048     1301.48652       -1.91662       96.06788       97.70460      100.75097      -23.74505     3900.60030
9993.00000        1.27771        0.99134        0.99509     1256.48797       -1.91592       95.86828       98.35131      100.20416      -23.94426     3896.80789
9993.50000        1.31889        0.99525        0.98768     1267.88873       -1.91443       96.00800       98.99602      100.38045      -24.94027     3893.01547
9994.00000        1.35067        0.95653        0.99431     1279.28950       -1.90893       97.72856       99.77047      100.55675      -26.41438     3930.54041
9994.50000        1.25791        0.89289        0.90115     1290.69026       -1.90384       99.10181       99.83434       98.90436      -28.56577     3969.06336
9995.00000        1.07350        0.83349        0.78510     1302.01103       -1.89875       98.96009       99.75051       94.42229      -30.35860     3989.42263
9995.50000        1.00976        0.79984        0.70316     1313.41180       -1.89232       96.84832       98.90221       89.94022      -32.15143     3982.83581
9996.00000        1.05494        0.82129        0.72656     1324.81256       -1.88722       91.57486       95.80840       88.40436      -35.24306     3976.44858
9996.50000        1.21528        0.85836        0.78825     1336.21333       -1.88173       88.65670       91.98205       89.83265      -37.42234     3969.86176
9997.00000        1.39999        0.89702        0.85527     1313.53451       -1.87664       87.15371       87.83834       95.26492      -37.55381     3962.07733
9997.50000        1.57147        0.93741        0.88096     1268.09687       -1.87154       86.67666       85.12976      100.84659      -36.72911     3955.49051
9998.00000        1.72325        0.96932        0.88982     1245.41805       -1.87804       86.55091       85.12976      101.59360      -36.03987     3949.10328
9998.50000        1.80633        0.95886        0.90062     1222.65923       -1.89558       88.87427       86.97806      102.16133      -35.35461     3942.51646
9999.00000        1.87263        0.94935        0.89952     1199.98041       -1.94723       91.81039       90.05989      102.01193      -34.66537     3936.12923
9999.50000        1.82765        0.93865        0.89587     1267.94049       -2.14634       94.74652       93.13973      101.89241      -33.98011     3932.13722
10000.00000        1.76235        0.87579        0.83311     1351.95408       -2.47136       97.78444       96.22157       98.18125      -33.70521     3932.13722
10000.50000        1.73050        0.80350        0.73788     1419.91416       -2.89384      100.09981       99.42516       92.61452      -36.26696     3952.09729
10001.00000        1.89939        0.73725        0.65347     1487.87423       -3.31631       98.38125       99.05191       87.97408      -40.68927     3952.09729
10001.50000        2.12146        0.69847        0.60224     1635.03334       -3.65687       96.66269       97.75450       82.96014      -45.73708     3955.29091
10002.00000        2.16918        0.67601        0.56057     1711.26935       -3.67096       94.94413       95.84233       76.44022      -50.78489     3971.05936
10002.50000        2.09595        0.65421        0.52174     1782.19245       -3.68505       94.01199       94.36928       69.92030      -55.64943     3986.82782
10003.00000        1.92277        0.60766        0.47517     1929.35157       -3.69953       94.59083       94.65271       66.68425      -59.78489     4002.59628
10003.50000        1.63166        0.55858        0.42650     2076.51068       -3.71362       95.38923       95.65870       67.01293      -63.92433     4011.97752
10004.00000        1.38462        0.51427        0.38279     2223.66979       -3.73037       96.30740       96.84432       68.23504      -66.77293     4011.97752
10004.50000        1.22263        0.46700        0.34628     2367.62894       -3.71448       96.90620       98.02995       68.32767      -68.76496     4011.97752
10005.00000        1.10848        0.43593        0.32325     2511.58809       -3.69820       96.67067       98.41718       67.66134      -70.35859     4011.97752
10005.50000        1.00508        0.42608        0.32331     2655.54724       -3.68232       96.08385       98.12177       68.06174      -70.35859     4011.97752
10006.00000        0.93159        0.42942        0.33373     2799.50639       -3.66604       95.49702       97.21558       70.15935      -69.71317     4011.97752
10006.50000        0.94904        0.45739        0.35273     2638.10926       -3.65016       94.69662       96.12576       74.91333      -66.47413     4011.97752
10007.00000        1.04865        0.49390        0.37674     2476.79213       -3.63388       93.63275       95.21957       77.68922      -63.23907     4011.97752
10007.50000        1.15170        0.53333        0.40238     2153.99787       -3.61799       92.56888       94.31139       77.82369      -60.00002     4011.97752
10008.00000        1.26290        0.58128        0.44241     1992.68074       -3.59172       91.55490       93.40321       77.96114      -57.34265     4011.97752
10008.50000        1.41060        0.65724        0.50797     1831.28361       -3.52429       90.74652       92.49702       83.15436      -54.05979     4011.97752
10009.00000        1.46763        0.74312        0.58324     1728.60577       -3.43808       89.94013       91.45510       87.84858      -48.26696     4011.97752
10009.50000        1.50147        0.81243        0.66966     1625.84792       -3.32310       89.13175       90.38125       91.95715      -42.47015     4011.97752
10010.00000        1.51909        0.86662        0.76490     1523.17008       -3.18520       88.32337       89.52097       94.81970      -39.48210     4011.97752
10010.50000        1.47796        0.92442        0.84986     1420.49224       -3.07381       89.32137       89.52097       95.99101      -36.89246     4011.97752
10011.00000        1.43796        0.95923        0.93457     1317.73439       -2.96323       90.56488       90.99003       98.97010      -34.90043     4011.97752
10011.50000        1.33760        0.99535        0.98623     1215.05655       -2.85264       91.87027       92.82636      104.54878      -31.81676     4011.97752
10012.00000        1.24414        0.99551        1.00471     1192.13773       -2.74205       93.27147       94.66269      109.96013      -28.67334     4011.97752
10012.50000        1.15731        0.99567        1.00487     1146.38010       -2.71938       95.05191       96.49902      110.25894      -25.52593     4011.97752
10013.00000        1.07644        0.99583        1.00504     1123.46128       -2.71868       97.19163       98.70261      108.76491      -22.38250     4011.97752
10013.50000        1.00132        0.99599        1.00520     1100.54247       -2.71798       97.87227       98.95211      107.56969      -20.61358     4011.97752
10014.00000        0.93401        0.99615        1.01652     1077.70365       -2.71728       97.82037       99.20161      107.56969      -19.66936     4009.78191
10014.50000        0.90339        0.99311        1.04514     1054.78483       -2.71659       97.76848       99.45111      107.90137      -19.44227     3998.20507
10015.00000        0.89469        0.98366        1.05607     1041.38590       -2.71589       97.71458       99.21957      108.31671      -19.21517     3986.82782
10015.50000        0.88430        0.97588        1.04503     1028.06697       -2.71519       98.04592       98.86628      108.73205      -18.98808     3975.45058
10016.00000        0.87578        0.97183        1.03419     1014.66803       -2.71435       98.23754       98.51498      109.23404      -18.76099     3964.07334
