~Version ---------------------------------------------------
VERS. 2.0 : CWLS LOG ASCII STANDARD - VERSION 2.0
WRAP. NO  : One line per depth step
DLM . SPACE : Column Data Section Delimiter
~Well ------------------------------------------------------
STRT.F       3816.5 : START DEPTH
STOP.F        13000 : STOP DEPTH
STEP.F          0.5 : STEP
NULL.       -999.25 : NULL VALUE
COMP.             UNION PACIFIC RESOURCES : COMPANY
WELL.                 219499-LLECO-003-29 : WELL
FLD .                     FOUR LEAGUE BAY : FIELD
CNTY.                          TERREBONNE : COUNTY
STAT.                           LOUISIANA : STATE
CTRY.                                 USA : COUNTRY
SEC .                                     : SECTION
TWP .                                     : TOWNSHIP
RGE .                                     : RANGE
LOC .                                     : LOCATION
EKB .F                          : ELEVATION KELLY BUSHING
EDF .F                          : ELEVATION DERRICK FLOOR
EGL .F                          : ELEVATION GROUND LEVEL
PDAT.                       BHF : PERMANENT DATUM
EPD .                           : ELEVATION PERMANENT DATUM
APD .                           : ABOVE PERMANENT DATUM
LMF .                       RKB : LOG MEASURED FROM
DMF .                       RKB : DRILLING MEASURED FROM
API .            17109235220000 : API NUMBER
UWI .                           : UWI NUMBER
DIGC.                     NthDS : DIGITIZING COMPANY
~Params ----------------------------------------------------
SRVC.              SCHLUMBERGER : LOGGING COMPANY
LOG .                   AIT/LSS : LOG
DATE.                1996-12-21 : RUN DATE
RUN .                         1 : RUN NUMBER
TDD .F                    13000 : TOTAL DEPTH DRILLER
TDL .F                    12998 : TOTAL DEPTH LOGGER
BOTL.F                    12990 : BOTTOM LOGGED INTERVAL
TOPL.F                     4026 : TOP LOGGED INTERVAL
CSGS.IN                   10.75 : CASING SIZE
CSGD.F                     4025 : CASING DRILLER
CSGL.F                     4026 : CASING LOGGER
BS  .IN                   9.875 : BIT SIZE
MUD .          CARBOMAX/QBROXIN : MUD TYPE
MUDD.                       9.8 : MUD DENSITY
MUDV.                        41 : MUD VISCOSITY
PH  .                       8.2 : MUD PH
FL  .                        11 : FLUID LOSS
MUDS.                  CIRC PIT : SOURCE OF SAMPLE
RM  .OHMM                 0.620 : MUD RESISTIVITY
RMT .DEGF                    75 : RM TEMPERATURE
RMF .OHMM                 0.926 : MUD FILTRATE RESISTIVITY
RMFT.DEGF                    75 : RMF TEMPERATURE
RMC .OHMM                 0.310 : MUD CAKE RESISTIVITY
RMCT.DEGF                    75 : RMC TEMPERATURE
RMFS.                      CALC : RMF SOURCE
RMCS.                      CALC : RMC SOURCE
RMBH.OHMM                 0.251 : MUD RESISTIVITY AT BHT
BHT .DEGF                   195 : BOTTOM HOLE TEMPERATURE
TIMC.                2000 11-21 : TIME CIRCULATION STOPPED
TIML.                1800 11-21 : TIME LOGGER ON BOTTOM
TMAX.DEGF                   195 : MAXIMUM RECORDED TEMPERATURE
UNIT.                      2015 : EQUIPMENT NUMBER
BASE.              HOUMA INLAND : BASE LOCATION
ENG .       T.NESBIT/L.GUERRERO : RECORDED BY
WIT .          HERMAN DEVILLIER : WITNESSED BY
~Curve Information -----------------------------------------
DEPT.F          :DEPTH
AHT10.OHMM      :
AHT30.OHMM      :
AHT90.OHMM      :
CILD.MMHO       :
DCAL.IN         :
DTLF.US/F       :
DTLN.US/F       :
GR.GAPI         :
SP.MV           :
TENS.LBF        :
~ASCII ------------------------------------------------------
# ...
9391.50000        0.40940        0.22025        0.19814     3992.84558       -1.51898      102.49502      103.14772       44.02290      -63.18727     3832.33684
9392.00000        0.36451        0.20363        0.18243     3992.80640       -1.51828      102.82835      103.21358       44.22310      -62.78887     3832.33684
9392.50000        0.32024        0.19209        0.17029     3992.76739       -1.51758      103.32736      103.29342       44.37250      -64.78090     3832.33684
9393.00000        0.29119        0.18397        0.16548     3992.72829       -1.51688      103.39323      103.47107       46.16533      -65.97612     3832.33684
9393.50000        0.27486        0.18719        0.16359     3992.68920       -1.51605      103.45311      103.65071       50.04979      -66.77293     3832.33684
9394.00000        0.28001        0.19772        0.16589     3992.65010       -1.51535      103.85231      103.82835       55.65238      -65.97612     3818.56439
9394.50000        0.32248        0.21412        0.17286     3992.61101       -1.51465      104.09183      104.00600       62.50994      -62.39046     3804.79194
9395.00000        0.39310        0.23159        0.18761     3992.57191       -1.51076      104.09183      104.18364       65.43823      -60.79684     3791.01949
9395.50000        0.43653        0.25396        0.20363     3992.53281       -1.50726      104.03195      104.29143       65.76990      -58.40640     3777.24704
9396.00000        0.45213        0.26901        0.22468     3992.49372       -1.50337      103.73255      104.29143       65.56971      -56.81277     3763.47459
9396.50000        0.42205        0.26381        0.22018     3992.45462       -1.49987      103.20360      103.84233       62.78186      -54.42234     3758.88377
9397.00000        0.39397        0.25871        0.21904     3992.41553       -1.49598      102.47706      103.09382       61.85257      -50.83668     3774.65223
9397.50000        0.38331        0.26939        0.23251     3984.37653       -1.49155      101.69662      102.34532       64.24301      -45.25899     3790.22109
9398.00000        0.41647        0.30902        0.25107     3848.33909       -1.48765      100.69861      101.59682       70.21911      -38.48609     3805.98954
9398.50000        0.51470        0.36427        0.30565     3712.30166       -1.48416      100.41917      101.49702       80.37847      -28.52593     3807.18715
9399.00000        0.65394        0.44376        0.37212     3576.26422       -1.48026      101.21758      102.49502       90.53783      -18.56577     3798.40472
9399.50000        0.75084        0.52305        0.45954     3440.22678       -1.47677      102.29542      103.49303       97.41033      -10.19924     3789.82188
9400.00000        0.80886        0.59897        0.53665     3167.97104       -1.54429      103.79243      104.49103       97.70914       -5.81677     3781.03945
9400.50000        0.82508        0.66336        0.60622     3031.93361       -1.54080      105.08983      105.48903       95.86850       -1.03590     3750.70014
9401.00000        0.82014        0.73461        0.66628     2895.89617       -1.53690      105.82237      106.21758       93.51093        1.35454     3742.11730
9401.50000        0.81193        0.78260        0.68978     1691.83265       -1.53301      105.48903      105.86428       91.15038        2.15135     3733.33487
9402.00000        0.80381        0.78676        0.71411     1597.79470       -1.52857      105.31937      105.51298       88.79281        1.75295     3724.75204
9402.50000        0.78851        0.76563        0.70908     1503.75675       -1.52508      105.39722      105.15969       88.02787        0.95614     3715.96961
9403.00000        0.75318        0.73808        0.69921     1506.91762       -1.52119      105.47306      105.83833       88.59560       -0.23908     3723.75404
9403.50000        0.71943        0.71153        0.68835     1510.07848       -1.51769      106.12776      106.77446       92.09161       -0.23908     3742.11730
9404.00000        0.68719        0.68593        0.67590     1513.23935       -1.51380      106.92616      107.71059       94.38942       -0.63749     3760.68017
9404.50000        0.66246        0.66125        0.66970     1516.40022       -1.50990      107.24552      107.85430       96.21512       -0.63749     3779.04344
9405.00000        0.66257        0.66154        0.67265     1519.56108       -1.50641      106.95211      107.39322       99.95017       -1.03590     3801.19913
9405.50000        0.66880        0.66794        0.67679     1509.52211       -1.50251      106.81438      107.22556      103.68523       -1.03590     3809.58236
9406.00000        0.67509        0.67447        0.68612     1499.48313       -1.49902      107.44911      107.92416      106.37448       -1.43430     3802.79593
9406.50000        0.68144        0.68100        0.69563     1489.44416       -1.49459      108.08384      108.62276      106.07567       -1.43430     3795.80991
9407.00000        0.66949        0.68895        0.70713     1479.40519       -1.49069      108.08384      109.32137      102.66033       -1.83271     3789.02348
9407.50000        0.65536        0.69281        0.70432     1479.36609       -1.48760      108.11378      109.83833       98.06771       -2.62952     3782.03745
9408.00000        0.64387        0.68538        0.70146     1479.28790       -1.48690      108.26748      109.62875       94.42229       -1.43430     3775.25103
9408.50000        0.62916        0.67802        0.69867     1479.24881       -1.48620      108.42117      109.41718       95.22010       -0.63749     3772.45662
9409.00000        0.61258        0.67075        0.69583     1479.20971       -1.48550      108.32336      109.20759       98.30675       -0.23908     3772.45662
9409.50000        0.60029        0.66355        0.69703     1479.17062       -1.48481      108.00400      108.85231      101.22009       -0.23908     3772.45662
9410.00000        0.60348        0.66979        0.70094     1468.25165       -1.48411      107.73853      108.46708      102.34061        0.15932     3772.45662
9410.50000        0.60664        0.67609        0.70487     1457.25269       -1.48341      107.40320      108.08384      102.49001        0.55773     3772.45662
9411.00000        0.60987        0.68245        0.70934     1446.33373       -1.48258      107.04991      107.70061      101.99101        1.35454     3772.45662
9411.50000        0.61890        0.68887        0.72685     1435.41477       -1.48188      106.69861      107.31538      101.36651        2.15135     3772.45662
9412.00000        0.63477        0.69665        0.75833     1424.41581       -1.48118      106.48704      107.28544      100.83762        1.75295     3772.45662
9412.50000        0.63845        0.70191        0.79110     1413.49684       -1.48048      106.65869      107.78444      100.31173        1.35454     3772.45662
9413.00000        0.63562        0.70202        0.79385     1402.49788       -1.47979      107.51298      108.28344      100.09958        0.15932     3772.45662
9413.50000        0.63280        0.70214        0.79654     1391.57892       -1.47909      107.55091      108.78245      101.09460       -0.23908     3769.86181
9414.00000        0.63000        0.70225        0.80063     1380.65996       -1.47839      106.98604      108.14971      101.59360       -0.63749     3754.89175
9414.50000        0.63891        0.70236        0.81003     1369.66099       -1.47769      104.49103      106.59881       96.44818       -1.43430     3742.51651
9415.00000        0.65866        0.70571        0.81953     1358.74203       -1.47700      100.49901      101.69662       90.03882       -3.02793     3733.93367
9415.50000        0.68978        0.72338        0.83989     1346.66399       -1.47616       98.76848       99.98604       83.66532       -4.62155     3741.31890
9416.00000        0.76438        0.76811        0.86834     1340.62497       -1.47546       98.73854      100.11778       83.06771       -5.81677     3748.70413
