~Version ---------------------------------------------------
VERS. 2.0 : CWLS LOG ASCII STANDARD - VERSION 2.0
WRAP. NO  : One line per depth step
DLM . SPACE : Column Data Section Delimiter
~Well ------------------------------------------------------
STRT.F       3816.5 : START DEPTH
STOP.F        13000 : STOP DEPTH
STEP.F          0.5 : STEP
NULL.       -999.25 : NULL VALUE
COMP.             UNION PACIFIC RESOURCES : COMPANY
WELL.                 219499-LLECO-003-29 : WELL
FLD .                     FOUR LEAGUE BAY : FIELD
CNTY.                          TERREBONNE : COUNTY
STAT.                           LOUISIANA : STATE
CTRY.                                 USA : COUNTRY
SEC .                                     : SECTION
TWP .                                     : TOWNSHIP
RGE .                                     : RANGE
LOC .                                     : LOCATION
EKB .F                          : ELEVATION KELLY BUSHING
EDF .F                          : ELEVATION DERRICK FLOOR
EGL .F                          : ELEVATION GROUND LEVEL
PDAT.                       BHF : PERMANENT DATUM
EPD .                           : ELEVATION PERMANENT DATUM
APD .                           : ABOVE PERMANENT DATUM
LMF .                       RKB : LOG MEASURED FROM
DMF .                       RKB : DRILLING MEASURED FROM
API .            17109235220000 : API NUMBER
UWI .                           : UWI NUMBER
DIGC.                     NthDS : DIGITIZING COMPANY
~Params ----------------------------------------------------
SRVC.              SCHLUMBERGER : LOGGING COMPANY
LOG .                   AIT/LSS : LOG
DATE.                1996-12-21 : RUN DATE
RUN .                         1 : RUN NUMBER
TDD .F                    13000 : TOTAL DEPTH DRILLER
TDL .F                    12998 : TOTAL DEPTH LOGGER
BOTL.F                    12990 : BOTTOM LOGGED INTERVAL
TOPL.F                     4026 : TOP LOGGED INTERVAL
CSGS.IN                   10.75 : CASING SIZE
CSGD.F                     4025 : CASING DRILLER
CSGL.F                     4026 : CASING LOGGER
BS  .IN                   9.875 : BIT SIZE
MUD .          CARBOMAX/QBROXIN : MUD TYPE
MUDD.                       9.8 : MUD DENSITY
MUDV.                        41 : MUD VISCOSITY
PH  .                       8.2 : MUD PH
FL  .                        11 : FLUID LOSS
MUDS.                  CIRC PIT : SOURCE OF SAMPLE
RM  .OHMM                 0.620 : MUD RESISTIVITY
RMT .DEGF                    75 : RM TEMPERATURE
RMF .OHMM                 0.926 : MUD FILTRATE RESISTIVITY
RMFT.DEGF                    75 : RMF TEMPERATURE
RMC .OHMM                 0.310 : MUD CAKE RESISTIVITY
RMCT.DEGF                    75 : RMC TEMPERATURE
RMFS.                      CALC : RMF SOURCE
RMCS.                      CALC : RMC SOURCE
RMBH.OHMM                 0.251 : MUD RESISTIVITY AT BHT
BHT .DEGF                   195 : BOTTOM HOLE TEMPERATURE
TIMC.                2000 11-21 : TIME CIRCULATION STOPPED
TIML.                1800 11-21 : TIME LOGGER ON BOTTOM
TMAX.DEGF                   195 : MAXIMUM RECORDED TEMPERATURE
UNIT.                      2015 : EQUIPMENT NUMBER
BASE.              HOUMA INLAND : BASE LOCATION
ENG .       T.NESBIT/L.GUERRERO : RECORDED BY
WIT .          HERMAN DEVILLIER : WITNESSED BY
~Curve Information -----------------------------------------
DEPT.F          :DEPTH
AHT10.OHMM      :
AHT30.OHMM      :
AHT90.OHMM      :
CILD.MMHO       :
DCAL.IN         :
DTLF.US/F       :
DTLN.US/F       :
GR.GAPI         :
SP.MV           :
TENS.LBF        :
~ASCII ------------------------------------------------------
# ...
8191.50000        0.66220        0.72175        0.73293     1382.56462        0.63072      110.39322      111.59682       98.90436      -16.57374     3256.68828
8192.00000        0.68480        0.74433        0.75586     1360.52580        0.61144      110.67865      111.49702       99.50197      -16.57374     3259.48269
8192.50000        0.70046        0.75413        0.76531     1354.48677        0.59216      109.68065      110.13574      101.61750      -16.90442     3262.07750
8193.00000        0.70117        0.73250        0.74234     1348.44775        0.57287      107.73454      108.12376      103.73603      -17.45422     3265.27111
8193.50000        0.68850        0.71609        0.72005     1342.40873        0.57797      105.80041      106.44712      104.58165      -18.00402     3268.06553
8194.00000        0.68356        0.71858        0.72183     1336.36971        0.62022      103.86628      104.77047      104.58165      -18.55382     3270.66033
8194.50000        0.68543        0.72108        0.72969     1330.33069        0.66208      102.89422      103.09382      100.26691      -19.09964     3273.45475
8195.00000        0.69437        0.72853        0.73879     1324.29166        0.70433      102.56089      103.19362       96.00296      -19.64944     3294.81203
8195.50000        0.70342        0.74368        0.75305     1318.25264        0.74619      102.76049      103.29342       91.13544      -19.84067     3316.16931
8196.00000        0.71252        0.75915        0.76758     1312.21362        0.79658      102.29542      102.67865       88.44619      -19.92035     3329.14335
8196.50000        0.71632        0.77502        0.78240     1316.65447        0.80567      101.32536      101.94213       88.44619      -20.00003     3303.99366
8197.00000        0.71643        0.77087        0.79128     1321.01532        0.73364      101.46907      102.34133       93.12846      -20.07972     3282.83598
8197.50000        0.70161        0.75996        0.77800     1325.45617        0.64363      102.46907      103.41718       97.94221      -20.15940     3261.87790
8198.00000        0.68000        0.75105        0.76352     1334.25787        0.55361      103.90420      104.49103      101.89241      -21.06378     3255.09148
8198.50000        0.66440        0.74217        0.74930     1338.61872        0.46320      105.33933      105.56488      105.62746      -21.97215     3257.48669
8199.00000        0.65691        0.73868        0.74619     1343.05957        0.41635      106.68664      106.64073      107.27089      -21.49406     3260.08150
8199.50000        0.64950        0.74309        0.75024     1347.42042        0.43343      106.32736      107.08584      105.43922      -20.67334     3262.47670
8200.00000        0.62596        0.72858        0.73532     1367.95389        0.33981      105.62875      106.58684      102.26591      -19.85661     3265.07151
8200.50000        0.62010        0.73294        0.73937     1367.91479        0.33132      106.39522      107.18564      100.27886      -19.81677     3327.74615
8201.00000        0.61906        0.73725        0.74338     1367.87570        0.32323      106.70261      107.68464      100.12946      -19.24705     3330.34096
8201.50000        0.61802        0.73588        0.74275     1367.83660        0.31287      106.78644      107.93015       99.20316      -18.68131     3332.73617
8202.00000        0.61698        0.73066        0.73498     1367.79750        0.30478      106.22157      107.16169       98.08265      -18.11159     3333.33497
8202.50000        0.61594        0.72549        0.72736     1367.75841        0.31587      105.44512      106.39522       97.41033      -17.54187     3333.33497
8203.00000        0.61691        0.71931        0.72958     1367.71931        0.33175      105.28943      106.51099       98.83563      -16.97215     3333.33497
8203.50000        0.62140        0.71448        0.73326     1367.68022        0.34803      106.46907      107.21558      102.39739      -17.18729     3333.33497
8204.00000        0.62592        0.70968        0.73703     1367.64112        0.36391      107.64871      107.92017      105.96213      -17.39844     3333.33497
8204.50000        0.62763        0.70491        0.74075     1367.60203        0.38020      108.08384      108.38324      106.67328      -17.61358     3333.33497
8205.00000        0.62866        0.70018        0.74456     1367.56293        0.38689      107.28544      107.88424      104.63244      -17.82474     3333.33497
8205.50000        0.62969        0.70339        0.75067     1367.52384        0.38758      105.88823      107.38524       99.52587      -18.03988     3333.33497
8206.00000        0.63072        0.70655        0.76024     1370.12471        0.38828      105.88823      106.88624       94.42229      -18.25103     3333.33497
8206.50000        0.63175        0.70979        0.76683     1372.80558        0.38912      105.88823      106.77247      100.39838      -18.50203     3333.33497
8207.00000        0.63284        0.71298        0.76112     1375.40646        0.44776      105.88823      106.91418      106.55376      -18.71318     3333.33497
8207.50000        0.63451        0.70676        0.75429     1378.00733        0.52118      105.88823      107.08584      103.92428      -18.92035     3333.33497
8208.00000        0.63715        0.69657        0.74380     1380.68820        0.59101      106.45909      107.22756       99.14340      -19.46219     3333.33497
8208.50000        0.63937        0.68821        0.73345     1383.28907        0.65844      107.02795      107.91618       95.13344      -20.08370     3333.33497
8209.00000        0.65249        0.69898        0.73074     1385.88994        0.72547      107.72656      108.96608       94.19818      -20.70521     3333.33497
8209.50000        0.66581        0.70985        0.73931     1388.57082        0.79290      108.94013      110.01598       95.16930      -20.95621     3333.33497
8210.00000        0.67948        0.70996        0.72909     1391.17169        0.83875      110.15171      111.06787      100.03982      -20.15940     3333.33497
8210.50000        0.68865        0.70286        0.71447     1398.09251        0.85304      110.87825      110.87825      105.56770      -18.16737     3333.33497
8211.00000        0.68245        0.69583        0.70524     1405.09333        0.86986      109.98005      109.71458      106.67328      -17.50203     3333.33497
8211.50000        0.66704        0.68887        0.70978     1412.01415        0.85577      108.48304      108.10979      103.28782      -17.17135     3333.33497
8212.00000        0.67356        0.70042        0.72361     1419.01497        0.82330      105.26748      106.50500      102.19121      -16.57374     3333.73417
8212.50000        0.68568        0.71210        0.73493     1425.93579        0.78004      102.63674      104.89821      105.17926      -16.17533     3335.13138
8213.00000        0.69816        0.71289        0.73508     1432.93661        0.69363      102.35331      103.29342      105.62746      -14.98012     3336.72818
8213.50000        0.69270        0.69143        0.71564     1439.85743        0.60761      102.89422      103.66069      102.49001      -14.58171     3338.32499
8214.00000        0.66987        0.67067        0.69199     1446.85824        0.52120      103.64273      104.02796       98.40535      -14.18330     3339.92179
8214.50000        0.64773        0.65855        0.66912     1420.17947        0.43518      104.54093      104.46907       96.41532      -13.38649     3341.71820
8215.00000        0.63720        0.65866        0.67089     1393.42070        0.40111      104.79043      104.65470       97.63444      -13.38649     3343.31501
8215.50000        0.65628        0.69917        0.72538     1366.74193        0.40181      104.80640      104.56289      100.99599      -13.38649     3344.91181
8216.00000        0.69665        0.74218        0.78567     1340.06316        0.40251      104.39123      104.42516      100.22806      -12.98808     3346.50862
