~Version ---------------------------------------------------
VERS. 2.0 : CWLS LOG ASCII STANDARD - VERSION 2.0
WRAP. NO  : One line per depth step
DLM . SPACE : Column Data Section Delimiter
~Well ------------------------------------------------------
STRT.F         8350 : START DEPTH
STOP.F      12743.5 : STOP DEPTH
STEP.F          0.5 : STEP
NULL.       -999.25 : NULL VALUE
COMP.            AMOCO PRODUCTION COMPANY : COMPANY
WELL.             155847-SL862-011-862-30 : WELL
FLD .                  VERMILION BLOCK 15 : FIELD
CNTY.                           VERMILION : COUNTY
STAT.                           LOUISIANA : STATE
CTRY.                                 USA : COUNTRY
SEC .                                     : SECTION
TWP .                                     : TOWNSHIP
RGE .                                     : RANGE
LOC .                                     : LOCATION
EKB .F                    44.35 : ELEVATION KELLY BUSHING
EDF .F                     44.5 : ELEVATION DERRICK FLOOR
EGL .F                          : ELEVATION GROUND LEVEL
PDAT.                       BHF : PERMANENT DATUM
EPD .                           : ELEVATION PERMANENT DATUM
APD .                        33 : ABOVE PERMANENT DATUM
LMF .                       RKB : LOG MEASURED FROM
DMF .                       RKB : DRILLING MEASURED FROM
API .            17705200940000 : API NUMBER
UWI .                           : UWI NUMBER
DIGC.                     NthDS : DIGITIZING COMPANY
~Params ----------------------------------------------------
SRVC.                     WELEX : LOGGING COMPANY
LOG .                       CDL : LOG
DATE.                1977-09-17 : RUN DATE
RUN .                         1 : RUN NUMBER
TDD .F                    11102 : TOTAL DEPTH DRILLER
TDL .F                    11116 : TOTAL DEPTH LOGGER
BOTL.F                    11020 : BOTTOM LOGGED INTERVAL
TOPL.F                     8350 : TOP LOGGED INTERVAL
CSGS.IN                  13.375 : CASING SIZE
CSGD.F                     1800 : CASING DRILLER
CSGL.F                          : CASING LOGGER
BS  .IN                   12.25 : BIT SIZE
MUD .             LIGNO LIGNITE : MUD TYPE
MUDD.                      10.5 : MUD DENSITY
MUDV.                           : MUD VISCOSITY
PH  .                           : MUD PH
FL  .                           : FLUID LOSS
MUDS.                           : SOURCE OF SAMPLE
RM  .OHMM                       : MUD RESISTIVITY
RMT .DEGF                       : RM TEMPERATURE
RMF .OHMM                       : MUD FILTRATE RESISTIVITY
RMFT.DEGF                       : RMF TEMPERATURE
RMC .OHMM                       : MUD CAKE RESISTIVITY
RMCT.DEGF                       : RMC TEMPERATURE
RMFS.                           : RMF SOURCE
RMCS.                           : RMC SOURCE
RMBH.OHMM                       : MUD RESISTIVITY AT BHT
BHT .DEGF                       : BOTTOM HOLE TEMPERATURE
TIMC.                           : TIME CIRCULATION STOPPED
TIML.                           : TIME LOGGER ON BOTTOM
TMAX.DEGF                   194 : MAXIMUM RECORDED TEMPERATURE
UNIT.                           : EQUIPMENT NUMBER
BASE.                           : BASE LOCATION
ENG .          KNOLES, MOBERLEY : RECORDED BY
WIT .               MR. HUBBARD : WITNESSED BY
#
SRVC.                     WELEX : LOGGING COMPANY
LOG .                       CDL : LOG
DATE.                1977-12-08 : RUN DATE
RUN .                         2 : RUN NUMBER
TDD .F                    12749 : TOTAL DEPTH DRILLER
TDL .F                    12746 : TOTAL DEPTH LOGGER
BOTL.F                    12744 : BOTTOM LOGGED INTERVAL
TOPL.F                    12140 : TOP LOGGED INTERVAL
CSGS.IN                  13.375 : CASING SIZE
CSGD.F                     1800 : CASING DRILLER
CSGL.F                          : CASING LOGGER
BS  .IN                     6.5 : BIT SIZE
MUD .             LIGNO LIGNITE : MUD TYPE
MUDD.                      16.4 : MUD DENSITY
MUDV.                           : MUD VISCOSITY
PH  .                           : MUD PH
FL  .                           : FLUID LOSS
MUDS.                           : SOURCE OF SAMPLE
RM  .OHMM                       : MUD RESISTIVITY
RMT .DEGF                       : RM TEMPERATURE
RMF .OHMM                       : MUD FILTRATE RESISTIVITY
RMFT.DEGF                       : RMF TEMPERATURE
RMC .OHMM                       : MUD CAKE RESISTIVITY
RMCT.DEGF                       : RMC TEMPERATURE
RMFS.                           : RMF SOURCE
RMCS.                           : RMC SOURCE
RMBH.OHMM                       : MUD RESISTIVITY AT BHT
BHT .DEGF                       : BOTTOM HOLE TEMPERATURE
TIMC.                           : TIME CIRCULATION STOPPED
TIML.                           : TIME LOGGER ON BOTTOM
TMAX.DEGF                   235 : MAXIMUM RECORDED TEMPERATURE
UNIT.                           : EQUIPMENT NUMBER
BASE.                           : BASE LOCATION
ENG .                  CROTHERS : RECORDED BY
WIT .               MR. HUBBARD : WITNESSED BY
~Curve Information -----------------------------------------
DEPT.F          :DEPTH
CALI.IN         :
DPHI.%          :
DRHO.G/CC       :
GR.GAPI         :
NPHI.%          :
RHOB.G/CC       :
~ASCII ------------------------------------------------------
# ...
9910.00000       13.42246       12.02894       -0.00296       62.81248       32.16478        2.44402
9910.50000       13.41328       12.35005       -0.00529       62.57811       32.42619        2.44375
9911.00000       13.40410       12.41757       -0.00762       62.34374       32.68820        2.43384
9911.50000       13.40449       11.79465       -0.00838       63.51561       32.94961        2.43877
9912.00000       13.40742       12.07616       -0.00280       64.68748       33.00221        2.44593
9912.50000       13.41015       11.78132        0.00278       64.40155       33.00293        2.44159
9913.00000       13.41289       11.70328        0.00945       63.74998       33.02316        2.44618
9913.50000       13.41582       11.96705        0.02054       63.09842       33.17521        2.45301
9914.00000       13.41855       12.89171        0.02090       62.93670       33.73396        2.45438
9914.50000       13.42129       13.39490        0.01412       64.73436       34.13547        2.43397
9915.00000       13.43496       13.32173        0.00733       66.53202       34.30052        2.42431
9915.50000       13.45117       13.49979        0.00055       67.54686       34.79780        2.42182
9916.00000       13.44140       13.71982        0.00154       65.43748       35.54985        2.41933
9916.50000       13.39258       13.67857        0.00448       63.86717       36.40771        2.41684
9917.00000       13.37070       14.27042        0.00742       64.33592       37.14735        2.41152
9917.50000       13.40722       15.15784        0.00798       64.92186       37.93605        2.39487
9918.00000       13.36640       15.59187        0.00796       63.89530       38.13421        2.37821
9918.50000       13.27383       15.63219        0.00859       63.74998       38.34655        2.38710
9919.00000       13.18125       16.81518        0.01186       64.92186       38.56895        2.37541
9919.50000       13.08887       17.39225        0.00360       66.02577       38.99351        2.36372
9920.00000       13.02851       17.81800       -0.00104       67.03123       39.97891        2.35203
9920.50000       13.26562       18.15848        0.00882       68.03670       40.59796        2.34034
9921.00000       13.27129       18.32531        0.00056       67.46952       40.91671        2.32865
9921.50000       13.27715       18.10435       -0.00524       65.85936       40.92098        2.33791
9922.00000       13.28281       18.59276       -0.00114       63.41717       40.54515        2.33140
9922.50000       13.26094       18.83998        0.00295       60.97733       40.16991        2.32489
9923.00000       13.22090       20.45036       -0.00218       60.05858       40.02285        2.31169
9923.50000       13.18066       22.40181       -0.00962       60.15702       40.07264        2.26372
9924.00000       13.16308       24.35327       -0.00626       59.80077       40.32577        2.22374
9924.50000       13.23633       26.55004       -0.00020       57.63749       40.68118        2.18376
9925.00000       13.29492       28.80770        0.00134       55.90780       41.29135        2.14378
9925.50000       13.38281       29.68744       -0.01516       55.37108       42.07119        2.13777
9926.00000       13.48047       26.99260       -0.02029       57.27420       42.97279        2.18272
9926.50000       13.55019       24.06722       -0.00837       59.36483       43.93942        2.22312
9927.00000       13.50840       23.34854        0.00354       61.50233       44.43256        2.24536
9927.50000       13.52930       23.46749        0.00901       63.63983       44.62230        2.24108
9928.00000       13.50000       23.79510        0.01238       65.85936       44.31563        2.23232
9928.50000       13.32949       24.09952        0.00925       68.20311       44.90749        2.22354
9929.00000       13.34238       23.80941        0.01346       67.91014       45.49934        2.24476
9929.50000       13.35547       22.49132        0.01767       69.23436       46.09119        2.26598
9930.00000       13.33398       21.17323        0.01766       70.07811       46.38275        2.28296
9930.50000       13.26074       21.18045        0.01135       66.56248       46.22446        2.29031
9931.00000       13.18750       21.08009        0.00658       63.63280       46.06617        2.27971
9931.50000       13.19980       20.32062        0.00796       61.22342       45.89310        2.29107
9932.00000       13.18105       20.73513        0.00229       60.31170       45.79924        2.28821
9932.50000       13.11582       21.26787       -0.00228       59.39999       46.34203        2.28078
9933.00000       13.10937       21.03214        0.00461       58.49061       46.61999        2.28472
9933.50000       13.15430       21.76173        0.00879       58.03124       47.05756        2.25225
9934.00000       13.28125       23.38983        0.00077       58.42264       47.83384        2.20921
9934.50000       13.37715       27.78148       -0.00591       59.74920       48.22634        2.16028
9935.00000       13.34941       30.95776       -0.01260       61.07811       48.62135        2.10988
9935.50000       13.30820       33.40990       -0.01929       60.93749       49.01576        2.05949
9936.00000       13.26387       35.04628       -0.02974       59.15624       49.41077        2.03041
9936.50000       13.28340       35.71439       -0.04113       57.51561       48.58391        2.02063
9937.00000       13.34551       35.50349       -0.05252       57.77342       47.75705        2.03112
9937.50000       13.38281       33.41028       -0.06390       58.91249       47.40309        2.07907
9938.00000       13.38281       28.56609       -0.04921       61.68280       47.04914        2.15200
9938.50000       13.23769       22.82516       -0.02799       64.45311       46.02543        2.22493
9939.00000       13.26562       21.34332       -0.01981       63.51561       45.36172        2.27857
9939.50000       13.15293       20.56848       -0.01865       62.57811       45.78451        2.29251
9940.00000       13.04023       20.75290       -0.02313       60.42889       45.41814        2.28804
9940.50000       12.99082       20.98357       -0.02264       60.70311       44.96768        2.28668
9941.00000       13.03652       20.35119       -0.01470       61.38983       44.79875        2.29779
9941.50000       13.08203       19.88551       -0.00677       61.40624       45.22154        2.30890
9942.00000       13.13379       19.24781        0.00117       62.34374       45.64906        2.32002
9942.50000       13.17695       19.27218       -0.00320       63.51561       45.91934        2.31219
9943.00000       13.10195       19.72630       -0.01063       62.76327       45.55888        2.30119
9943.50000       13.02676       19.62830       -0.00885       62.00858       45.13221        2.30992
9944.00000       13.02910       18.89011       -0.00476       61.64061       44.60801        2.31865
9944.50000       13.05078       19.21596       -0.00355       62.81248       44.63474        2.32092
9945.00000       13.07246       20.04426       -0.00666       63.98436       45.02975        2.31497
9945.50000       13.07832       21.22725       -0.00651       65.15623       45.00801        2.29351
9946.00000       13.02090       22.33930       -0.00555       67.91014       45.42902        2.26778
9946.50000       12.96347       22.88386       -0.00459       71.71873       46.22940        2.25062
9947.00000       12.90605       22.79577       -0.00893       75.56717       46.50618        2.25060
9947.50000       13.00742       22.50092       -0.01462       79.57029       46.78296        2.26377
9948.00000       13.14844       21.17160       -0.02033       83.57342       46.98053        2.28420
9948.50000       13.06699       20.76681       -0.02604       82.92654       46.86303        2.28913
9949.00000       13.65625       20.21896       -0.03174       81.11482       46.71774        2.29406
9949.50000       13.87324       19.25850       -0.03195       80.15623       46.45955        2.30546
