~Version ---------------------------------------------------
VERS. 2.0 : CWLS LOG ASCII STANDARD - VERSION 2.0
WRAP. NO  : One line per depth step
DLM . SPACE : Column Data Section Delimiter
~Well ------------------------------------------------------
STRT.F         8350 : START DEPTH
STOP.F      12743.5 : STOP DEPTH
STEP.F          0.5 : STEP
NULL.       -999.25 : NULL VALUE
COMP.            AMOCO PRODUCTION COMPANY : COMPANY
WELL.             155847-SL862-011-862-30 : WELL
FLD .                  VERMILION BLOCK 15 : FIELD
CNTY.                           VERMILION : COUNTY
STAT.                           LOUISIANA : STATE
CTRY.                                 USA : COUNTRY
SEC .                                     : SECTION
TWP .                                     : TOWNSHIP
RGE .                                     : RANGE
LOC .                                     : LOCATION
EKB .F                    44.35 : ELEVATION KELLY BUSHING
EDF .F                     44.5 : ELEVATION DERRICK FLOOR
EGL .F                          : ELEVATION GROUND LEVEL
PDAT.                       BHF : PERMANENT DATUM
EPD .                           : ELEVATION PERMANENT DATUM
APD .                        33 : ABOVE PERMANENT DATUM
LMF .                       RKB : LOG MEASURED FROM
DMF .                       RKB : DRILLING MEASURED FROM
API .            17705200940000 : API NUMBER
UWI .                           : UWI NUMBER
DIGC.                     NthDS : DIGITIZING COMPANY
~Params ----------------------------------------------------
SRVC.                     WELEX : LOGGING COMPANY
LOG .                       CDL : LOG
DATE.                1977-09-17 : RUN DATE
RUN .                         1 : RUN NUMBER
TDD .F                    11102 : TOTAL DEPTH DRILLER
TDL .F                    11116 : TOTAL DEPTH LOGGER
BOTL.F                    11020 : BOTTOM LOGGED INTERVAL
TOPL.F                     8350 : TOP LOGGED INTERVAL
CSGS.IN                  13.375 : CASING SIZE
CSGD.F                     1800 : CASING DRILLER
CSGL.F                          : CASING LOGGER
BS  .IN                   12.25 : BIT SIZE
MUD .             LIGNO LIGNITE : MUD TYPE
MUDD.                      10.5 : MUD DENSITY
MUDV.                           : MUD VISCOSITY
PH  .                           : MUD PH
FL  .                           : FLUID LOSS
MUDS.                           : SOURCE OF SAMPLE
RM  .OHMM                       : MUD RESISTIVITY
RMT .DEGF                       : RM TEMPERATURE
RMF .OHMM                       : MUD FILTRATE RESISTIVITY
RMFT.DEGF                       : RMF TEMPERATURE
RMC .OHMM                       : MUD CAKE RESISTIVITY
RMCT.DEGF                       : RMC TEMPERATURE
RMFS.                           : RMF SOURCE
RMCS.                           : RMC SOURCE
RMBH.OHMM                       : MUD RESISTIVITY AT BHT
BHT .DEGF                       : BOTTOM HOLE TEMPERATURE
TIMC.                           : TIME CIRCULATION STOPPED
TIML.                           : TIME LOGGER ON BOTTOM
TMAX.DEGF                   194 : MAXIMUM RECORDED TEMPERATURE
UNIT.                           : EQUIPMENT NUMBER
BASE.                           : BASE LOCATION
ENG .          KNOLES, MOBERLEY : RECORDED BY
WIT .               MR. HUBBARD : WITNESSED BY
#
SRVC.                     WELEX : LOGGING COMPANY
LOG .                       CDL : LOG
DATE.                1977-12-08 : RUN DATE
RUN .                         2 : RUN NUMBER
TDD .F                    12749 : TOTAL DEPTH DRILLER
TDL .F                    12746 : TOTAL DEPTH LOGGER
BOTL.F                    12744 : BOTTOM LOGGED INTERVAL
TOPL.F                    12140 : TOP LOGGED INTERVAL
CSGS.IN                  13.375 : CASING SIZE
CSGD.F                     1800 : CASING DRILLER
CSGL.F                          : CASING LOGGER
BS  .IN                     6.5 : BIT SIZE
MUD .             LIGNO LIGNITE : MUD TYPE
MUDD.                      16.4 : MUD DENSITY
MUDV.                           : MUD VISCOSITY
PH  .                           : MUD PH
FL  .                           : FLUID LOSS
MUDS.                           : SOURCE OF SAMPLE
RM  .OHMM                       : MUD RESISTIVITY
RMT .DEGF                       : RM TEMPERATURE
RMF .OHMM                       : MUD FILTRATE RESISTIVITY
RMFT.DEGF                       : RMF TEMPERATURE
RMC .OHMM                       : MUD CAKE RESISTIVITY
RMCT.DEGF                       : RMC TEMPERATURE
RMFS.                           : RMF SOURCE
RMCS.                           : RMC SOURCE
RMBH.OHMM                       : MUD RESISTIVITY AT BHT
BHT .DEGF                       : BOTTOM HOLE TEMPERATURE
TIMC.                           : TIME CIRCULATION STOPPED
TIML.                           : TIME LOGGER ON BOTTOM
TMAX.DEGF                   235 : MAXIMUM RECORDED TEMPERATURE
UNIT.                           : EQUIPMENT NUMBER
BASE.                           : BASE LOCATION
ENG .                  CROTHERS : RECORDED BY
WIT .               MR. HUBBARD : WITNESSED BY
~Curve Information -----------------------------------------
DEPT.F          :DEPTH
CALI.IN         :
DPHI.%          :
DRHO.G/CC       :
GR.GAPI         :
NPHI.%          :
RHOB.G/CC       :
~ASCII ------------------------------------------------------
# ...
12715.50000        7.11811       30.22730       -0.03866       34.28499       26.64689        2.16109
12716.00000        7.42873       32.88190       -0.06539       21.24804       28.50149        2.10268
12716.50000        7.83973       36.25045       -0.09212       18.99537       33.29377        2.05399
12717.00000        8.08074       39.61959       -0.12270       18.81524       37.55490        2.00531
12717.50000        8.32155       42.75609       -0.14570       17.13708       40.58160        1.96691
12718.00000        8.34138       44.96558       -0.16870       20.27655       41.30564        1.92868
12718.50000        7.36121       48.48012       -0.19942       26.97875       41.98398        1.89954
12719.00000        7.13261       53.95312       -0.24170       30.94763       43.00297        1.87040
12719.50000        7.07401       59.82196       -0.30760       29.10672       47.56677        1.74384
12720.00000        7.12659       59.82196       -0.38952       31.39718       55.60831        1.46387
12720.50000        7.20230       59.82196       -0.40216       41.07192       59.87953        1.41573
12721.00000        7.18742       59.82196       -0.32130       49.70157       59.87478        1.45793
12721.50000        7.17255       51.41840       -0.21882       65.92924       59.87062        1.64210
12722.00000        7.15865       40.91395       -0.13326       82.84319       59.86588        1.75796
12722.50000        7.14554       29.10564       -0.04967       99.31640       59.86172        2.08996
12723.00000        7.13243       25.08903       -0.01501       99.31862       59.85697        2.20215
12723.50000        7.11932       25.51929       -0.00610       99.32085       59.85282        2.22851
12724.00000        7.11582       26.11276       -0.00853       80.89130       59.84807        2.21410
12724.50000        7.15094       25.89021       -0.01096       47.90343       59.82196        2.19993
12725.00000        7.18626       25.55905       -0.00756       35.20961       59.82196        2.21557
12725.50000        7.37496       24.65282       -0.00270       32.18635       59.82196        2.23122
12726.00000        7.65420       24.76736       -0.00056       30.70426       59.82196        2.22610
12726.50000        7.93344       25.75668       -0.00251       23.84376       53.66469        2.21579
12727.00000        7.51974       24.86647       -0.00445       23.84599       50.09792        2.22069
12727.50000        7.16526       24.45104       -0.00251       23.62861       50.41781        2.23572
12728.00000        7.07666       23.07419        0.00682       22.52691       50.73709        2.25075
12728.50000        7.10375       21.60238        0.01548       22.67619       50.61662        2.26815
12729.00000        7.13063       20.02374        0.02471       21.10980       50.38576        2.29498
12729.50000        -999.25       19.58457        0.01965       15.52380       50.15490        2.32181
12730.00000        -999.25       20.89021        0.00508       28.82599       49.88131        2.30633
12730.50000        -999.25       18.66469        0.02306       56.80264       49.43620        2.31547
12731.00000        -999.25       17.98220        0.03501       75.62834       49.08012        2.34105
12731.50000        -999.25       19.86173        0.02918       99.35644        -999.25        2.33355
12732.00000        -999.25       21.21662        0.02335       99.35866        -999.25        2.29809
12732.50000        -999.25       22.27003        0.01479       99.36089        -999.25        2.27811
12733.00000        -999.25       26.01365       -0.00464       99.36311        -999.25        2.24944
12733.50000        -999.25       27.37864       -0.02797       99.36533        -999.25        2.20415
12734.00000        -999.25       21.75431       -0.01145       99.36756        -999.25        2.20931
12734.50000        -999.25       24.88606       -0.00795       99.36978        -999.25        2.29013
12735.00000        -999.25       28.54600       -0.04909       26.54236        -999.25        2.21138
12735.50000        -999.25       32.99704       -0.09024       51.33471        -999.25        2.11687
12736.00000        -999.25       37.44807       -0.12322       59.47416        -999.25        2.03811
12736.50000        -999.25       41.99525       -0.15529       47.53524        -999.25        2.00039
12737.00000        -999.25       46.76558       -0.19417       47.61590        -999.25        1.97664
12737.50000        -999.25       57.64570       -0.24151       42.68873        -999.25        1.91054
12738.00000        -999.25       59.86172       -0.32274       37.90665        -999.25        1.75335
12738.50000        -999.25       51.26706       -0.30521       40.32259        -999.25        1.61628
12739.00000        -999.25       36.90920       -0.18639       42.73854        -999.25        1.70140
12739.50000        -999.25       22.55193       -0.08737       42.82311        -999.25        2.05571
12740.00000        -999.25       19.76262       -0.02522       41.35475        -999.25        2.30618
12740.50000        -999.25       20.34125       -0.01833       42.05698        -999.25        2.30272
12741.00000        -999.25       20.00713       -0.01145       41.22783        -999.25        2.31255
12741.50000        -999.25       22.67063       -0.03143       39.37908        -999.25        2.28082
12742.00000        -999.25       23.34897       -0.04560       39.99111        -999.25        2.23869
12742.50000        -999.25       22.52226       -0.03658       39.25804        -999.25        2.25495
12743.00000        -999.25       22.17033       -0.02755       38.62301        -999.25        2.27122
12743.50000        -999.25       22.64689        -999.25        -999.25        -999.25        2.26969
