~Version ---------------------------------------------------
VERS. 2.0 : CWLS LOG ASCII STANDARD - VERSION 2.0
WRAP. NO  : One line per depth step
DLM . SPACE : Column Data Section Delimiter
~Well ------------------------------------------------------
STRT.F       3816.5 : START DEPTH
STOP.F        13000 : STOP DEPTH
STEP.F          0.5 : STEP
NULL.       -999.25 : NULL VALUE
COMP.             UNION PACIFIC RESOURCES : COMPANY
WELL.                 219499-LLECO-003-29 : WELL
FLD .                     FOUR LEAGUE BAY : FIELD
CNTY.                          TERREBONNE : COUNTY
STAT.                           LOUISIANA : STATE
CTRY.                                 USA : COUNTRY
SEC .                                     : SECTION
TWP .                                     : TOWNSHIP
RGE .                                     : RANGE
LOC .                                     : LOCATION
EKB .F                          : ELEVATION KELLY BUSHING
EDF .F                          : ELEVATION DERRICK FLOOR
EGL .F                          : ELEVATION GROUND LEVEL
PDAT.                       BHF : PERMANENT DATUM
EPD .                           : ELEVATION PERMANENT DATUM
APD .                           : ABOVE PERMANENT DATUM
LMF .                       RKB : LOG MEASURED FROM
DMF .                       RKB : DRILLING MEASURED FROM
API .            17109235220000 : API NUMBER
UWI .                           : UWI NUMBER
DIGC.                     NthDS : DIGITIZING COMPANY
~Params ----------------------------------------------------
SRVC.              SCHLUMBERGER : LOGGING COMPANY
LOG .                   AIT/LSS : LOG
DATE.                1996-12-21 : RUN DATE
RUN .                         1 : RUN NUMBER
TDD .F                    13000 : TOTAL DEPTH DRILLER
TDL .F                    12998 : TOTAL DEPTH LOGGER
BOTL.F                    12990 : BOTTOM LOGGED INTERVAL
TOPL.F                     4026 : TOP LOGGED INTERVAL
CSGS.IN                   10.75 : CASING SIZE
CSGD.F                     4025 : CASING DRILLER
CSGL.F                     4026 : CASING LOGGER
BS  .IN                   9.875 : BIT SIZE
MUD .          CARBOMAX/QBROXIN : MUD TYPE
MUDD.                       9.8 : MUD DENSITY
MUDV.                        41 : MUD VISCOSITY
PH  .                       8.2 : MUD PH
FL  .                        11 : FLUID LOSS
MUDS.                  CIRC PIT : SOURCE OF SAMPLE
RM  .OHMM                 0.620 : MUD RESISTIVITY
RMT .DEGF                    75 : RM TEMPERATURE
RMF .OHMM                 0.926 : MUD FILTRATE RESISTIVITY
RMFT.DEGF                    75 : RMF TEMPERATURE
RMC .OHMM                 0.310 : MUD CAKE RESISTIVITY
RMCT.DEGF                    75 : RMC TEMPERATURE
RMFS.                      CALC : RMF SOURCE
RMCS.                      CALC : RMC SOURCE
RMBH.OHMM                 0.251 : MUD RESISTIVITY AT BHT
BHT .DEGF                   195 : BOTTOM HOLE TEMPERATURE
TIMC.                2000 11-21 : TIME CIRCULATION STOPPED
TIML.                1800 11-21 : TIME LOGGER ON BOTTOM
TMAX.DEGF                   195 : MAXIMUM RECORDED TEMPERATURE
UNIT.                      2015 : EQUIPMENT NUMBER
BASE.              HOUMA INLAND : BASE LOCATION
ENG .       T.NESBIT/L.GUERRERO : RECORDED BY
WIT .          HERMAN DEVILLIER : WITNESSED BY
~Curve Information -----------------------------------------
DEPT.F          :DEPTH
AHT10.OHMM      :
AHT30.OHMM      :
AHT90.OHMM      :
CILD.MMHO       :
DCAL.IN         :
DTLF.US/F       :
DTLN.US/F       :
GR.GAPI         :
SP.MV           :
TENS.LBF        :
~ASCII ------------------------------------------------------
# ...
4016.50000        -999.25        -999.25        -999.25        -999.25        -999.25        -999.25        -999.25       54.68126        -999.25        -999.25
4017.00000        -999.25        -999.25        -999.25        -999.25        -999.25        -999.25        -999.25       52.12051        -999.25        -999.25
4017.50000        -999.25        -999.25        -999.25        -999.25        -999.25        -999.25        -999.25       47.44421        -999.25        -999.25
4018.00000        -999.25        -999.25        -999.25        -999.25        -999.25        -999.25        -999.25       42.13146        -999.25        -999.25
4018.50000        -999.25        -999.25        -999.25        -999.25        -999.25        -999.25        -999.25       41.88346        -999.25        -999.25
4019.00000        -999.25        -999.25        -999.25        -999.25        -999.25        -999.25        -999.25       43.38644        -999.25        -999.25
4019.50000        -999.25        -999.25        -999.25        -999.25        -999.25        -999.25        -999.25       45.32867        -999.25        -999.25
4020.00000        -999.25        -999.25        -999.25        -999.25        -999.25        -999.25        -999.25       45.93525        -999.25        -999.25
4020.50000        -999.25        -999.25        -999.25        -999.25        -999.25        -999.25        -999.25       46.26094        -999.25        -999.25
4021.00000        -999.25        -999.25        -999.25        -999.25        -999.25        -999.25        -999.25       44.26493        -999.25        -999.25
4021.50000        -999.25        -999.25        -999.25        -999.25        -999.25        -999.25        -999.25       42.21812        -999.25        -999.25
4022.00000        -999.25        -999.25        -999.25        -999.25        -999.25        -999.25        -999.25       40.93624        -999.25        -999.25
4022.50000        -999.25        -999.25        -999.25        -999.25        -999.25        -999.25        -999.25       41.93126        -999.25        -999.25
4023.00000        -999.25        -999.25        -999.25        -999.25        -999.25        -999.25        -999.25       42.92927        -999.25        -999.25
4023.50000        -999.25        -999.25        -999.25        -999.25        -999.25        -999.25        -999.25       44.07369        -999.25        -999.25
4024.00000        -999.25        -999.25        -999.25        -999.25        -999.25        -999.25        -999.25       44.40238        -999.25        -999.25
4024.50000        -999.25        -999.25        -999.25        -999.25        -999.25        -999.25        -999.25       44.70118        -999.25        -999.25
4025.00000        -999.25        -999.25        -999.25        -999.25        -999.25        -999.25        -999.25       48.68724        -999.25        -999.25
4025.50000        -999.25        -999.25        -999.25        -999.25        -999.25        -999.25        -999.25       55.12947        -999.25        -999.25
4026.00000        0.77001        0.79910        0.84127        -999.25        -999.25        -999.25        -999.25       61.57170        -999.25        -999.25
4026.50000        0.77112        0.79790        0.83955        -999.25        1.25000      126.14387      124.84581       66.14042      -41.67334     2120.34041
4027.00000        0.77217        0.79671        0.83783        -999.25        1.22286      129.49184      127.95293       68.24998      -44.86059     2117.21507
4027.50000        0.77329        0.79552        0.83604        -999.25        1.19998      133.52244      131.83582       70.00695      -46.05580     2115.48692
4028.00000        0.77334        0.79433        0.83433        -999.25        1.17710      138.01012      135.72071       71.13942      -44.06377     2119.54716
4028.50000        0.77190        0.79314        0.83263     1211.14100        1.15422      138.40601      139.60361       69.77090      -38.08768     2124.33961
4029.00000        0.77014        0.79176        0.83057     1213.71612        1.13174      137.57037      138.71741       68.40237      -29.72115     2128.39985
4029.50000        0.76863        0.79058        0.82887     1215.77208        1.10887      134.34153      135.30494       70.27887      -24.14346     2132.46010
4030.00000        0.76720        0.78940        0.82717     1218.94557        1.19068      128.53919      131.89246       72.96811      -23.34665     2136.32074
4030.50000        0.76577        0.78974        0.82434     1221.52069        1.29927      122.77743      129.92909       76.19520      -24.54187     2140.38098
4031.00000        0.76428        0.79118        0.81994     1224.17502        1.28213      124.49667      127.64036       76.49401      -25.33868     2144.44122
4031.50000        0.76285        0.79255        0.81555     1226.75014        1.02308      133.72883      124.68830       76.79281      -25.73708     2149.23367
4032.00000        0.76136        0.79391        0.81119     1229.32526        0.70810      139.77938      123.74488       81.27488      -25.73708     2151.09832
4032.50000        0.75994        0.79528        0.80686     1231.97959        0.30920      139.29703      125.07090       85.75695      -24.54187     2149.56977
4033.00000        0.75853        0.79673        0.81175     1234.55471        0.13008      137.45740      125.47478       90.23902      -23.34665     2148.04122
4033.50000        0.75705        0.81002        0.83077     1219.62510        0.09761      135.37826      125.26189       91.35954      -22.94824     2146.51268
4034.00000        0.75564        0.82664        0.85024     1204.77469        0.08032      132.71429      125.04700       87.89340      -22.94824     2144.98413
4034.50000        0.75368        0.84352        0.87017     1189.84507        0.12538      124.72699      124.83411       84.21811      -22.94824     2143.18979
4035.00000        0.74864        0.83873        0.88405     1174.99466        0.20813      120.62191      124.88803       81.27488      -22.15143     2141.86084
4035.50000        0.73795        0.82425        0.88689     1145.21464        0.30114      120.58001      124.98452       81.87249      -22.94824     2140.33230
4036.00000        0.72581        0.81010        0.88981     1130.28502        0.39414      123.50483      126.97720       83.36651      -23.74505     2138.80375
4036.50000        0.71387        0.79611        0.90681     1115.43461        0.18505      126.42965      128.96989       87.25097      -24.94027     2137.27520
4037.00000        0.70213        0.78237        0.93389     1111.43556       -0.02404      129.33850      130.96258       88.74500      -24.94027     2135.74665
4037.50000        0.68735        0.76872        0.93903     1107.43650       -0.23313      132.18547      133.40835       89.34261      -24.54187     2133.95231
4038.00000        0.66819        0.75538        0.91076     1118.80359       -0.44223      133.15222      135.85613       90.13145      -24.54187     2132.62337
4038.50000        0.64950        0.72820        0.88342     1130.24989       -0.40996      133.68184      136.48755       94.06970      -24.14346     2131.09482
4039.00000        0.63140        0.70200        0.85690     1141.61699       -0.37769      134.34319      136.70114       98.00794      -24.14346     2129.56627
4039.50000        0.61725        0.67674        0.83110     1153.06329       -0.33890      134.65924      136.55611      100.35655      -24.64147     2128.03772
4040.00000        0.61735        0.67685        0.82113     1164.43038       -0.26227      133.47231      136.33125      101.29480      -24.82473     2126.50917
4040.50000        0.61745        0.68077        0.83038     1175.87668       -0.11892      130.74047      135.13034      100.57766      -24.54187     2124.71484
4041.00000        0.63402        0.70019        0.85851     1187.24378        0.13712      127.74317      132.27475       96.93225      -26.53390     2123.38589
