~Version ---------------------------------------------------
VERS. 2.0 : CWLS LOG ASCII STANDARD - VERSION 2.0
WRAP. NO  : One line per depth step
DLM . SPACE : Column Data Section Delimiter
~Well ------------------------------------------------------
STRT.F       3816.5 : START DEPTH
STOP.F        13000 : STOP DEPTH
STEP.F          0.5 : STEP
NULL.       -999.25 : NULL VALUE
COMP.             UNION PACIFIC RESOURCES : COMPANY
WELL.                 219499-LLECO-003-29 : WELL
FLD .                     FOUR LEAGUE BAY : FIELD
CNTY.                          TERREBONNE : COUNTY
STAT.                           LOUISIANA : STATE
CTRY.                                 USA : COUNTRY
SEC .                                     : SECTION
TWP .                                     : TOWNSHIP
RGE .                                     : RANGE
LOC .                                     : LOCATION
EKB .F                          : ELEVATION KELLY BUSHING
EDF .F                          : ELEVATION DERRICK FLOOR
EGL .F                          : ELEVATION GROUND LEVEL
PDAT.                       BHF : PERMANENT DATUM
EPD .                           : ELEVATION PERMANENT DATUM
APD .                           : ABOVE PERMANENT DATUM
LMF .                       RKB : LOG MEASURED FROM
DMF .                       RKB : DRILLING MEASURED FROM
API .            17109235220000 : API NUMBER
UWI .                           : UWI NUMBER
DIGC.                     NthDS : DIGITIZING COMPANY
~Params ----------------------------------------------------
SRVC.              SCHLUMBERGER : LOGGING COMPANY
LOG .                   AIT/LSS : LOG
DATE.                1996-12-21 : RUN DATE
RUN .                         1 : RUN NUMBER
TDD .F                    13000 : TOTAL DEPTH DRILLER
TDL .F                    12998 : TOTAL DEPTH LOGGER
BOTL.F                    12990 : BOTTOM LOGGED INTERVAL
TOPL.F                     4026 : TOP LOGGED INTERVAL
CSGS.IN                   10.75 : CASING SIZE
CSGD.F                     4025 : CASING DRILLER
CSGL.F                     4026 : CASING LOGGER
BS  .IN                   9.875 : BIT SIZE
MUD .          CARBOMAX/QBROXIN : MUD TYPE
MUDD.                       9.8 : MUD DENSITY
MUDV.                        41 : MUD VISCOSITY
PH  .                       8.2 : MUD PH
FL  .                        11 : FLUID LOSS
MUDS.                  CIRC PIT : SOURCE OF SAMPLE
RM  .OHMM                 0.620 : MUD RESISTIVITY
RMT .DEGF                    75 : RM TEMPERATURE
RMF .OHMM                 0.926 : MUD FILTRATE RESISTIVITY
RMFT.DEGF                    75 : RMF TEMPERATURE
RMC .OHMM                 0.310 : MUD CAKE RESISTIVITY
RMCT.DEGF                    75 : RMC TEMPERATURE
RMFS.                      CALC : RMF SOURCE
RMCS.                      CALC : RMC SOURCE
RMBH.OHMM                 0.251 : MUD RESISTIVITY AT BHT
BHT .DEGF                   195 : BOTTOM HOLE TEMPERATURE
TIMC.                2000 11-21 : TIME CIRCULATION STOPPED
TIML.                1800 11-21 : TIME LOGGER ON BOTTOM
TMAX.DEGF                   195 : MAXIMUM RECORDED TEMPERATURE
UNIT.                      2015 : EQUIPMENT NUMBER
BASE.              HOUMA INLAND : BASE LOCATION
ENG .       T.NESBIT/L.GUERRERO : RECORDED BY
WIT .          HERMAN DEVILLIER : WITNESSED BY
~Curve Information -----------------------------------------
DEPT.F          :DEPTH
AHT10.OHMM      :
AHT30.OHMM      :
AHT90.OHMM      :
CILD.MMHO       :
DCAL.IN         :
DTLF.US/F       :
DTLN.US/F       :
GR.GAPI         :
SP.MV           :
TENS.LBF        :
~ASCII ------------------------------------------------------
# ...
5816.50000        0.80688        0.71414        0.88897     1293.06464        0.13695      122.12176      122.05590       96.18253       13.66315     2714.57265
5817.00000        0.83043        0.71123        0.84260     1339.42498        0.30428      115.36927      117.00001       91.09282       12.07998     2714.57265
5817.50000        0.86083        0.71832        0.80203     1385.78532        0.66476      108.21758      112.25350       86.00310        8.10640     2714.97185
5818.00000        0.95399        0.74086        0.75413     1432.14566        0.96515      104.89023      106.70859       80.91338        1.74242     2717.36706
5818.50000        1.07928        0.72896        0.66068     1478.50600        1.26555      103.29342      104.29143       74.99898       -5.01996     2719.76227
5819.00000        1.16684        0.70345        0.59024     1607.50533        1.56595      104.29143      104.79043       68.53179      -10.18874     2722.15748
5819.50000        1.14427        0.66394        0.52542     1736.42466        1.86634      105.71658      105.78045       62.06759      -13.36552     2724.55268
5820.00000        1.09884        0.62670        0.46768     1865.42400        2.20070      107.42716      107.50899       57.46791      -16.54230     2726.94789
5820.50000        1.04076        0.59150        0.42963     1994.34333        2.66228      109.13973      109.23554       55.77855      -17.72707     2729.34310
5821.00000        0.98565        0.55828        0.41383     2123.34266        3.04739      111.19163      111.30739       54.62105      -19.31024     2732.13751
5821.50000        0.92341        0.52697        0.39861     2252.26199        3.12800      112.71458      113.03594       54.83661      -20.49501     2734.53272
5822.00000        0.87460        0.49925        0.38395     2381.26133        2.97606      114.82236      115.55490       55.25378      -21.67770     2736.92793
5822.50000        0.82040        0.46928        0.36983     2510.18066        2.59554      117.40719      119.26148       55.87415      -23.26087     2739.32314
5823.00000        0.75860        0.44566        0.34562     2686.13942        2.31372      119.99003      120.72855       56.54531      -24.84405     2741.71835
5823.50000        0.70145        0.42327        0.32662     2862.09818        2.45162      122.15570      122.19761       59.48138      -25.23202     2744.11356
5824.00000        0.64860        0.40196        0.31282     3038.05694        2.27489      122.65470      123.66468       63.67241      -24.02638     2746.50877
5824.50000        0.62527        0.40081        0.31713     3128.14550        2.09777      121.29941      123.77246       68.32217      -21.62555     2748.70438
5825.00000        0.62704        0.39962        0.32540     3214.01570        1.92105      119.94612      122.39721       70.82199      -20.41992     2751.09958
5825.50000        0.63127        0.39847        0.32129     3400.61433        1.94812      119.46109      120.28344       65.49622      -20.80789     2754.09360
5826.00000        0.61661        0.36085        0.29711     3587.29296        2.49506      117.46508      118.52097       56.94639      -25.17778     2748.50477
5826.50000        0.54789        0.32668        0.25288     3773.89159        3.09516      120.25949      119.26148       48.83282      -31.14336     2740.91995
5827.00000        0.43230        0.27656        0.22109     3885.85113        3.57551      123.75250      123.75250       47.04783      -35.91374     2733.33512
5827.50000        0.36932        0.25875        0.20796     3997.81067        3.26452      126.04791      126.35929       51.03867      -37.89532     2725.94989
5828.00000        0.37051        0.27048        0.21490     4002.23871        2.74574      125.33534      126.13573       55.66894      -37.08808     2718.36506
5828.50000        0.42705        0.29119        0.22923     4005.73238        2.37881      121.77047      123.97605       56.63292      -36.28085     2710.78023
5829.00000        0.50640        0.29994        0.23830     4005.69329        2.93615      118.20560      120.52097       54.25034      -37.06722     2703.19540
5829.50000        0.52586        0.28914        0.22937     4005.65419        3.49349      116.86628      117.91817       49.17855      -39.04880     2694.21337
5830.00000        0.44566        0.25897        0.20449     4005.61509        4.05056      122.75450      122.17566       45.60077      -40.23357     2686.62854
5830.50000        0.37770        0.23624        0.18908     4005.57600        4.20670      128.64272      126.43314       47.17886      -41.41834     2679.24331
5831.00000        0.35747        0.23197        0.18889     4005.53690        4.30051      130.03993      129.21358       51.10694      -40.21062     2679.04371
5831.50000        0.36193        0.23478        0.19480     4005.49781        4.30121      127.31537      126.07585       53.09582      -37.80979     2689.82215
5832.00000        0.36950        0.23679        0.18952     4005.45871        4.28192      123.44112      122.94013       52.70623      -35.80735     2700.60059
5832.50000        0.35578        0.22733        0.17794     4005.41962        4.28262      119.56687      119.80240       51.05272      -35.00012     2711.57864
5833.00000        0.32328        0.21466        0.16705     4005.38052        4.40334      116.70660      116.66667       49.86534      -35.38809     2722.35708
5833.50000        0.29041        0.20038        0.15685     4005.34143        4.45239      120.05989      120.48703       48.79450      -35.77606     2735.33112
5834.00000        0.27692        0.19911        0.15608     4005.30233        4.42471      125.24951      127.04591       47.72365      -36.16403     2746.30917
5834.50000        0.27229        0.19735        0.15732     4005.26324        4.32551      126.84631      128.84232       46.98902      -35.75520     2757.08761
5835.00000        0.27411        0.19529        0.15729     4005.22414        4.42611      125.15969      127.06787       47.57353      -34.54748     2767.86605
5835.50000        0.26513        0.19327        0.15640     4005.18505        4.22700      122.34532      125.19162       49.57435      -32.94345     2778.84409
5836.00000        0.25646        0.19845        0.16130     4005.14595        3.68065      120.55889      122.91218       53.12894      -30.54262     2790.02173
5836.50000        0.26495        0.21079        0.17796     4005.10686        3.24419      120.90819      122.74452       58.13570      -24.15777     2800.99977
5837.00000        0.30773        0.25505        0.23173     3789.03130        2.47101      121.65669      123.10779       66.75054      -14.58572     2812.17741
5837.50000        0.38799        0.31049        0.29598     3588.99464        1.84553      121.70260      121.64073       74.20746       -3.01958     2799.00376
5838.00000        0.51666        0.41463        0.39236     3388.95798        1.84743      118.38723      118.41717       81.85263        5.75567     2775.65048
5838.50000        0.62776        0.58898        0.49224     3188.92133        1.93924      115.62276      116.26747       87.17313       15.72612     2756.48880
5839.00000        0.77159        0.70163        0.59673     2268.85435        1.93913      114.47107      117.74053       88.62416       20.51736     2737.12753
5839.50000        0.91635        0.69640        0.62263     1764.82139        1.80277      118.38923      121.41917       87.96124       24.51179     2717.76626
5840.00000        1.01411        0.64906        0.62849     1732.78269        1.66600      122.19362      125.09981       89.14933       26.51631     2698.40499
5840.50000        0.92172        0.59823        0.60895     1700.74398        1.61170      125.99801      128.54292       92.08540       26.92515     2702.39700
5841.00000        0.79934        0.56136        0.56250     1722.70462        1.74906      130.23953      131.03793       95.26051       27.73238     2712.17744
