~Version ---------------------------------------------------
VERS. 2.0 : CWLS LOG ASCII STANDARD - VERSION 2.0
WRAP. NO  : One line per depth step
DLM . SPACE : Column Data Section Delimiter
~Well ------------------------------------------------------
STRT.F         8350 : START DEPTH
STOP.F      12743.5 : STOP DEPTH
STEP.F          0.5 : STEP
NULL.       -999.25 : NULL VALUE
COMP.            AMOCO PRODUCTION COMPANY : COMPANY
WELL.             155847-SL862-011-862-30 : WELL
FLD .                  VERMILION BLOCK 15 : FIELD
CNTY.                           VERMILION : COUNTY
STAT.                           LOUISIANA : STATE
CTRY.                                 USA : COUNTRY
SEC .                                     : SECTION
TWP .                                     : TOWNSHIP
RGE .                                     : RANGE
LOC .                                     : LOCATION
EKB .F                    44.35 : ELEVATION KELLY BUSHING
EDF .F                     44.5 : ELEVATION DERRICK FLOOR
EGL .F                          : ELEVATION GROUND LEVEL
PDAT.                       BHF : PERMANENT DATUM
EPD .                           : ELEVATION PERMANENT DATUM
APD .                        33 : ABOVE PERMANENT DATUM
LMF .                       RKB : LOG MEASURED FROM
DMF .                       RKB : DRILLING MEASURED FROM
API .            17705200940000 : API NUMBER
UWI .                           : UWI NUMBER
DIGC.                     NthDS : DIGITIZING COMPANY
~Params ----------------------------------------------------
SRVC.                     WELEX : LOGGING COMPANY
LOG .                       CDL : LOG
DATE.                1977-09-17 : RUN DATE
RUN .                         1 : RUN NUMBER
TDD .F                    11102 : TOTAL DEPTH DRILLER
TDL .F                    11116 : TOTAL DEPTH LOGGER
BOTL.F                    11020 : BOTTOM LOGGED INTERVAL
TOPL.F                     8350 : TOP LOGGED INTERVAL
CSGS.IN                  13.375 : CASING SIZE
CSGD.F                     1800 : CASING DRILLER
CSGL.F                          : CASING LOGGER
BS  .IN                   12.25 : BIT SIZE
MUD .             LIGNO LIGNITE : MUD TYPE
MUDD.                      10.5 : MUD DENSITY
MUDV.                           : MUD VISCOSITY
PH  .                           : MUD PH
FL  .                           : FLUID LOSS
MUDS.                           : SOURCE OF SAMPLE
RM  .OHMM                       : MUD RESISTIVITY
RMT .DEGF                       : RM TEMPERATURE
RMF .OHMM                       : MUD FILTRATE RESISTIVITY
RMFT.DEGF                       : RMF TEMPERATURE
RMC .OHMM                       : MUD CAKE RESISTIVITY
RMCT.DEGF                       : RMC TEMPERATURE
RMFS.                           : RMF SOURCE
RMCS.                           : RMC SOURCE
RMBH.OHMM                       : MUD RESISTIVITY AT BHT
BHT .DEGF                       : BOTTOM HOLE TEMPERATURE
TIMC.                           : TIME CIRCULATION STOPPED
TIML.                           : TIME LOGGER ON BOTTOM
TMAX.DEGF                   194 : MAXIMUM RECORDED TEMPERATURE
UNIT.                           : EQUIPMENT NUMBER
BASE.                           : BASE LOCATION
ENG .          KNOLES, MOBERLEY : RECORDED BY
WIT .               MR. HUBBARD : WITNESSED BY
#
SRVC.                     WELEX : LOGGING COMPANY
LOG .                       CDL : LOG
DATE.                1977-12-08 : RUN DATE
RUN .                         2 : RUN NUMBER
TDD .F                    12749 : TOTAL DEPTH DRILLER
TDL .F                    12746 : TOTAL DEPTH LOGGER
BOTL.F                    12744 : BOTTOM LOGGED INTERVAL
TOPL.F                    12140 : TOP LOGGED INTERVAL
CSGS.IN                  13.375 : CASING SIZE
CSGD.F                     1800 : CASING DRILLER
CSGL.F                          : CASING LOGGER
BS  .IN                     6.5 : BIT SIZE
MUD .             LIGNO LIGNITE : MUD TYPE
MUDD.                      16.4 : MUD DENSITY
MUDV.                           : MUD VISCOSITY
PH  .                           : MUD PH
FL  .                           : FLUID LOSS
MUDS.                           : SOURCE OF SAMPLE
RM  .OHMM                       : MUD RESISTIVITY
RMT .DEGF                       : RM TEMPERATURE
RMF .OHMM                       : MUD FILTRATE RESISTIVITY
RMFT.DEGF                       : RMF TEMPERATURE
RMC .OHMM                       : MUD CAKE RESISTIVITY
RMCT.DEGF                       : RMC TEMPERATURE
RMFS.                           : RMF SOURCE
RMCS.                           : RMC SOURCE
RMBH.OHMM                       : MUD RESISTIVITY AT BHT
BHT .DEGF                       : BOTTOM HOLE TEMPERATURE
TIMC.                           : TIME CIRCULATION STOPPED
TIML.                           : TIME LOGGER ON BOTTOM
TMAX.DEGF                   235 : MAXIMUM RECORDED TEMPERATURE
UNIT.                           : EQUIPMENT NUMBER
BASE.                           : BASE LOCATION
ENG .                  CROTHERS : RECORDED BY
WIT .               MR. HUBBARD : WITNESSED BY
~Curve Information -----------------------------------------
DEPT.F          :DEPTH
CALI.IN         :
DPHI.%          :
DRHO.G/CC       :
GR.GAPI         :
NPHI.%          :
RHOB.G/CC       :
~ASCII ------------------------------------------------------
# ...
10938.00000       13.34777       23.76990       -0.05642       46.64396       39.12557        2.22420
10938.50000       13.34796       23.17619       -0.05029       50.13562       39.07553        2.23902
10939.00000       13.36070       22.61627       -0.04416       51.70729       38.59032        2.25299
10939.50000       13.39206       22.10718       -0.03802       54.50483       39.06380        2.26357
10940.00000       13.42343       22.34350       -0.03189       55.00591       39.38550        2.26145
10940.50000       13.45479       22.68121       -0.03769       55.45994       38.92400        2.25616
10941.00000       13.47502       22.56181       -0.04350       58.17748       38.77495        2.25087
10941.50000       13.41913       21.87857       -0.04931       60.89503       39.09487        2.26166
10942.00000       13.36324       20.21767       -0.04747       59.52553       39.41539        2.28059
10942.50000       13.30754       18.94037       -0.04055       58.15367       39.59954        2.30226
10943.00000       13.25165       18.75159       -0.03361       60.12769       39.90523        2.32393
10943.50000       13.19576       18.39504       -0.02822       66.08098       40.39116        2.33009
10944.00000       13.15399       17.89009       -0.02899       70.16087       40.87709        2.33695
10944.50000       13.12143       17.05923       -0.02977       64.67373       40.51799        2.34484
10945.00000       13.08907       17.11769       -0.02841       61.80070       40.41816        2.35274
10945.50000       13.05652       17.79453       -0.02561       58.20768       40.71377        2.34956
10946.00000       13.10318       18.77611       -0.02281       46.11349       40.60207        2.33259
10946.50000       13.14983       21.40590       -0.02728       47.93457       40.66290        2.31985
10947.00000       13.19649       23.66573       -0.03356       49.19565       40.98283        2.27722
10947.50000       13.20433       25.36944       -0.03984       48.21673       41.30334        2.22607
10948.00000       13.05746       26.14411       -0.04612       44.49429       41.17564        2.19974
10948.50000       13.00765       26.36087       -0.05016       42.07067       41.30169        2.18427
10949.00000       13.02254       26.06360       -0.05083       39.97176       41.24157        2.19414
10949.50000       13.03743       24.58056       -0.05151       37.87285       41.24904        2.21338
10950.00000       13.04935       23.39922       -0.05128       37.62289       41.73904        2.23239
10950.50000       13.09255       22.37686       -0.04760       37.75431       41.88643        2.25163
10951.00000       13.02260       22.65350       -0.04392       37.44301       42.03382        2.26109
10951.50000       12.95265       24.87480       -0.04024       37.25667       42.88023        2.23140
10952.00000       12.91885       24.38365       -0.04067       37.25894       43.66260        2.21218
10952.50000       13.02945       23.44429       -0.04327       37.57475       44.18054        2.23486
10953.00000       13.07385       22.01462       -0.02990       37.89293       44.60955        2.25753
10953.50000       13.07403       21.10075       -0.01738       38.20875       45.15003        2.28020
10954.00000       13.11921       22.28585       -0.00507       40.43655       46.29761        2.27229
10954.50000       13.23158       23.93324        0.00724       42.55118       47.09718        2.24960
10955.00000       13.24159       26.13794        0.00903       44.20374       47.73683        2.21620
10955.50000       13.25161       26.31497        0.00381       45.55924       48.84469        2.18280
10956.00000       13.38932       26.25486       -0.00141       45.73125       49.98754        2.19514
10956.50000       13.31583       28.52418       -0.00664       45.90090       50.96022        2.18507
10957.00000       13.30070       30.75928       -0.01208       46.38174       51.62876        2.14137
10957.50000       13.37279       32.11378       -0.01752       47.32703       51.62793        2.09766
10958.00000       13.44508       32.74378       -0.01926       48.27232       51.18837        2.08336
10958.50000       13.46885       32.56094       -0.02100       49.23882       50.81996        2.07403
10959.00000       13.41992       31.75379       -0.02275       50.23833       51.03290        2.08461
10959.50000       13.42498       29.92510       -0.02449       51.23784       51.06138        2.12459
10960.00000       13.44973       26.41619       -0.01958       49.86801       49.97202        2.17780
10960.50000       13.45974       23.15272       -0.01409       49.66281       48.48721        2.23988
10961.00000       13.41081       21.59261       -0.00630       50.63167       46.87255        2.26848
10961.50000       13.34224       21.25384        0.00150       50.87866       45.69248        2.27475
10962.00000       13.19508       20.01152       -0.00573       49.21649       44.44660        2.28329
10962.50000       13.13299       18.78224       -0.01670       47.55432       42.79400        2.30710
10963.00000       13.12787       19.23556       -0.00412       45.89214       41.95483        2.33091
10963.50000       13.12256       20.46809        0.00420       47.62486       41.81586        2.30517
10964.00000       13.11725       20.66884       -0.00455       50.20629       42.30891        2.28438
10964.50000       13.01921       19.77869       -0.01328       52.78536       42.26852        2.30415
10965.00000       12.97480       19.95573       -0.01199       51.55698       42.13667        2.30265
10965.50000       12.96595       19.21380       -0.00399       44.62802       41.95086        2.30320
10966.00000       12.99679       17.04895       -0.00266       35.59376       42.27137        2.33812
10966.50000       13.08715       15.67678       -0.00133       36.30329       42.59130        2.37305
10967.00000       13.17732       14.65619        0.00609       39.44818       43.03928        2.40060
10967.50000       13.04863       15.17295        0.01504       46.75888       43.54122        2.39163
10968.00000       12.91994       17.87567        0.00914       54.06957       44.02181        2.35474
10968.50000       12.79105       18.72876       -0.00665       62.12761       44.79173        2.31786
10969.00000       12.88338       18.66864       -0.02245       70.15265       44.12391        2.31982
10969.50000       13.03092       18.64410       -0.02785       76.90225       43.75253        2.32178
10970.00000       13.03444       17.42786       -0.02633       83.33357       43.01060        2.35322
10970.50000       13.00182       17.13754       -0.02481       81.80578       43.00977        2.35867
10971.00000       12.96920       16.33649       -0.02302       69.40728       43.55262        2.37020
10971.50000       12.94322       15.71610       -0.02085       51.25634       43.98654        2.38045
10972.00000       12.97917       15.45322       -0.01868       41.43466       44.21041        2.38881
10972.50000       13.01511       14.62710       -0.01650       33.91395       43.95524        2.39716
10973.00000       13.03554       15.14030       -0.02515       35.58536       43.55896        2.38653
10973.50000       13.05203       15.96967       -0.03651       37.25678       42.79746        2.37115
10974.00000       13.06853       16.96192       -0.03316       39.74862       41.97253        2.35578
10974.50000       13.07461       17.15378       -0.03233       40.71984       41.32842        2.34040
10975.00000       13.03865       17.52825       -0.04080       39.10011       40.86811        2.35522
10975.50000       13.00269       16.77090       -0.02910       40.97899       40.27440        2.37004
10976.00000       12.96673       16.14340       -0.01914       44.02722       39.78859        2.34494
10976.50000       12.96358       18.15837       -0.02543       55.83613       39.32946        2.31985
10977.00000       13.00994       19.38320       -0.03173       68.77432       38.78971        2.29917
