~Version ---------------------------------------------------
VERS. 2.0 : CWLS LOG ASCII STANDARD - VERSION 2.0
WRAP. NO  : One line per depth step
DLM . SPACE : Column Data Section Delimiter
~Well ------------------------------------------------------
STRT.F         8350 : START DEPTH
STOP.F      12743.5 : STOP DEPTH
STEP.F          0.5 : STEP
NULL.       -999.25 : NULL VALUE
COMP.            AMOCO PRODUCTION COMPANY : COMPANY
WELL.             155847-SL862-011-862-30 : WELL
FLD .                  VERMILION BLOCK 15 : FIELD
CNTY.                           VERMILION : COUNTY
STAT.                           LOUISIANA : STATE
CTRY.                                 USA : COUNTRY
SEC .                                     : SECTION
TWP .                                     : TOWNSHIP
RGE .                                     : RANGE
LOC .                                     : LOCATION
EKB .F                    44.35 : ELEVATION KELLY BUSHING
EDF .F                     44.5 : ELEVATION DERRICK FLOOR
EGL .F                          : ELEVATION GROUND LEVEL
PDAT.                       BHF : PERMANENT DATUM
EPD .                           : ELEVATION PERMANENT DATUM
APD .                        33 : ABOVE PERMANENT DATUM
LMF .                       RKB : LOG MEASURED FROM
DMF .                       RKB : DRILLING MEASURED FROM
API .            17705200940000 : API NUMBER
UWI .                           : UWI NUMBER
DIGC.                     NthDS : DIGITIZING COMPANY
~Params ----------------------------------------------------
SRVC.                     WELEX : LOGGING COMPANY
LOG .                       CDL : LOG
DATE.                1977-09-17 : RUN DATE
RUN .                         1 : RUN NUMBER
TDD .F                    11102 : TOTAL DEPTH DRILLER
TDL .F                    11116 : TOTAL DEPTH LOGGER
BOTL.F                    11020 : BOTTOM LOGGED INTERVAL
TOPL.F                     8350 : TOP LOGGED INTERVAL
CSGS.IN                  13.375 : CASING SIZE
CSGD.F                     1800 : CASING DRILLER
CSGL.F                          : CASING LOGGER
BS  .IN                   12.25 : BIT SIZE
MUD .             LIGNO LIGNITE : MUD TYPE
MUDD.                      10.5 : MUD DENSITY
MUDV.                           : MUD VISCOSITY
PH  .                           : MUD PH
FL  .                           : FLUID LOSS
MUDS.                           : SOURCE OF SAMPLE
RM  .OHMM                       : MUD RESISTIVITY
RMT .DEGF                       : RM TEMPERATURE
RMF .OHMM                       : MUD FILTRATE RESISTIVITY
RMFT.DEGF                       : RMF TEMPERATURE
RMC .OHMM                       : MUD CAKE RESISTIVITY
RMCT.DEGF                       : RMC TEMPERATURE
RMFS.                           : RMF SOURCE
RMCS.                           : RMC SOURCE
RMBH.OHMM                       : MUD RESISTIVITY AT BHT
BHT .DEGF                       : BOTTOM HOLE TEMPERATURE
TIMC.                           : TIME CIRCULATION STOPPED
TIML.                           : TIME LOGGER ON BOTTOM
TMAX.DEGF                   194 : MAXIMUM RECORDED TEMPERATURE
UNIT.                           : EQUIPMENT NUMBER
BASE.                           : BASE LOCATION
ENG .          KNOLES, MOBERLEY : RECORDED BY
WIT .               MR. HUBBARD : WITNESSED BY
#
SRVC.                     WELEX : LOGGING COMPANY
LOG .                       CDL : LOG
DATE.                1977-12-08 : RUN DATE
RUN .                         2 : RUN NUMBER
TDD .F                    12749 : TOTAL DEPTH DRILLER
TDL .F                    12746 : TOTAL DEPTH LOGGER
BOTL.F                    12744 : BOTTOM LOGGED INTERVAL
TOPL.F                    12140 : TOP LOGGED INTERVAL
CSGS.IN                  13.375 : CASING SIZE
CSGD.F                     1800 : CASING DRILLER
CSGL.F                          : CASING LOGGER
BS  .IN                     6.5 : BIT SIZE
MUD .             LIGNO LIGNITE : MUD TYPE
MUDD.                      16.4 : MUD DENSITY
MUDV.                           : MUD VISCOSITY
PH  .                           : MUD PH
FL  .                           : FLUID LOSS
MUDS.                           : SOURCE OF SAMPLE
RM  .OHMM                       : MUD RESISTIVITY
RMT .DEGF                       : RM TEMPERATURE
RMF .OHMM                       : MUD FILTRATE RESISTIVITY
RMFT.DEGF                       : RMF TEMPERATURE
RMC .OHMM                       : MUD CAKE RESISTIVITY
RMCT.DEGF                       : RMC TEMPERATURE
RMFS.                           : RMF SOURCE
RMCS.                           : RMC SOURCE
RMBH.OHMM                       : MUD RESISTIVITY AT BHT
BHT .DEGF                       : BOTTOM HOLE TEMPERATURE
TIMC.                           : TIME CIRCULATION STOPPED
TIML.                           : TIME LOGGER ON BOTTOM
TMAX.DEGF                   235 : MAXIMUM RECORDED TEMPERATURE
UNIT.                           : EQUIPMENT NUMBER
BASE.                           : BASE LOCATION
ENG .                  CROTHERS : RECORDED BY
WIT .               MR. HUBBARD : WITNESSED BY
~Curve Information -----------------------------------------
DEPT.F          :DEPTH
CALI.IN         :
DPHI.%          :
DRHO.G/CC       :
GR.GAPI         :
NPHI.%          :
RHOB.G/CC       :
~ASCII ------------------------------------------------------
# ...
8510.00000       13.05300       22.99288       -0.00336       45.04819       38.20772        2.24953
8510.50000       13.09680       21.34125        0.00800       47.82279       37.81899        2.25968
8511.00000       13.18636       18.80119        0.01754       50.34278       38.64333        2.30290
8511.50000       13.29892       16.99704        0.02434       52.86277       39.58457        2.34613
8512.00000       13.43603       16.29081        0.01700       54.39967       40.47478        2.37082
8512.50000       13.39633       16.26113        0.00613       55.45464       43.18517        2.37032
8513.00000       13.39768       15.05045        0.00956       56.39507       43.56083        2.39007
8513.50000       13.30808       14.08487        0.01655       57.43217       42.35015        2.40982
8514.00000       13.21828       14.12463        0.02020       58.46691       41.54896        2.41316
8514.50000       13.29429       14.45104        0.01883       59.50165       40.72701        2.40556
8515.00000       13.36244       14.80119        0.01746       59.49671       39.87359        2.39796
8515.50000       13.39877       15.45401        0.01609       59.00848       39.98042        2.39036
8516.00000       13.39836       15.58161        0.01231       58.19726       41.18695        2.38276
8516.50000       13.37339       16.03977        0.00794       57.38604       41.91395        2.37516
8517.00000       13.33801       16.54006        0.00358       56.57247       40.89021        2.36755
8517.50000       13.26117       16.74778       -0.00080       57.25593       41.18695        2.35843
8518.00000       13.30673       16.80831       -0.00517       58.31189       40.59347        2.36161
8518.50000       13.31850       16.28072       -0.00333       58.14192       39.70327        2.37198
8519.00000       13.33204       15.95134        0.00265       57.66548       38.32107        2.37464
8519.50000       13.37740       15.91811        0.00864       57.18903       37.68546        2.37216
8520.00000       13.52768       15.50446        0.01461       57.91493       35.96439        2.37791
8520.50000       13.48789       15.18101        0.01910       58.81293       35.45579        2.38367
8521.00000       13.42854       14.94363        0.02322       59.20170       35.90505        2.38942
8521.50000       13.43599       14.99763        0.02451       59.59048       36.99288        2.39517
8522.00000       13.44167       15.12523        0.02143       59.84251       39.07003        2.39828
8522.50000       13.42161       15.25223        0.01820       60.06154       40.40060        2.39076
8523.00000       13.49153       15.80357        0.01497       60.28293       39.76261        2.38324
8523.50000       13.43965       16.27300        0.01174       60.50196       39.54006        2.37572
8524.00000       13.45456       16.43917        0.00852       60.35085       38.63502        2.36820
8524.50000       13.53470       16.04333        0.00840       59.95220       38.84273        2.36533
8525.00000       13.62741       15.00001        0.02075       59.55591       39.05045        2.38106
8525.50000       13.73918       14.41306        0.02209       59.48968       38.36796        2.39681
8526.00000       13.76686       14.34244        0.01610       59.67943       37.68546        2.41255
8526.50000       13.81458       14.73769        0.01009       59.83716       36.18220        2.40475
8527.00000       13.80788       14.98517        0.01116       59.99490       36.97330        2.39697
8527.50000       13.80138       15.72701        0.01122       60.15263       38.50623        2.38917
8528.00000       13.80097       16.02374        0.00713       60.31036       37.67359        2.38138
8528.50000       13.82512       16.32048        0.00305       59.28696       37.05638        2.37359
8529.00000       13.84926       16.61722       -0.00103       58.26357       36.64095        2.36580
8529.50000       13.89895       16.91395       -0.00511       57.24253       35.70327        2.35800
8530.00000       13.86651       16.43917        0.00174       56.21913       37.27003        2.35022
8530.50000       13.80874       15.77152        0.01133       55.95487       38.33828        2.37162
8531.00000       13.75155       15.58873        0.02093       56.19747       39.61009        2.38627
8531.50000       13.69495       16.24808        0.02409       56.44243       39.97033        2.37273
8532.00000       13.56684       17.36914        0.01764       56.68504       39.88665        2.35742
8532.50000       13.44709       18.21959        0.01118       57.49581       40.04867        2.34213
8533.00000       13.48872       19.34719        0.01536       58.44803       40.17804        2.32682
8533.50000       13.53605       20.71217        0.02219       59.40026       39.98991        2.30994
8534.00000       13.48024       22.25520        0.02767       58.98747       39.52048        2.28670
8534.50000       13.35487       22.61128        0.02633       57.66230       39.05045        2.26701
8535.00000       13.21164       22.34897        0.01966       56.33714       38.62671        2.26144
8535.50000       13.04148       22.81900        0.01299       55.01198       38.81306        2.25782
8536.00000       12.90531       23.28903        0.00632       53.68682       39.92285        2.25551
8536.50000       12.88172       23.34897        0.00148       53.44377       41.37686        2.25319
8537.00000       12.85243       23.44214        0.00395       53.91977       42.84867        2.25088
8537.50000       12.82314       23.73888        0.00642       54.49380       44.33235        2.24810
8538.00000       12.82390       23.26410        0.00684       54.96980       47.05045        2.24579
8538.50000       12.86966       24.03561        0.00418       55.48117       47.51335        2.23840
8539.00000       12.91562       24.80713        0.00152       56.04440       48.66469        2.22974
8539.50000       12.96137       24.36202        0.00521       56.60763       48.34422        2.22108
8540.00000       12.91185       23.91692        0.01047       57.17086       45.99407        2.23046
8540.50000       12.86232       23.64392        0.01574       57.73173       45.37092        2.24150
8541.00000       12.81279       23.83383        0.01102       58.29496       44.74778        2.23700
8541.50000       12.78684       23.01662        0.00380       58.95721       43.29377        2.23710
8542.00000       12.79625       21.78042       -0.00131       59.61710       42.92938        2.25562
8542.50000       12.82924       21.95015        0.00198       60.27934       41.79644        2.27414
8543.00000       12.89759       21.94659        0.00527       60.93923       40.94956        2.27428
8543.50000       12.95160       22.00594        0.00692       61.27142       41.93294        2.26982
8544.00000       13.03755       22.18398        0.00198       61.11089       43.07300        2.26537
8544.50000       13.08763       22.25520       -0.00296       60.94800       43.00712        2.26091
8545.00000       13.05146       21.83146       -0.00791       60.64129       42.80890        2.26717
8545.50000       13.01529       21.40950       -0.00929       60.12241       42.41365        2.27610
8546.00000       13.19170       20.91395        0.00010       59.60117       41.27597        2.28502
8546.50000       13.30523       20.80119       -0.00435       59.24260       41.39466        2.29396
8547.00000       13.42663       20.87538       -0.00721       59.53236       42.35430        2.29324
8547.50000       13.45706       20.74778       -0.00376       60.23468       43.02671        2.28609
8548.00000       13.38651       20.34303       -0.00158       61.21284       43.13709        2.29084
8548.50000       13.42814       19.88131       -0.00455       61.87509       43.18517        2.29857
8549.00000       13.40533       19.58457       -0.00600       61.28076       43.30861        2.30629
8549.50000       13.46386       18.90208       -0.00141       63.23966       42.69021        2.31402
