~Version ---------------------------------------------------
VERS. 2.0 : CWLS LOG ASCII STANDARD - VERSION 2.0
WRAP. NO  : One line per depth step
DLM . SPACE : Column Data Section Delimiter
~Well ------------------------------------------------------
STRT.F         8350 : START DEPTH
STOP.F      12743.5 : STOP DEPTH
STEP.F          0.5 : STEP
NULL.       -999.25 : NULL VALUE
COMP.            AMOCO PRODUCTION COMPANY : COMPANY
WELL.             155847-SL862-011-862-30 : WELL
FLD .                  VERMILION BLOCK 15 : FIELD
CNTY.                           VERMILION : COUNTY
STAT.                           LOUISIANA : STATE
CTRY.                                 USA : COUNTRY
SEC .                                     : SECTION
TWP .                                     : TOWNSHIP
RGE .                                     : RANGE
LOC .                                     : LOCATION
EKB .F                    44.35 : ELEVATION KELLY BUSHING
EDF .F                     44.5 : ELEVATION DERRICK FLOOR
EGL .F                          : ELEVATION GROUND LEVEL
PDAT.                       BHF : PERMANENT DATUM
EPD .                           : ELEVATION PERMANENT DATUM
APD .                        33 : ABOVE PERMANENT DATUM
LMF .                       RKB : LOG MEASURED FROM
DMF .                       RKB : DRILLING MEASURED FROM
API .            17705200940000 : API NUMBER
UWI .                           : UWI NUMBER
DIGC.                     NthDS : DIGITIZING COMPANY
~Params ----------------------------------------------------
SRVC.                     WELEX : LOGGING COMPANY
LOG .                       CDL : LOG
DATE.                1977-09-17 : RUN DATE
RUN .                         1 : RUN NUMBER
TDD .F                    11102 : TOTAL DEPTH DRILLER
TDL .F                    11116 : TOTAL DEPTH LOGGER
BOTL.F                    11020 : BOTTOM LOGGED INTERVAL
TOPL.F                     8350 : TOP LOGGED INTERVAL
CSGS.IN                  13.375 : CASING SIZE
CSGD.F                     1800 : CASING DRILLER
CSGL.F                          : CASING LOGGER
BS  .IN                   12.25 : BIT SIZE
MUD .             LIGNO LIGNITE : MUD TYPE
MUDD.                      10.5 : MUD DENSITY
MUDV.                           : MUD VISCOSITY
PH  .                           : MUD PH
FL  .                           : FLUID LOSS
MUDS.                           : SOURCE OF SAMPLE
RM  .OHMM                       : MUD RESISTIVITY
RMT .DEGF                       : RM TEMPERATURE
RMF .OHMM                       : MUD FILTRATE RESISTIVITY
RMFT.DEGF                       : RMF TEMPERATURE
RMC .OHMM                       : MUD CAKE RESISTIVITY
RMCT.DEGF                       : RMC TEMPERATURE
RMFS.                           : RMF SOURCE
RMCS.                           : RMC SOURCE
RMBH.OHMM                       : MUD RESISTIVITY AT BHT
BHT .DEGF                       : BOTTOM HOLE TEMPERATURE
TIMC.                           : TIME CIRCULATION STOPPED
TIML.                           : TIME LOGGER ON BOTTOM
TMAX.DEGF                   194 : MAXIMUM RECORDED TEMPERATURE
UNIT.                           : EQUIPMENT NUMBER
BASE.                           : BASE LOCATION
ENG .          KNOLES, MOBERLEY : RECORDED BY
WIT .               MR. HUBBARD : WITNESSED BY
#
SRVC.                     WELEX : LOGGING COMPANY
LOG .                       CDL : LOG
DATE.                1977-12-08 : RUN DATE
RUN .                         2 : RUN NUMBER
TDD .F                    12749 : TOTAL DEPTH DRILLER
TDL .F                    12746 : TOTAL DEPTH LOGGER
BOTL.F                    12744 : BOTTOM LOGGED INTERVAL
TOPL.F                    12140 : TOP LOGGED INTERVAL
CSGS.IN                  13.375 : CASING SIZE
CSGD.F                     1800 : CASING DRILLER
CSGL.F                          : CASING LOGGER
BS  .IN                     6.5 : BIT SIZE
MUD .             LIGNO LIGNITE : MUD TYPE
MUDD.                      16.4 : MUD DENSITY
MUDV.                           : MUD VISCOSITY
PH  .                           : MUD PH
FL  .                           : FLUID LOSS
MUDS.                           : SOURCE OF SAMPLE
RM  .OHMM                       : MUD RESISTIVITY
RMT .DEGF                       : RM TEMPERATURE
RMF .OHMM                       : MUD FILTRATE RESISTIVITY
RMFT.DEGF                       : RMF TEMPERATURE
RMC .OHMM                       : MUD CAKE RESISTIVITY
RMCT.DEGF                       : RMC TEMPERATURE
RMFS.                           : RMF SOURCE
RMCS.                           : RMC SOURCE
RMBH.OHMM                       : MUD RESISTIVITY AT BHT
BHT .DEGF                       : BOTTOM HOLE TEMPERATURE
TIMC.                           : TIME CIRCULATION STOPPED
TIML.                           : TIME LOGGER ON BOTTOM
TMAX.DEGF                   235 : MAXIMUM RECORDED TEMPERATURE
UNIT.                           : EQUIPMENT NUMBER
BASE.                           : BASE LOCATION
ENG .                  CROTHERS : RECORDED BY
WIT .               MR. HUBBARD : WITNESSED BY
~Curve Information -----------------------------------------
DEPT.F          :DEPTH
CALI.IN         :
DPHI.%          :
DRHO.G/CC       :
GR.GAPI         :
NPHI.%          :
RHOB.G/CC       :
~ASCII ------------------------------------------------------
8350.00000       12.88574       27.89525        0.00622       73.12939       46.24514        2.17256
8350.50000       12.89785       28.55853        0.00625       67.84234       47.19479        2.15834
8351.00000       12.90801       29.15897        0.00857       67.18587       46.80037        2.14650
8351.50000       12.95801       30.57640        0.01186       67.81881       46.40655        2.12636
8352.00000       13.06777       32.45450        0.00754       68.45175       46.01213        2.09803
8352.50000       13.19726       35.02508        0.00321       67.55763       47.00150        2.04521
8353.00000       13.34375       39.49250       -0.00111       65.64704       46.38712        1.96218
8353.50000       13.45371       43.79193       -0.01515       63.73410       45.95595        1.87751
8354.00000       13.72793       48.41329       -0.03162       62.96469       46.55639        1.79284
8354.50000       14.23379       50.93013       -0.04809       63.90587       48.02027        1.78934
8355.00000       14.68027       49.44718       -0.03931       65.36704       49.62920        1.82823
8355.50000       14.94531       45.14013       -0.02421       67.60704       51.49781        1.88031
8356.00000       14.78906       39.00484       -0.00911       69.84939       51.30556        2.00296
8356.50000       13.58594       36.00174        0.00217       72.08939       49.94297        2.02270
8357.00000       12.85156       36.13618       -0.00178       73.78822       49.39381        2.01520
8357.50000       12.67969       37.65617       -0.00791       72.37645       50.03575        1.97367
8358.00000       12.90918       40.92577       -0.02273       65.17645       50.97532        1.90210
8358.50000       13.32422       49.42241       -0.04051       57.58822       51.33801        1.78776
8359.00000       13.57383       55.14001       -0.06467       54.35293       50.83510        1.67522
8359.50000       13.88574       59.13075       -0.09118       52.10587       50.72526        1.65857
8360.00000       14.54492       57.61994       -0.08437       49.86116       51.30101        1.68115
8360.50000       15.35058       53.61882       -0.05534       50.62116       51.78109        1.75930
8361.00000       15.88594       48.95565       -0.04710       52.41175       52.19714        1.82428
8361.50000       15.89101       47.59721       -0.03755       54.61881       52.61319        1.84333
8362.00000       15.89609       45.79588       -0.01976       56.82352       52.37352        1.92448
8362.50000       15.90136       36.74539       -0.00113       58.94116       52.18542        2.01551
8363.00000       15.91328       37.14188        0.00310       59.29410       51.90484        2.00592
8363.50000       15.59629       39.30100        0.00024       57.41175       51.60943        1.96150
8364.00000       14.92578       41.57870       -0.00442       55.05881       51.31403        1.92361
8364.50000       15.00390       43.21787       -0.00907       54.58822       51.65123        1.90202
8365.00000       15.08203       44.91277       -0.02213       55.17646       52.31866        1.86166
8365.50000       14.99531       48.08593       -0.04783       55.35293       53.25784        1.82297
8366.00000       14.82480       47.82016       -0.05830       54.91057       53.28674        1.90043
8366.50000       14.32031       35.78549       -0.03270       55.76469       50.78581        2.00296
8367.00000       14.04687       27.97531       -0.00198       57.34352       49.89753        2.16190
8367.50000       13.62695       26.32102        0.00791       59.52940       46.41814        2.20099
8368.00000       13.34375       26.31731        0.01779       61.71528       45.10318        2.19415
8368.50000       13.18105       26.83712        0.01910       62.32234       44.03110        2.18139
8369.00000       12.98574       27.22946        0.01471       61.88234       43.61712        2.17670
8369.50000       12.95312       27.11191        0.01835       61.58822       42.49168        2.18411
8370.00000       13.06191       27.33409        0.01976       61.83999       43.63875        2.16732
8370.50000       13.20137       28.20489        0.01482       62.90822       47.88897        2.15030
8371.00000       13.17363       28.38379        0.02273       63.99998       47.89001        2.15647
8371.50000       13.21484       28.34925        0.02124       65.41175       48.60250        2.15470
8372.00000       13.27344       28.47479        0.01976       66.11763       48.97883        2.15208
8372.50000       13.26562       27.43828        0.01828       64.94116       50.75397        2.16716
8373.00000       13.14004       26.48062        0.01680       63.76469       50.64117        2.18224
8373.50000       13.01445       25.83957        0.02174       62.85881       51.13667        2.19732
8374.00000       12.92832       26.21590        0.02416       61.95528       50.92012        2.19447
8374.50000       12.99219       27.26476        0.01653       61.31057       48.51998        2.17966
8375.00000       13.06699       27.25749        0.00889       61.05881       48.58031        2.17736
8375.50000       12.99863       27.10853        0.01927       60.80704       48.75921        2.18340
8376.00000       12.95586       27.59395        0.01680       59.45646       48.09325        2.16988
8376.50000       12.96992       28.66810        0.01299       57.37646       46.23323        2.15148
8377.00000       12.92383       28.88554        0.01832       55.29410       44.77992        2.14808
8377.50000       12.89844       29.85000        0.02364       56.23528       44.38610        2.14259
8378.00000       13.05078       30.81447        0.01581       57.17646       44.88100        2.11901
8378.50000       13.07812       30.42598        0.00889       58.11763       45.96879        2.11504
8379.00000       13.22851       29.69955        0.01877       59.24704       47.16982        2.12416
8379.50000       13.43359       29.49841        0.02273       59.72234       47.37421        2.13327
8380.00000       13.62695       29.31151        0.02036       58.33175       46.48613        2.14238
8380.50000       13.77344       28.64081        0.02579       56.94116       46.26009        2.15149
8381.00000       13.87109       29.41733        0.02134       55.95999       45.12457        2.14997
8381.50000       13.99804       30.34880        0.01690       54.98116       46.21236        2.13251
8382.00000       14.17715       30.65991        0.01245       54.40469       47.30074        2.11504
8382.50000       14.24219       30.09771        0.01078       54.09646       47.49920        2.12488
8383.00000       14.35078       29.71990        0.02021       53.79058       48.74529        2.13820
8383.50000       14.41797       29.88575        0.02892       53.48234       50.86113        2.13076
8384.00000       14.32031       30.30832        0.02534       53.17646       52.24536        2.12145
8384.50000       14.09707       30.96568        0.02174       52.99999       52.18731        2.11214
8385.00000       14.07285       31.62303        0.02915       52.82352       50.51761        2.10283
8385.50000       14.18144       32.07051        0.03656       52.64705       48.84790        2.09352
8386.00000       14.32812       33.03972        0.02820       52.59763       48.83056        2.08422
8386.50000       14.47656       32.91388        0.01984       53.23058       49.22705        2.07492
8387.00000       14.53242       31.20386        0.01746       53.86352       49.10120        2.09336
8387.50000       14.47012       29.80569        0.02404       54.49881       48.48801        2.11875
8388.00000       14.30078       29.33242        0.03063       55.13175       46.42404        2.14413
8388.50000       14.21406       30.06092        0.02456       55.76469       44.72528        2.13989
8389.00000       14.14453       32.23211        0.01847       54.83999       46.07038        2.11817
8389.50000       14.14453       34.20033        0.01482       53.91528       45.61668        2.08478
