~Version ---------------------------------------------------
VERS. 2.0 : CWLS LOG ASCII STANDARD - VERSION 2.0
WRAP. NO  : One line per depth step
DLM . SPACE : Column Data Section Delimiter
~Well ------------------------------------------------------
STRT.F         8350 : START DEPTH
STOP.F      12743.5 : STOP DEPTH
STEP.F          0.5 : STEP
NULL.       -999.25 : NULL VALUE
COMP.            AMOCO PRODUCTION COMPANY : COMPANY
WELL.             155847-SL862-011-862-30 : WELL
FLD .                  VERMILION BLOCK 15 : FIELD
CNTY.                           VERMILION : COUNTY
STAT.                           LOUISIANA : STATE
CTRY.                                 USA : COUNTRY
SEC .                                     : SECTION
TWP .                                     : TOWNSHIP
RGE .                                     : RANGE
LOC .                                     : LOCATION
EKB .F                    44.35 : ELEVATION KELLY BUSHING
EDF .F                     44.5 : ELEVATION DERRICK FLOOR
EGL .F                          : ELEVATION GROUND LEVEL
PDAT.                       BHF : PERMANENT DATUM
EPD .                           : ELEVATION PERMANENT DATUM
APD .                        33 : ABOVE PERMANENT DATUM
LMF .                       RKB : LOG MEASURED FROM
DMF .                       RKB : DRILLING MEASURED FROM
API .            17705200940000 : API NUMBER
UWI .                           : UWI NUMBER
DIGC.                     NthDS : DIGITIZING COMPANY
~Params ----------------------------------------------------
SRVC.                     WELEX : LOGGING COMPANY
LOG .                       CDL : LOG
DATE.                1977-09-17 : RUN DATE
RUN .                         1 : RUN NUMBER
TDD .F                    11102 : TOTAL DEPTH DRILLER
TDL .F                    11116 : TOTAL DEPTH LOGGER
BOTL.F                    11020 : BOTTOM LOGGED INTERVAL
TOPL.F                     8350 : TOP LOGGED INTERVAL
CSGS.IN                  13.375 : CASING SIZE
CSGD.F                     1800 : CASING DRILLER
CSGL.F                          : CASING LOGGER
BS  .IN                   12.25 : BIT SIZE
MUD .             LIGNO LIGNITE : MUD TYPE
MUDD.                      10.5 : MUD DENSITY
MUDV.                           : MUD VISCOSITY
PH  .                           : MUD PH
FL  .                           : FLUID LOSS
MUDS.                           : SOURCE OF SAMPLE
RM  .OHMM                       : MUD RESISTIVITY
RMT .DEGF                       : RM TEMPERATURE
RMF .OHMM                       : MUD FILTRATE RESISTIVITY
RMFT.DEGF                       : RMF TEMPERATURE
RMC .OHMM                       : MUD CAKE RESISTIVITY
RMCT.DEGF                       : RMC TEMPERATURE
RMFS.                           : RMF SOURCE
RMCS.                           : RMC SOURCE
RMBH.OHMM                       : MUD RESISTIVITY AT BHT
BHT .DEGF                       : BOTTOM HOLE TEMPERATURE
TIMC.                           : TIME CIRCULATION STOPPED
TIML.                           : TIME LOGGER ON BOTTOM
TMAX.DEGF                   194 : MAXIMUM RECORDED TEMPERATURE
UNIT.                           : EQUIPMENT NUMBER
BASE.                           : BASE LOCATION
ENG .          KNOLES, MOBERLEY : RECORDED BY
WIT .               MR. HUBBARD : WITNESSED BY
#
SRVC.                     WELEX : LOGGING COMPANY
LOG .                       CDL : LOG
DATE.                1977-12-08 : RUN DATE
RUN .                         2 : RUN NUMBER
TDD .F                    12749 : TOTAL DEPTH DRILLER
TDL .F                    12746 : TOTAL DEPTH LOGGER
BOTL.F                    12744 : BOTTOM LOGGED INTERVAL
TOPL.F                    12140 : TOP LOGGED INTERVAL
CSGS.IN                  13.375 : CASING SIZE
CSGD.F                     1800 : CASING DRILLER
CSGL.F                          : CASING LOGGER
BS  .IN                     6.5 : BIT SIZE
MUD .             LIGNO LIGNITE : MUD TYPE
MUDD.                      16.4 : MUD DENSITY
MUDV.                           : MUD VISCOSITY
PH  .                           : MUD PH
FL  .                           : FLUID LOSS
MUDS.                           : SOURCE OF SAMPLE
RM  .OHMM                       : MUD RESISTIVITY
RMT .DEGF                       : RM TEMPERATURE
RMF .OHMM                       : MUD FILTRATE RESISTIVITY
RMFT.DEGF                       : RMF TEMPERATURE
RMC .OHMM                       : MUD CAKE RESISTIVITY
RMCT.DEGF                       : RMC TEMPERATURE
RMFS.                           : RMF SOURCE
RMCS.                           : RMC SOURCE
RMBH.OHMM                       : MUD RESISTIVITY AT BHT
BHT .DEGF                       : BOTTOM HOLE TEMPERATURE
TIMC.                           : TIME CIRCULATION STOPPED
TIML.                           : TIME LOGGER ON BOTTOM
TMAX.DEGF                   235 : MAXIMUM RECORDED TEMPERATURE
UNIT.                           : EQUIPMENT NUMBER
BASE.                           : BASE LOCATION
ENG .                  CROTHERS : RECORDED BY
WIT .               MR. HUBBARD : WITNESSED BY
~Curve Information -----------------------------------------
DEPT.F          :DEPTH
CALI.IN         :
DPHI.%          :
DRHO.G/CC       :
GR.GAPI         :
NPHI.%          :
RHOB.G/CC       :
~ASCII ------------------------------------------------------
# ...
10582.50000       13.29412       25.09798       -0.04731       51.99999       27.03183        2.22044
10583.00000       13.33333       25.97731       -0.04770       49.17646       27.62745        2.19982
10583.50000       13.36470       25.53226       -0.05343       49.17646       28.24617        2.20128
10584.00000       13.42490       25.08721       -0.05098       52.90116       28.58413        2.20827
10584.50000       13.49019       25.47137       -0.04902       57.14352       28.24155        2.20981
10585.00000       13.46000       25.82593       -0.05080       56.31293       27.89897        2.20321
10585.50000       13.42980       26.10407       -0.05097       44.58822       27.85862        2.19659
10586.00000       13.39863       26.47597       -0.05992       40.29411       27.37152        2.18761
10586.50000       13.36608       27.27889       -0.07103       37.49881       26.59360        2.17863
10587.00000       13.33333       27.36276       -0.08215       37.47058       26.24746        2.16965
10587.50000       13.30059       26.96687       -0.08207       38.13176       25.80241        2.17971
10588.00000       13.32255       25.22883       -0.07455       38.79528       25.33248        2.19898
10588.50000       13.35823       24.04341       -0.06703       38.64705       24.83946        2.22122
10589.00000       13.37255       23.59836       -0.06285       37.95999       24.31267        2.24055
10589.50000       13.37255       23.15331       -0.07202       38.01411       24.21234        2.24822
10590.00000       13.37255       20.01330       -0.07147       41.01881       24.39631        2.27530
10590.50000       13.37843       16.69561       -0.06848       43.42822       23.74395        2.33148
10591.00000       13.38568       16.10249       -0.06550       44.94117       23.09160        2.37774
10591.50000       13.39294       16.78280       -0.06251       43.60705       22.43924        2.36552
10592.00000       13.39863       20.10654       -0.06277       42.54117       21.78689        2.33008
10592.50000       13.40588       23.91833       -0.06935       41.20705       22.08221        2.25183
10593.00000       13.40765       27.18699       -0.07595       42.63528       22.37753        2.17075
10593.50000       13.38745       28.06276       -0.08254       50.35293       23.00454        2.15661
10594.00000       13.36706       27.51702       -0.07885       60.94116       23.71447        2.16889
10594.50000       13.34686       26.50929       -0.07260       71.43528       23.30318        2.18778
10595.00000       13.32666       25.31202       -0.07108       56.70587       22.59930        2.20668
10595.50000       13.30627       24.20952       -0.06906       49.58822       22.03520        2.22225
10596.00000       13.29176       22.72795       -0.06152       58.91763       21.48412        2.23282
10596.50000       13.28588       21.84934       -0.05398       60.03999       20.53562        2.26743
10597.00000       13.27980       21.38889       -0.05045       40.23528       19.68603        2.28289
10597.50000       13.27392       22.10356       -0.05272       45.33411       19.58629        2.27123
10598.00000       13.26804       22.67565       -0.05335       55.45175       19.48181        2.25725
10598.50000       13.26196       23.02013       -0.05067       55.05881       19.37022        2.24560
10599.00000       13.25608       22.72315       -0.04953       30.15058       19.32557        2.25399
10599.50000       13.24961       22.50021       -0.05447       29.88235       19.30299        2.26238
10600.00000       13.24451       23.20964       -0.06089       32.06823       18.78634        2.25161
10600.50000       13.25110       22.65327       -0.05472       34.62111       18.17790        2.24990
10601.00000       13.27800       22.02326       -0.04855       34.56208       17.65408        2.26142
10601.50000       13.31316       21.35625       -0.05114       34.50304       17.13085        2.27294
10602.00000       13.34852       21.41408       -0.05958       34.44165       16.60703        2.27519
10602.50000       13.28112       19.36838       -0.05808       36.12957       16.85657        2.28834
10603.00000       13.21392       17.32327       -0.04997       34.82810       17.74279        2.31701
10603.50000       13.14653       11.90278       -0.04185       32.66849       18.18937        2.36321
10604.00000       13.17245        9.63341       -0.03342       31.75130       18.24069        2.43574
10604.50000       13.22176       11.23797       -0.02491       32.69659       18.67189        2.48254
10605.00000       13.26949       14.54192       -0.01810       33.21751       19.10309        2.44781
10605.50000       13.31506       17.95797       -0.00959       33.10190       20.16209        2.39699
10606.00000       13.36064       22.17256       -0.02409       34.21221       21.72878        2.32991
10606.50000       13.30346       22.61500       -0.03857       37.16143       22.39488        2.25200
10607.00000       13.22034       23.03318       -0.04569       39.87488       22.06455        2.25940
10607.50000       13.20324       23.41467       -0.04174       38.13255       23.04130        2.26681
10608.00000       13.24607       23.79617       -0.03780       25.02679       24.49852        2.25195
10608.50000       13.23800       24.17766       -0.04210       26.37522       24.76937        2.21632
10609.00000       13.20617       24.23549       -0.03897       27.05881       25.38932        2.22290
10609.50000       13.13818       24.29332       -0.03788       27.29683       26.00927        2.22947
10610.00000       13.07040       24.20736       -0.04497       31.63700       25.81089        2.22990
10610.50000       13.08021       24.12140       -0.03927       35.23454       25.65748        2.22439
10611.00000       13.10928       24.10882       -0.03038       34.35272       25.68572        2.22366
10611.50000       13.13835       24.38913       -0.03203       33.47090       25.78911        2.22611
10612.00000       13.17999       24.67003       -0.03632       34.52228       26.19250        2.22138
10612.50000       13.24069       24.95034       -0.04062       36.05695       26.59589        2.21663
10613.00000       13.30119       25.23065       -0.04491       35.96963       26.99927        2.21190
10613.50000       13.30177       24.93319       -0.04492       35.47445       27.41213        2.20716
10614.00000       13.28723       24.65078       -0.03850       34.98162       27.83800        2.21096
10614.50000       13.26977       24.57548       -0.03790       34.48644       28.41121        2.22045
10615.00000       13.25523       23.06113       -0.04601       36.09656       29.08205        2.22995
10615.50000       13.23459       21.34797       -0.04884       37.70668       29.64224        2.26227
10616.00000       13.21395       19.63481       -0.03046       41.28772       29.97758        2.29458
10616.50000       13.19332       17.93704       -0.03303       45.36148       30.08393        2.32584
10617.00000       13.17268       15.91178       -0.03375       48.48516       30.19028        2.35550
10617.50000       13.15204       14.56726       -0.02387       53.59625       30.49931        2.38515
10618.00000       13.13141       15.53809       -0.02554       60.90694       31.03998        2.38999
10618.50000       13.12826       15.92550       -0.03490       76.58697       31.76939        2.37828
10619.00000       13.15163       15.82535       -0.02579       79.16650       32.49941        2.37233
10619.50000       13.17480       15.68614       -0.01206       77.31572       33.26019        2.37502
10620.00000       13.19817       15.44811       -0.01901       73.48931       33.96916        2.37884
10620.50000       13.26378       15.21008       -0.02595       71.38582       34.44802        2.38723
10621.00000       13.32959       15.53418       -0.01792       70.44506       34.84667        2.39064
10621.50000       13.31780       16.86418       -0.01262       70.84620       35.24592        2.37414
