~Version ---------------------------------------------------
VERS. 2.0 : CWLS LOG ASCII STANDARD - VERSION 2.0
WRAP. NO  : One line per depth step
DLM . SPACE : Column Data Section Delimiter
~Well ------------------------------------------------------
STRT.F       3816.5 : START DEPTH
STOP.F        13000 : STOP DEPTH
STEP.F          0.5 : STEP
NULL.       -999.25 : NULL VALUE
COMP.             UNION PACIFIC RESOURCES : COMPANY
WELL.                 219499-LLECO-003-29 : WELL
FLD .                     FOUR LEAGUE BAY : FIELD
CNTY.                          TERREBONNE : COUNTY
STAT.                           LOUISIANA : STATE
CTRY.                                 USA : COUNTRY
SEC .                                     : SECTION
TWP .                                     : TOWNSHIP
RGE .                                     : RANGE
LOC .                                     : LOCATION
EKB .F                          : ELEVATION KELLY BUSHING
EDF .F                          : ELEVATION DERRICK FLOOR
EGL .F                          : ELEVATION GROUND LEVEL
PDAT.                       BHF : PERMANENT DATUM
EPD .                           : ELEVATION PERMANENT DATUM
APD .                           : ABOVE PERMANENT DATUM
LMF .                       RKB : LOG MEASURED FROM
DMF .                       RKB : DRILLING MEASURED FROM
API .            17109235220000 : API NUMBER
UWI .                           : UWI NUMBER
DIGC.                     NthDS : DIGITIZING COMPANY
~Params ----------------------------------------------------
SRVC.              SCHLUMBERGER : LOGGING COMPANY
LOG .                   AIT/LSS : LOG
DATE.                1996-12-21 : RUN DATE
RUN .                         1 : RUN NUMBER
TDD .F                    13000 : TOTAL DEPTH DRILLER
TDL .F                    12998 : TOTAL DEPTH LOGGER
BOTL.F                    12990 : BOTTOM LOGGED INTERVAL
TOPL.F                     4026 : TOP LOGGED INTERVAL
CSGS.IN                   10.75 : CASING SIZE
CSGD.F                     4025 : CASING DRILLER
CSGL.F                     4026 : CASING LOGGER
BS  .IN                   9.875 : BIT SIZE
MUD .          CARBOMAX/QBROXIN : MUD TYPE
MUDD.                       9.8 : MUD DENSITY
MUDV.                        41 : MUD VISCOSITY
PH  .                       8.2 : MUD PH
FL  .                        11 : FLUID LOSS
MUDS.                  CIRC PIT : SOURCE OF SAMPLE
RM  .OHMM                 0.620 : MUD RESISTIVITY
RMT .DEGF                    75 : RM TEMPERATURE
RMF .OHMM                 0.926 : MUD FILTRATE RESISTIVITY
RMFT.DEGF                    75 : RMF TEMPERATURE
RMC .OHMM                 0.310 : MUD CAKE RESISTIVITY
RMCT.DEGF                    75 : RMC TEMPERATURE
RMFS.                      CALC : RMF SOURCE
RMCS.                      CALC : RMC SOURCE
RMBH.OHMM                 0.251 : MUD RESISTIVITY AT BHT
BHT .DEGF                   195 : BOTTOM HOLE TEMPERATURE
TIMC.                2000 11-21 : TIME CIRCULATION STOPPED
TIML.                1800 11-21 : TIME LOGGER ON BOTTOM
TMAX.DEGF                   195 : MAXIMUM RECORDED TEMPERATURE
UNIT.                      2015 : EQUIPMENT NUMBER
BASE.              HOUMA INLAND : BASE LOCATION
ENG .       T.NESBIT/L.GUERRERO : RECORDED BY
WIT .          HERMAN DEVILLIER : WITNESSED BY
~Curve Information -----------------------------------------
DEPT.F          :DEPTH
AHT10.OHMM      :
AHT30.OHMM      :
AHT90.OHMM      :
CILD.MMHO       :
DCAL.IN         :
DTLF.US/F       :
DTLN.US/F       :
GR.GAPI         :
SP.MV           :
TENS.LBF        :
~ASCII ------------------------------------------------------
# ...
11166.50000        0.89828        1.10256        1.16579      809.68548       -3.55281       95.01598       96.90620      106.37448      -22.15143     4538.92350
11167.00000        0.88132        1.08613        1.18403      813.40634       -3.55212       96.36528       97.21359      108.22707      -22.54983     4583.83367
11167.50000        0.86475        1.09342        1.21434      817.12720       -3.55142       96.70660       97.52097      110.16930      -22.54983     4602.79574
11168.00000        0.84849        1.10076        1.24853      820.92806       -3.55072       96.67866       97.70460      111.92328      -22.94824     4582.83566
11168.50000        0.83676        1.09266        1.22652      824.64892       -3.55002       97.10580       97.98005      113.90435      -22.94824     4562.87559
11169.00000        0.82626        1.07449        1.19135      828.36978       -3.54933       97.53295       98.44113      115.33862      -22.94824     4542.91551
11169.50000        0.81589        1.05663        1.17922      832.09064       -3.54863       97.76848       98.90221      113.64439      -23.74505     4528.14506
11170.00000        0.80640        1.03905        1.18179      835.81150       -3.54793       97.87227       97.68265      110.82368      -25.33868     4521.55823
11170.50000        0.79995        1.02422        1.18449      839.61235       -3.54723       97.99802       96.70660      108.76491      -25.33868     4513.37460
11171.00000        0.79355        1.01016        1.18766      843.33321       -3.54654       98.10381       97.77047      109.51193      -24.54187     4506.58818
11171.50000        0.78713        0.99358        1.18589      847.05407       -3.54584       97.56688       99.54492      112.12647      -23.34665     4499.80175
11172.00000        0.77957        0.98002        1.17749      850.77493       -3.54514       97.02995       98.81239      114.74101      -22.54983     4493.01532
11172.50000        0.77334        0.96657        1.16926      854.57579       -3.54430       96.74253       97.45111      116.23503      -21.75302     4486.22890
11173.00000        0.77646        0.95339        1.16097      858.29665       -3.54361       96.83434       96.96009      116.83264      -21.35462     4479.44247
11173.50000        0.78196        0.94759        1.15487      862.01751       -3.54291       97.00600       97.05191      115.24001      -20.95621     4472.65605
11174.00000        0.78750        0.95273        1.15018      865.73837       -3.54221       97.50500       97.72656      112.58364      -20.55780     4466.06922
11174.50000        0.79308        0.95780        1.13847      869.45923       -3.54151       97.50500       99.27945      110.37846      -20.15940     4459.28280
11175.00000        0.80549        0.96299        1.11645      873.26008       -3.54082       97.73454       99.82037      109.96013      -20.55780     4452.49637
11175.50000        0.81991        0.96821        1.09486      876.98094       -3.54132       98.01199       99.66069      110.85655      -20.55780     4451.09917
11176.00000        0.83450        0.97346        1.08251      880.70180       -3.54302       97.77047       99.52696      111.60356      -21.35462     4451.09917
11176.50000        0.84943        0.97874        1.07623      884.42266       -3.54512       97.21758      100.37925      110.85655      -21.35462     4451.09917
11177.00000        0.85971        0.98395        1.06988      888.22352       -3.54722       97.42516      101.47706      110.10953      -21.35462     4451.09917
11177.50000        0.86684        0.99041        1.06244      891.94438       -3.54932       98.22357      101.69662      109.96013      -21.35462     4451.09917
11178.00000        0.87550        0.99724        1.06056      895.66524       -3.55102       98.70261      101.33135      111.21511      -21.35462     4451.09917
11178.50000        0.87993        1.00440        1.07587      899.38609       -3.55312       98.34333       99.50101      112.05177      -22.15143     4451.09917
11179.00000        0.88007        1.00901        1.09129      903.10695       -3.55548       97.44512       97.67067      110.55774      -22.94824     4461.07920
11179.50000        0.86281        1.00251        1.09016      906.90781       -3.55758       96.90620       97.30540      109.06372      -24.94027     4471.05924
11180.00000        0.84581        0.99614        1.07787      914.34953       -3.55928       96.90620       97.30540      109.28782      -25.33868     4481.03928
11180.50000        0.82922        0.98972        1.06817      918.07039       -3.56138       96.90620       97.67866      109.86153      -24.94027     4498.20494
11181.00000        0.81289        0.98344        1.06982      921.87125       -3.56348       97.12975       98.05390      111.45416      -23.74505     4533.73388
11181.50000        0.80401        0.97719        1.07760      925.59211       -3.56558       97.50500       98.42716      116.83264      -22.94824     4569.46241
11182.00000        0.80585        0.97089        1.08543      929.31296       -3.56728       98.11977       98.80241      122.80873      -21.75302     4584.63207
11182.50000        0.80768        0.96490        1.09121      929.27387       -3.56938       98.73255       99.17766      121.31471      -21.35462     4569.26281
11183.00000        0.80945        0.95948        1.09562      929.23477       -3.57148       99.10181       99.56289      118.32666      -20.95621     4553.89355
11183.50000        0.81130        0.95418        1.09030      929.19568       -3.57318       99.10181       99.94612      115.84957      -20.55780     4538.52429
11184.00000        0.80956        0.94780        1.06882      929.15658       -3.57528       99.10181      100.12776      114.14340      -20.55780     4523.35464
11184.50000        0.80749        0.94247        1.04766      926.79752       -3.57738       99.02197      100.17566      109.96013      -20.55780     4510.18099
11185.00000        0.80576        0.95230        1.03271      924.51845       -3.57974       98.92217      100.22357      108.69021      -21.41438     4506.18897
11185.50000        0.80589        0.97264        1.04079      922.15938       -3.58184       98.10381      100.27945      109.87348      -21.78489     4501.59816
11186.00000        0.81895        0.99415        1.04894      919.88031       -3.58354       96.10780       99.14173      111.67826      -22.09167     4497.60614
11186.50000        0.85505        1.01745        1.06115      917.52125       -3.58564       94.11179       97.21159      111.45416      -22.39844     4493.81373
11187.00000        0.89273        1.04129        1.07438      915.24218       -3.58774       92.51498       95.28345      113.24698      -22.70123     4489.82171
11187.50000        0.91727        1.05671        1.08779      912.88311       -3.58944       92.80041       94.51099      119.47109      -22.94824     4486.02930
11188.00000        0.88500        1.03646        1.07661      916.84397       -3.59154       94.02596       94.51099      127.14140      -22.94824     4482.03728
11188.50000        0.85646        1.01670        1.05939      920.80482       -3.59364       95.88025       95.55890      127.88841      -23.19525     4478.04527
11189.00000        0.82892        0.99722        1.04254      924.76568       -3.59573       97.73255       97.30540      121.71212      -23.82075     4474.25285
11189.50000        0.81199        0.97820        1.03258      928.72654       -3.59743       98.60281       99.05191      114.68125      -24.44226     4471.65804
11190.00000        0.80996        0.95946        1.03278      932.68739       -3.59953       99.02995      100.09981      108.83961      -24.77294     4475.25086
11190.50000        0.80751        0.95568        1.04384      936.64825       -3.59884       98.60281      100.09981      106.37448      -23.77693     4479.24287
11191.00000        0.80511        0.95250        1.05784      931.48922       -3.59814       98.24552       99.52297      109.36252      -22.94824     4482.83569
