~Version ---------------------------------------------------
VERS. 2.0 : CWLS LOG ASCII STANDARD - VERSION 2.0
WRAP. NO  : One line per depth step
DLM . SPACE : Column Data Section Delimiter
~Well ------------------------------------------------------
STRT.F       3816.5 : START DEPTH
STOP.F        13000 : STOP DEPTH
STEP.F          0.5 : STEP
NULL.       -999.25 : NULL VALUE
COMP.             UNION PACIFIC RESOURCES : COMPANY
WELL.                 219499-LLECO-003-29 : WELL
FLD .                     FOUR LEAGUE BAY : FIELD
CNTY.                          TERREBONNE : COUNTY
STAT.                           LOUISIANA : STATE
CTRY.                                 USA : COUNTRY
SEC .                                     : SECTION
TWP .                                     : TOWNSHIP
RGE .                                     : RANGE
LOC .                                     : LOCATION
EKB .F                          : ELEVATION KELLY BUSHING
EDF .F                          : ELEVATION DERRICK FLOOR
EGL .F                          : ELEVATION GROUND LEVEL
PDAT.                       BHF : PERMANENT DATUM
EPD .                           : ELEVATION PERMANENT DATUM
APD .                           : ABOVE PERMANENT DATUM
LMF .                       RKB : LOG MEASURED FROM
DMF .                       RKB : DRILLING MEASURED FROM
API .            17109235220000 : API NUMBER
UWI .                           : UWI NUMBER
DIGC.                     NthDS : DIGITIZING COMPANY
~Params ----------------------------------------------------
SRVC.              SCHLUMBERGER : LOGGING COMPANY
LOG .                   AIT/LSS : LOG
DATE.                1996-12-21 : RUN DATE
RUN .                         1 : RUN NUMBER
TDD .F                    13000 : TOTAL DEPTH DRILLER
TDL .F                    12998 : TOTAL DEPTH LOGGER
BOTL.F                    12990 : BOTTOM LOGGED INTERVAL
TOPL.F                     4026 : TOP LOGGED INTERVAL
CSGS.IN                   10.75 : CASING SIZE
CSGD.F                     4025 : CASING DRILLER
CSGL.F                     4026 : CASING LOGGER
BS  .IN                   9.875 : BIT SIZE
MUD .          CARBOMAX/QBROXIN : MUD TYPE
MUDD.                       9.8 : MUD DENSITY
MUDV.                        41 : MUD VISCOSITY
PH  .                       8.2 : MUD PH
FL  .                        11 : FLUID LOSS
MUDS.                  CIRC PIT : SOURCE OF SAMPLE
RM  .OHMM                 0.620 : MUD RESISTIVITY
RMT .DEGF                    75 : RM TEMPERATURE
RMF .OHMM                 0.926 : MUD FILTRATE RESISTIVITY
RMFT.DEGF                    75 : RMF TEMPERATURE
RMC .OHMM                 0.310 : MUD CAKE RESISTIVITY
RMCT.DEGF                    75 : RMC TEMPERATURE
RMFS.                      CALC : RMF SOURCE
RMCS.                      CALC : RMC SOURCE
RMBH.OHMM                 0.251 : MUD RESISTIVITY AT BHT
BHT .DEGF                   195 : BOTTOM HOLE TEMPERATURE
TIMC.                2000 11-21 : TIME CIRCULATION STOPPED
TIML.                1800 11-21 : TIME LOGGER ON BOTTOM
TMAX.DEGF                   195 : MAXIMUM RECORDED TEMPERATURE
UNIT.                      2015 : EQUIPMENT NUMBER
BASE.              HOUMA INLAND : BASE LOCATION
ENG .       T.NESBIT/L.GUERRERO : RECORDED BY
WIT .          HERMAN DEVILLIER : WITNESSED BY
~Curve Information -----------------------------------------
DEPT.F          :DEPTH
AHT10.OHMM      :
AHT30.OHMM      :
AHT90.OHMM      :
CILD.MMHO       :
DCAL.IN         :
DTLF.US/F       :
DTLN.US/F       :
GR.GAPI         :
SP.MV           :
TENS.LBF        :
~ASCII ------------------------------------------------------
# ...
4616.50000        0.28006        0.21895        0.19925     3990.74490        2.92081      134.05390      132.07387       43.32668      -71.95221     2285.59833
4617.00000        0.28531        0.22693        0.19929     3990.78548        2.82575      133.98273      131.94481       44.29182      -71.15540     2287.66258
4617.50000        0.29066        0.23574        0.20546     3990.74670        2.74652      134.31275      132.58222       45.90238      -70.75699     2289.72683
4618.00000        0.32740        0.24486        0.21616     3990.78727        2.69647      134.64277      133.41124       47.50995      -70.75699     2291.79107
4618.50000        0.36875        0.25003        0.22266     3990.74849        2.76390      134.50573      133.95683       47.06174      -70.75699     2293.85532
4619.00000        0.38678        0.24910        0.21536     3990.78907        2.94202      133.67541      134.10256       46.61353      -70.35859     2296.25257
4619.50000        0.37979        0.24604        0.20832     3990.75028        3.06340      132.10325      133.38668       48.40636      -69.56178     2298.31682
4620.00000        0.35946        0.24763        0.20848     3990.79086        2.95660      129.70475      131.30154       53.13644      -67.17134     2300.38106
4620.50000        0.35622        0.27416        0.22321     3990.75208        2.84981      127.30624      128.30424       58.81373      -65.97612     2301.44731
4621.00000        0.40526        0.30598        0.24658     3990.79266        2.83426      126.98357      127.70213       60.47807      -65.97612     2301.11636
4621.50000        0.46531        0.33359        0.26791     3990.79445        2.86813      128.07008      130.89242       57.83963      -67.56974     2300.78541
4622.00000        0.53426        0.33110        0.26290     3990.75567        2.84884      130.48991      134.08270       54.31971      -71.55381     2300.45446
4622.50000        0.50296        0.27804        0.23910     3990.79625        2.96942      132.90974      135.57639       50.79680      -76.33468     2300.12351
4623.00000        0.40739        0.23348        0.21745     3990.83682        3.09000      134.11600      136.09803       47.30975      -80.71715     2303.98415
4623.50000        0.32999        0.22302        0.20074     3990.79804        3.21057      133.77337      135.16458       45.34660      -83.50599     2314.23199
4624.00000        0.28544        0.21303        0.19675     3990.83862        3.33115      132.77140      134.04285       43.76593      -84.30281     2326.40962
4624.50000        0.26817        0.20822        0.19284     3990.79983        3.45173      131.93576      133.29703       42.18525      -84.30281     2336.45786
4625.00000        0.26682        0.20352        0.18900     3990.84041        3.58563      131.20990      132.68095       41.35457      -84.70121     2334.72971
4625.50000        0.27127        0.20355        0.18450     3990.80163        3.65306      130.92316      132.06288       43.14740      -85.09962     2329.80797
4626.00000        0.27581        0.20488        0.18286     3990.84221        3.56145      131.47873      133.11345       45.83664      -84.70121     2324.88623
4626.50000        0.27797        0.20712        0.18516     3990.80342        3.46984      132.24588      134.16403       47.80875      -83.50599     2320.16408
4627.00000        0.29318        0.20935        0.19539     3990.84400        3.37544      133.01502      135.21261       47.95816      -79.52193     2315.24234
4627.50000        0.37299        0.24692        0.21570     3990.80522        3.27623      133.78216      135.91588       45.63644      -73.54584     2310.32060
4628.00000        0.52494        0.29120        0.23990     3990.84580        3.17703      134.19801      136.10020       42.92031      -67.17134     2305.39886
4628.50000        0.69793        0.32676        0.26181     3990.88638        3.17773      134.08293      136.28451       40.86752      -61.19524     2300.67671
4629.00000        0.84832        0.33627        0.26368     3990.84759        3.34985      134.83344      136.46018       39.25696      -58.00799     2294.69078
4629.50000        0.80288        0.33071        0.24532     3990.88817        3.68555      134.94590      136.53471       37.64939      -57.21118     2289.96864
4630.00000        0.69949        0.29851        0.22826     3990.84938        4.01912      134.83680      136.60725       37.64939      -58.40640     2285.04690
4630.50000        0.60942        0.27808        0.21237     3990.88996        3.91072      134.72970      136.61991       37.64939      -60.79684     2280.12516
4631.00000        0.54831        0.25903        0.19759     3990.85118        3.73000      134.62060      136.45692       37.68824      -61.19524     2275.40302
4631.50000        0.51775        0.25342        0.18948     3990.89176        3.64838      134.06241      136.18814       37.78983      -61.59365     2270.48127
4632.00000        0.49900        0.24792        0.18308     3990.85297        3.72021      133.73175      135.91737       37.88844      -63.18727     2265.55953
4632.50000        0.48845        0.24255        0.17936     3990.89355        3.81082      134.31128      135.73043       38.09760      -64.38249     2260.63779
4633.00000        0.48571        0.23729        0.17939     3990.85477        3.91954      134.89080      135.59738       38.47111      -65.17931     2255.91565
4633.50000        0.48302        0.23191        0.17952     3990.89535        4.01015      134.86154      135.46234       38.84461      -66.37452     2260.77429
4634.00000        0.48031        0.23074        0.17987     3990.85656        4.05680      134.64200      135.30268       40.12648      -68.36656     2284.32911
4634.50000        0.46778        0.22957        0.18016     3990.89714        4.03752      134.46105      135.18160       42.87848      -70.35859     2303.95812
4635.00000        0.45554        0.22840        0.18044     3990.93772        4.01824      134.28009      135.10644       43.45474      -70.35859     2323.58714
4635.50000        0.44365        0.22725        0.18073     3990.93951        3.99896      134.09914      135.03127       43.22808      -69.56178     2328.64538
4636.00000        0.43459        0.22611        0.18103     3990.90073        4.00245      133.98805      135.08185       43.06075      -69.56178     2323.92324
4636.50000        0.43608        0.22497        0.18094     3990.94131        4.04031      134.10849      135.31607       43.36852      -69.56178     2319.20109
4637.00000        0.43735        0.22383        0.17944     3990.90252        4.07777      134.72993      135.55028       43.79581      -69.56178     2314.67855
4637.50000        0.43859        0.22247        0.17794     3990.94310        4.12296      134.97612      135.78450       44.22310      -69.56178     2309.95641
4638.00000        0.43321        0.22224        0.17617     3990.90432        4.16082      134.68339      135.97081       42.72907      -69.56178     2305.23427
4638.50000        0.42785        0.22261        0.17471     3990.94490        4.21507      134.31681      135.96750       41.34860      -69.56178     2300.71172
4639.00000        0.42686        0.22297        0.17325     3990.90611        4.33564      134.34876      135.96353       40.41334      -69.16337     2294.92539
4639.50000        0.42693        0.22333        0.17361     3990.94669        4.45622      134.57300      135.96022       40.63744      -68.76496     2290.40285
4640.00000        0.43609        0.22370        0.17398     3990.90791        4.57680      134.79524      135.95691       41.63246      -69.56178     2288.27550
4640.50000        0.45012        0.22407        0.17434     3990.94849        4.67420      135.01947      135.95360       42.23007      -70.35859     2287.94455
4641.00000        0.45977        0.22443        0.17469     3990.98906        4.67849      135.11596      135.95029       41.73405      -71.15540     2287.61360
