~Version ---------------------------------------------------
VERS. 2.0 : CWLS LOG ASCII STANDARD - VERSION 2.0
WRAP. NO  : One line per depth step
DLM . SPACE : Column Data Section Delimiter
~Well ------------------------------------------------------
STRT.F       3816.5 : START DEPTH
STOP.F        13000 : STOP DEPTH
STEP.F          0.5 : STEP
NULL.       -999.25 : NULL VALUE
COMP.             UNION PACIFIC RESOURCES : COMPANY
WELL.                 219499-LLECO-003-29 : WELL
FLD .                     FOUR LEAGUE BAY : FIELD
CNTY.                          TERREBONNE : COUNTY
STAT.                           LOUISIANA : STATE
CTRY.                                 USA : COUNTRY
SEC .                                     : SECTION
TWP .                                     : TOWNSHIP
RGE .                                     : RANGE
LOC .                                     : LOCATION
EKB .F                          : ELEVATION KELLY BUSHING
EDF .F                          : ELEVATION DERRICK FLOOR
EGL .F                          : ELEVATION GROUND LEVEL
PDAT.                       BHF : PERMANENT DATUM
EPD .                           : ELEVATION PERMANENT DATUM
APD .                           : ABOVE PERMANENT DATUM
LMF .                       RKB : LOG MEASURED FROM
DMF .                       RKB : DRILLING MEASURED FROM
API .            17109235220000 : API NUMBER
UWI .                           : UWI NUMBER
DIGC.                     NthDS : DIGITIZING COMPANY
~Params ----------------------------------------------------
SRVC.              SCHLUMBERGER : LOGGING COMPANY
LOG .                   AIT/LSS : LOG
DATE.                1996-12-21 : RUN DATE
RUN .                         1 : RUN NUMBER
TDD .F                    13000 : TOTAL DEPTH DRILLER
TDL .F                    12998 : TOTAL DEPTH LOGGER
BOTL.F                    12990 : BOTTOM LOGGED INTERVAL
TOPL.F                     4026 : TOP LOGGED INTERVAL
CSGS.IN                   10.75 : CASING SIZE
CSGD.F                     4025 : CASING DRILLER
CSGL.F                     4026 : CASING LOGGER
BS  .IN                   9.875 : BIT SIZE
MUD .          CARBOMAX/QBROXIN : MUD TYPE
MUDD.                       9.8 : MUD DENSITY
MUDV.                        41 : MUD VISCOSITY
PH  .                       8.2 : MUD PH
FL  .                        11 : FLUID LOSS
MUDS.                  CIRC PIT : SOURCE OF SAMPLE
RM  .OHMM                 0.620 : MUD RESISTIVITY
RMT .DEGF                    75 : RM TEMPERATURE
RMF .OHMM                 0.926 : MUD FILTRATE RESISTIVITY
RMFT.DEGF                    75 : RMF TEMPERATURE
RMC .OHMM                 0.310 : MUD CAKE RESISTIVITY
RMCT.DEGF                    75 : RMC TEMPERATURE
RMFS.                      CALC : RMF SOURCE
RMCS.                      CALC : RMC SOURCE
RMBH.OHMM                 0.251 : MUD RESISTIVITY AT BHT
BHT .DEGF                   195 : BOTTOM HOLE TEMPERATURE
TIMC.                2000 11-21 : TIME CIRCULATION STOPPED
TIML.                1800 11-21 : TIME LOGGER ON BOTTOM
TMAX.DEGF                   195 : MAXIMUM RECORDED TEMPERATURE
UNIT.                      2015 : EQUIPMENT NUMBER
BASE.              HOUMA INLAND : BASE LOCATION
ENG .       T.NESBIT/L.GUERRERO : RECORDED BY
WIT .          HERMAN DEVILLIER : WITNESSED BY
~Curve Information -----------------------------------------
DEPT.F          :DEPTH
AHT10.OHMM      :
AHT30.OHMM      :
AHT90.OHMM      :
CILD.MMHO       :
DCAL.IN         :
DTLF.US/F       :
DTLN.US/F       :
GR.GAPI         :
SP.MV           :
TENS.LBF        :
~ASCII ------------------------------------------------------
# ...
12966.50000        0.99449        1.33508        1.42635      714.38142        -999.25       87.74253        -999.25        -999.25       21.63534     5462.57536
12967.00000        0.99465        1.31830        1.42097      714.89716        -999.25       86.56289        -999.25        -999.25       22.04417     5453.07041
12967.50000        0.99481        1.30174        1.41536      715.41290        -999.25       87.43315        -999.25        -999.25       22.45300     5447.52586
12968.00000        0.99497        1.28695        1.38073      707.45349        -999.25       89.09183        -999.25        -999.25       23.26024     5456.83279
12968.50000        0.95242        1.29447        1.34825      699.49409        -999.25       89.60880        -999.25        -999.25       23.27067     5466.33774
12969.00000        0.92653        1.32511        1.33374      691.53469        -999.25       88.83435        -999.25        -999.25       23.28110     5475.64467
12969.50000        0.93374        1.37232        1.37685      683.57528        -999.25       88.73455        -999.25        -999.25       23.69201     5485.14961
12970.00000        0.96145        1.42108        1.45169      675.61588        -999.25       89.08584        -999.25        -999.25       23.30404     5494.65456
12970.50000        0.98999        1.47171        1.53060      667.65647        -999.25       89.50900        -999.25        -999.25       22.91607     5505.94169
12971.00000        0.99596        1.48357        1.51830      670.78604        -999.25       90.22556        -999.25        -999.25       23.32490     5515.24862
12971.50000        0.97360        1.43614        1.49785      673.91561        -999.25       91.49103        -999.25        -999.25       23.33533     5524.75357
12972.00000        0.94636        1.39022        1.51740      677.04518        -999.25       92.75451        -999.25        -999.25       23.34576     5533.66445
12972.50000        0.91980        1.35467        1.60076      680.17476        -999.25       93.11379        -999.25        -999.25       23.35828     5542.77336
12973.00000        0.89406        1.32583        1.59867      683.30433        -999.25       90.77646        -999.25        -999.25       22.57191     5551.68425
12973.50000        0.86897        1.29761        1.57474      665.44405        -999.25       88.35131        -999.25        -999.25       21.38714     5560.79316
12974.00000        0.84466        1.26458        1.59310      647.58378        -999.25       85.92816        -999.25        -999.25       20.99917     5548.91198
12974.50000        0.83039        1.24277        1.63963      629.72351        -999.25       85.34533        -999.25        -999.25       21.40800     5517.82287
12975.00000        0.83055        1.22122        1.60590      611.86323        -999.25        -999.25        -999.25        -999.25       21.81683     5492.08031
12975.50000        0.84085        1.21974        1.55357      630.27975        -999.25        -999.25        -999.25        -999.25       21.82934     5466.13972
12976.00000        0.86707        1.29406        1.53334      648.77546        -999.25        -999.25        -999.25        -999.25       21.04297     5443.76349
12976.50000        0.89403        1.40660        1.91003      667.19198        -999.25        -999.25        -999.25        -999.25       20.65500     5434.65458
12977.00000        0.92182        1.49232        2.29379      685.60849        -999.25        -999.25        -999.25        -999.25       19.47023     5425.74369
12977.50000        0.93445        1.38408        2.17165      704.10421        -999.25        -999.25        -999.25        -999.25       19.08226     5416.83280
12978.00000        0.90267        1.20221        1.60421      722.52072        -999.25        -999.25        -999.25        -999.25       18.29589     5407.72389
12978.50000        0.86246        1.07318        1.31359      797.17417        -999.25        -999.25        -999.25        -999.25       17.11320     5453.07041
12979.00000        0.84271        1.06846        1.33073      871.82762        -999.25        -999.25        -999.25        -999.25       15.13163     5500.19912
12979.50000        0.83594        1.06229        1.36797      946.48107        -999.25        -999.25        -999.25        -999.25       12.75165     5547.32782
12980.00000        0.81762        1.01729        1.23275     1021.05532        -999.25        -999.25        -999.25        -999.25        9.17648     5594.45652
12980.50000        0.78306        0.92853        1.07489     1095.70877        -999.25        -999.25        -999.25        -999.25        5.60130     5600.99117
12981.00000        0.74995        0.83217        0.93724     1170.36222        -999.25        -999.25        -999.25        -999.25        2.42452     5597.03078
12981.50000        0.71212        0.75955        0.81721     1245.01567        -999.25        -999.25        -999.25        -999.25        0.04455     5593.26840
12982.00000        0.71472        0.72241        0.74026     1266.75888        -999.25        -999.25        -999.25        -999.25       -1.53863     5589.50602
12982.50000        0.72583        0.70619        0.70994     1288.50208        -999.25        -999.25        -999.25        -999.25       -4.31491     5584.95157
12983.00000        0.73712        0.68762        0.68093     1310.24529        -999.25        -999.25        -999.25        -999.25       -5.10129     5551.09019
12983.50000        0.74028        0.66784        0.66668     1331.98849        -999.25        -999.25        -999.25        -999.25       -3.89565     5509.90208
12984.00000        0.71139        0.64856        0.65266     1327.98944        -999.25        -999.25        -999.25        -999.25       -1.89322     5478.02090
12984.50000        0.68356        0.64488        0.63900     1323.99038        -999.25        -999.25        -999.25        -999.25        0.10921     5460.00111
12985.00000        0.65688        0.65425        0.65688     1271.51667        -999.25        -999.25        -999.25        -999.25        4.90254     5452.67437
12985.50000        0.66200        0.67799        0.68773     1218.96375        -999.25        -999.25        -999.25        -999.25        6.90498     5487.92189
12986.00000        0.68427        0.75815        0.79704     1166.49003        -999.25        -999.25        -999.25        -999.25       10.10261     5523.36743
12986.50000        0.71170        0.89168        0.95188     1113.93711        -999.25        -999.25        -999.25        -999.25       12.50345     5536.04069
12987.00000        0.74029        -999.25        -999.25     1061.46340        -999.25        -999.25        -999.25        -999.25       13.70908     5519.01099
12987.50000        0.77608        -999.25        -999.25     1008.91048        -999.25        -999.25        -999.25        -999.25       14.12000     5490.89219
12988.00000        0.80726        -999.25        -999.25      956.43677        -999.25        -999.25        -999.25        -999.25       13.73203     5462.57536
12988.50000        0.81907        -999.25        -999.25      903.88385        -999.25        -999.25        -999.25        -999.25       12.94565     5456.23873
12989.00000        0.80068        -999.25        -999.25      856.28226        -999.25        -999.25        -999.25        -999.25       12.55768     5482.77338
12989.50000        0.78271        -999.25        -999.25      832.48146        -999.25        -999.25        -999.25        -999.25       12.56811     5509.50604
12990.00000        -999.25        -999.25        -999.25      826.10620        -999.25        -999.25        -999.25        -999.25       12.57854     5536.23871
12990.50000        -999.25        -999.25        -999.25      819.73094        -999.25        -999.25        -999.25        -999.25       12.98946     5568.11989
12991.00000        -999.25        -999.25        -999.25      813.35567        -999.25        -999.25        -999.25        -999.25       12.99989     5582.77335
