~Version ---------------------------------------------------
VERS. 2.0 : CWLS LOG ASCII STANDARD - VERSION 2.0
WRAP. NO  : One line per depth step
DLM . SPACE : Column Data Section Delimiter
~Well ------------------------------------------------------
STRT.F         8350 : START DEPTH
STOP.F      12743.5 : STOP DEPTH
STEP.F          0.5 : STEP
NULL.       -999.25 : NULL VALUE
COMP.            AMOCO PRODUCTION COMPANY : COMPANY
WELL.             155847-SL862-011-862-30 : WELL
FLD .                  VERMILION BLOCK 15 : FIELD
CNTY.                           VERMILION : COUNTY
STAT.                           LOUISIANA : STATE
CTRY.                                 USA : COUNTRY
SEC .                                     : SECTION
TWP .                                     : TOWNSHIP
RGE .                                     : RANGE
LOC .                                     : LOCATION
EKB .F                    44.35 : ELEVATION KELLY BUSHING
EDF .F                     44.5 : ELEVATION DERRICK FLOOR
EGL .F                          : ELEVATION GROUND LEVEL
PDAT.                       BHF : PERMANENT DATUM
EPD .                           : ELEVATION PERMANENT DATUM
APD .                        33 : ABOVE PERMANENT DATUM
LMF .                       RKB : LOG MEASURED FROM
DMF .                       RKB : DRILLING MEASURED FROM
API .            17705200940000 : API NUMBER
UWI .                           : UWI NUMBER
DIGC.                     NthDS : DIGITIZING COMPANY
~Params ----------------------------------------------------
SRVC.                     WELEX : LOGGING COMPANY
LOG .                       CDL : LOG
DATE.                1977-09-17 : RUN DATE
RUN .                         1 : RUN NUMBER
TDD .F                    11102 : TOTAL DEPTH DRILLER
TDL .F                    11116 : TOTAL DEPTH LOGGER
BOTL.F                    11020 : BOTTOM LOGGED INTERVAL
TOPL.F                     8350 : TOP LOGGED INTERVAL
CSGS.IN                  13.375 : CASING SIZE
CSGD.F                     1800 : CASING DRILLER
CSGL.F                          : CASING LOGGER
BS  .IN                   12.25 : BIT SIZE
MUD .             LIGNO LIGNITE : MUD TYPE
MUDD.                      10.5 : MUD DENSITY
MUDV.                           : MUD VISCOSITY
PH  .                           : MUD PH
FL  .                           : FLUID LOSS
MUDS.                           : SOURCE OF SAMPLE
RM  .OHMM                       : MUD RESISTIVITY
RMT .DEGF                       : RM TEMPERATURE
RMF .OHMM                       : MUD FILTRATE RESISTIVITY
RMFT.DEGF                       : RMF TEMPERATURE
RMC .OHMM                       : MUD CAKE RESISTIVITY
RMCT.DEGF                       : RMC TEMPERATURE
RMFS.                           : RMF SOURCE
RMCS.                           : RMC SOURCE
RMBH.OHMM                       : MUD RESISTIVITY AT BHT
BHT .DEGF                       : BOTTOM HOLE TEMPERATURE
TIMC.                           : TIME CIRCULATION STOPPED
TIML.                           : TIME LOGGER ON BOTTOM
TMAX.DEGF                   194 : MAXIMUM RECORDED TEMPERATURE
UNIT.                           : EQUIPMENT NUMBER
BASE.                           : BASE LOCATION
ENG .          KNOLES, MOBERLEY : RECORDED BY
WIT .               MR. HUBBARD : WITNESSED BY
#
SRVC.                     WELEX : LOGGING COMPANY
LOG .                       CDL : LOG
DATE.                1977-12-08 : RUN DATE
RUN .                         2 : RUN NUMBER
TDD .F                    12749 : TOTAL DEPTH DRILLER
TDL .F                    12746 : TOTAL DEPTH LOGGER
BOTL.F                    12744 : BOTTOM LOGGED INTERVAL
TOPL.F                    12140 : TOP LOGGED INTERVAL
CSGS.IN                  13.375 : CASING SIZE
CSGD.F                     1800 : CASING DRILLER
CSGL.F                          : CASING LOGGER
BS  .IN                     6.5 : BIT SIZE
MUD .             LIGNO LIGNITE : MUD TYPE
MUDD.                      16.4 : MUD DENSITY
MUDV.                           : MUD VISCOSITY
PH  .                           : MUD PH
FL  .                           : FLUID LOSS
MUDS.                           : SOURCE OF SAMPLE
RM  .OHMM                       : MUD RESISTIVITY
RMT .DEGF                       : RM TEMPERATURE
RMF .OHMM                       : MUD FILTRATE RESISTIVITY
RMFT.DEGF                       : RMF TEMPERATURE
RMC .OHMM                       : MUD CAKE RESISTIVITY
RMCT.DEGF                       : RMC TEMPERATURE
RMFS.                           : RMF SOURCE
RMCS.                           : RMC SOURCE
RMBH.OHMM                       : MUD RESISTIVITY AT BHT
BHT .DEGF                       : BOTTOM HOLE TEMPERATURE
TIMC.                           : TIME CIRCULATION STOPPED
TIML.                           : TIME LOGGER ON BOTTOM
TMAX.DEGF                   235 : MAXIMUM RECORDED TEMPERATURE
UNIT.                           : EQUIPMENT NUMBER
BASE.                           : BASE LOCATION
ENG .                  CROTHERS : RECORDED BY
WIT .               MR. HUBBARD : WITNESSED BY
~Curve Information -----------------------------------------
DEPT.F          :DEPTH
CALI.IN         :
DPHI.%          :
DRHO.G/CC       :
GR.GAPI         :
NPHI.%          :
RHOB.G/CC       :
~ASCII ------------------------------------------------------
# ...
8870.00000       14.64021       18.72782       -0.00205       85.60040       42.07101        2.32825
8870.50000       14.62040       18.79941       -0.00198       85.33686       41.72130        2.32866
8871.00000       14.50490       19.34912       -0.00445       84.42049       41.37160        2.32000
8871.50000       14.31993       19.17989       -0.00692       83.50412       42.05148        2.31599
8872.00000       14.26254       19.55622        0.00025       82.66760       42.78107        2.30393
8872.50000       14.39675       19.68817        0.00240       82.15279       43.65681        2.30325
8873.00000       14.44093       19.35326        0.00169       81.63564       44.26036        2.31103
8873.50000       14.46241       19.01776        0.00099       81.11849       43.96450        2.31883
8874.00000       14.29446       18.91539        0.00500       81.36689       44.23669        2.32662
8874.50000       14.30264       19.08699        0.00901       81.61529       46.23669        2.32436
8875.00000       14.40303       18.98580        0.01303       81.97172       46.42722        2.32210
8875.50000       14.58734       19.38876        0.01739       82.75084       46.39053        2.31594
8876.00000       14.65696       20.14438        0.01355       83.52997       46.21302        2.30879
8876.50000       14.70897       20.10651        0.02203       84.38893       46.68639        2.30021
8877.00000       14.62713       20.81657        0.01877       85.32597       47.98817        2.28901
8877.50000       14.59479       21.97870        0.01260       86.49727       47.56568        2.27171
8878.00000       14.63643       23.19527        0.01021       87.66856       47.79586        2.25441
8878.50000       14.60606       24.08284        0.01351       87.70561       48.46154        2.23710
8879.00000       14.57568       24.83255        0.01680       86.03778       47.39645        2.22178
8879.50000       14.60440       25.98284        0.01573       84.37229       48.08698        2.20695
8880.00000       14.72158       28.61361        0.00813       82.70681       48.25444        2.16214
8880.50000       14.80647       31.44971        0.00053       81.03897       48.52071        2.11733
8881.00000       14.84283       32.78935       -0.00707       79.79853       47.15976        2.07253
8881.50000       15.06529       33.19527       -0.01467       78.84224       46.36095        2.06429
8882.00000       15.33902       29.56628       -0.01910       77.88595       45.64083        2.10732
8882.50000       15.63232       26.24852       -0.01087       77.93710       46.13432        2.16318
8883.00000       15.62621       24.80296       -0.00636       79.49821       47.21894        2.20945
8883.50000       15.42049       24.55622       -0.00747       81.06168       45.14793        2.21734
8884.00000       15.14237       24.18639       -0.00272       82.62515       44.31953        2.22524
8884.50000       15.13234       23.58580        0.00593       84.18626       46.90829        2.23396
8885.00000       15.12232       23.15326        0.01203       83.50238       48.28403        2.24594
8885.50000       15.13441       23.49113        0.00791       81.31791       48.93491        2.24588
8886.00000       15.12463       22.06095        0.00378       79.13580       50.31539        2.27316
8886.50000       15.04063       19.78048       -0.00033       78.69614       46.75562        2.30043
8887.00000       15.01750       17.71184        0.00586       77.89953       45.62130        2.32770
8887.50000       15.00982       16.56805        0.01891       76.57690       43.93491        2.35498
8888.00000       14.80782       15.68048        0.03198       73.63862       42.07101        2.37082
8888.50000       14.47490       16.46924        0.03261       73.87059       41.18343        2.37048
8889.00000       14.51380       17.17160        0.02922       74.64267       38.99409        2.35729
8889.50000       14.69419       17.85208        0.02499       74.02923       38.94497        2.34411
8890.00000       14.87458       18.57989        0.02075       72.33557       38.81657        2.33093
8890.50000       14.89958       19.08876        0.01651       72.33270       35.12841        2.31774
8891.00000       14.69132       18.84024        0.01864       72.33040       35.50296        2.32156
8891.50000       14.68306       18.10651        0.02499       72.32753       37.33728        2.33673
8892.00000       14.65210       17.31776        0.03133       73.17006       40.26627        2.35190
8892.50000       14.51213       17.72782        0.02668       74.88382       42.49527        2.34984
8893.00000       14.53361       18.04734        0.02997       76.80189       42.24852        2.34348
8893.50000       14.54590       18.34320        0.02767       78.71995       38.10651        2.33711
8894.00000       14.41357       18.66864        0.02396       80.63801       37.11125        2.33075
8894.50000       14.11979       19.14202        0.01904       82.37291       39.23610        2.32312
8895.00000       13.82601       20.21953        0.01230       83.36338       41.36095        2.31100
8895.50000       13.65747       21.46213        0.00557       84.35386       40.23136        2.29024
8896.00000       13.86467       22.26569       -0.00117       85.80460       39.10178        2.26948
8896.50000       14.06012       22.00000       -0.00791       86.32071       37.81065        2.26270
8897.00000       14.15773       21.46746       -0.00410       84.97695       38.03906        2.27690
8897.50000       14.20641       20.41421       -0.00031       81.49855       39.18343        2.29109
8898.00000       14.15725       20.10356       -0.00116       78.44286       40.06746        2.29977
8898.50000       14.22218       20.91716       -0.00897       77.07796       41.88521        2.28643
8899.00000       14.26578       20.79882       -0.01680       77.97919       43.43195        2.27752
8899.50000       14.22366       20.50888       -0.00514       79.63894       41.91302        2.28641
8900.00000       14.24757       20.36687       -0.01057       80.77695       41.04556        2.29665
8900.50000       14.16776       19.73544       -0.00659       80.33085       37.31491        2.31104
8901.00000       13.90382       18.08470        0.00949       80.92915       36.75815        2.33965
8901.50000       13.87352       18.15400        0.00751       82.22292       37.52814        2.33676
8902.00000       13.89292       18.24285        0.00656       81.67780       38.30227        2.33387
8902.50000       13.96125       17.81106        0.00970       80.61402       40.45410        2.34117
8903.00000       14.04195       17.17671        0.01285       80.61114       41.25785        2.35103
8903.50000       14.12266       17.62093        0.01038       81.55128       40.72063        2.35023
8904.00000       14.21927       17.82824        0.00791       78.95509       40.67384        2.34677
8904.50000       14.34005       17.86200        0.01355       77.18404       42.70484        2.34331
8905.00000       14.46064       17.63989        0.01264       76.47390       42.07049        2.33985
8905.50000       14.55450       17.88214        0.00734       75.99951       41.15005        2.33832
8906.00000       14.64149       18.12439        0.00205       75.40724       41.50069        2.33727
8906.50000       14.67406       18.12439        0.00406       77.05465       42.88253        2.33622
8907.00000       14.66282       18.12439        0.00791       77.79675       40.76032        2.33517
8907.50000       14.64077       18.08707        0.00252       78.53886       39.62488        2.34415
8908.00000       14.80026       17.45331       -0.00288       79.27861       40.51333        2.35311
8908.50000       14.91377       16.77513        0.00000       79.51856       44.18559        2.36209
8909.00000       14.95891       16.05134        0.00099       76.92237       41.87562        2.37106
8909.50000       15.00405       15.85410       -0.00395       70.43621       42.38914        2.38004
