~Version ---------------------------------------------------
VERS. 2.0 : CWLS LOG ASCII STANDARD - VERSION 2.0
WRAP. NO  : One line per depth step
DLM . SPACE : Column Data Section Delimiter
~Well ------------------------------------------------------
STRT.F         8350 : START DEPTH
STOP.F      12743.5 : STOP DEPTH
STEP.F          0.5 : STEP
NULL.       -999.25 : NULL VALUE
COMP.            AMOCO PRODUCTION COMPANY : COMPANY
WELL.             155847-SL862-011-862-30 : WELL
FLD .                  VERMILION BLOCK 15 : FIELD
CNTY.                           VERMILION : COUNTY
STAT.                           LOUISIANA : STATE
CTRY.                                 USA : COUNTRY
SEC .                                     : SECTION
TWP .                                     : TOWNSHIP
RGE .                                     : RANGE
LOC .                                     : LOCATION
EKB .F                    44.35 : ELEVATION KELLY BUSHING
EDF .F                     44.5 : ELEVATION DERRICK FLOOR
EGL .F                          : ELEVATION GROUND LEVEL
PDAT.                       BHF : PERMANENT DATUM
EPD .                           : ELEVATION PERMANENT DATUM
APD .                        33 : ABOVE PERMANENT DATUM
LMF .                       RKB : LOG MEASURED FROM
DMF .                       RKB : DRILLING MEASURED FROM
API .            17705200940000 : API NUMBER
UWI .                           : UWI NUMBER
DIGC.                     NthDS : DIGITIZING COMPANY
~Params ----------------------------------------------------
SRVC.                     WELEX : LOGGING COMPANY
LOG .                       CDL : LOG
DATE.                1977-09-17 : RUN DATE
RUN .                         1 : RUN NUMBER
TDD .F                    11102 : TOTAL DEPTH DRILLER
TDL .F                    11116 : TOTAL DEPTH LOGGER
BOTL.F                    11020 : BOTTOM LOGGED INTERVAL
TOPL.F                     8350 : TOP LOGGED INTERVAL
CSGS.IN                  13.375 : CASING SIZE
CSGD.F                     1800 : CASING DRILLER
CSGL.F                          : CASING LOGGER
BS  .IN                   12.25 : BIT SIZE
MUD .             LIGNO LIGNITE : MUD TYPE
MUDD.                      10.5 : MUD DENSITY
MUDV.                           : MUD VISCOSITY
PH  .                           : MUD PH
FL  .                           : FLUID LOSS
MUDS.                           : SOURCE OF SAMPLE
RM  .OHMM                       : MUD RESISTIVITY
RMT .DEGF                       : RM TEMPERATURE
RMF .OHMM                       : MUD FILTRATE RESISTIVITY
RMFT.DEGF                       : RMF TEMPERATURE
RMC .OHMM                       : MUD CAKE RESISTIVITY
RMCT.DEGF                       : RMC TEMPERATURE
RMFS.                           : RMF SOURCE
RMCS.                           : RMC SOURCE
RMBH.OHMM                       : MUD RESISTIVITY AT BHT
BHT .DEGF                       : BOTTOM HOLE TEMPERATURE
TIMC.                           : TIME CIRCULATION STOPPED
TIML.                           : TIME LOGGER ON BOTTOM
TMAX.DEGF                   194 : MAXIMUM RECORDED TEMPERATURE
UNIT.                           : EQUIPMENT NUMBER
BASE.                           : BASE LOCATION
ENG .          KNOLES, MOBERLEY : RECORDED BY
WIT .               MR. HUBBARD : WITNESSED BY
#
SRVC.                     WELEX : LOGGING COMPANY
LOG .                       CDL : LOG
DATE.                1977-12-08 : RUN DATE
RUN .                         2 : RUN NUMBER
TDD .F                    12749 : TOTAL DEPTH DRILLER
TDL .F                    12746 : TOTAL DEPTH LOGGER
BOTL.F                    12744 : BOTTOM LOGGED INTERVAL
TOPL.F                    12140 : TOP LOGGED INTERVAL
CSGS.IN                  13.375 : CASING SIZE
CSGD.F                     1800 : CASING DRILLER
CSGL.F                          : CASING LOGGER
BS  .IN                     6.5 : BIT SIZE
MUD .             LIGNO LIGNITE : MUD TYPE
MUDD.                      16.4 : MUD DENSITY
MUDV.                           : MUD VISCOSITY
PH  .                           : MUD PH
FL  .                           : FLUID LOSS
MUDS.                           : SOURCE OF SAMPLE
RM  .OHMM                       : MUD RESISTIVITY
RMT .DEGF                       : RM TEMPERATURE
RMF .OHMM                       : MUD FILTRATE RESISTIVITY
RMFT.DEGF                       : RMF TEMPERATURE
RMC .OHMM                       : MUD CAKE RESISTIVITY
RMCT.DEGF                       : RMC TEMPERATURE
RMFS.                           : RMF SOURCE
RMCS.                           : RMC SOURCE
RMBH.OHMM                       : MUD RESISTIVITY AT BHT
BHT .DEGF                       : BOTTOM HOLE TEMPERATURE
TIMC.                           : TIME CIRCULATION STOPPED
TIML.                           : TIME LOGGER ON BOTTOM
TMAX.DEGF                   235 : MAXIMUM RECORDED TEMPERATURE
UNIT.                           : EQUIPMENT NUMBER
BASE.                           : BASE LOCATION
ENG .                  CROTHERS : RECORDED BY
WIT .               MR. HUBBARD : WITNESSED BY
~Curve Information -----------------------------------------
DEPT.F          :DEPTH
CALI.IN         :
DPHI.%          :
DRHO.G/CC       :
GR.GAPI         :
NPHI.%          :
RHOB.G/CC       :
~ASCII ------------------------------------------------------
# ...
10069.00000       13.34774       26.88503       -0.04568       48.99724       30.63573        2.18323
10069.50000       13.24951       27.56015       -0.05111       45.89468       29.95185        2.18047
10070.00000       13.20039       27.86286       -0.05755       42.78977       29.09832        2.17240
10070.50000       13.22986       26.17939       -0.05967       39.06482       28.42567        2.14567
10071.00000       13.17092       24.11168       -0.04452       35.95991       28.64208        2.20055
10071.50000       13.11198       22.38091       -0.02937       33.74145       29.18066        2.24446
10072.00000       13.05304       20.87478       -0.01564       35.06875       30.38011        2.28311
10072.50000       13.09843       20.90616       -0.01350       39.68486       33.51457        2.28656
10073.00000       13.14381       21.92946       -0.01845       46.49586       35.52564        2.26923
10073.50000       13.14204       22.81739       -0.02144       50.16423       36.28234        2.25448
10074.00000       13.07014       22.99596       -0.02146       53.04517       36.72043        2.24911
10074.50000       12.99803       23.23365       -0.02603       52.73162       35.88404        2.24465
10075.00000       12.96797       23.62917       -0.03362       52.41570       34.21061        2.24018
10075.50000       13.00059       23.71908       -0.04120       52.10215       32.20674        2.23070
10076.00000       13.03340       24.74499       -0.04006       49.98034       31.54296        2.21373
10076.50000       13.07623       24.12555       -0.03310       47.03339       31.07130        2.22443
10077.00000       13.13438       23.94945       -0.02866       44.08643       30.72791        2.23513
10077.50000       13.19234       23.77334       -0.03546       41.13948       30.42767        2.23855
10078.00000       13.25049       24.07015       -0.02652       38.19253       30.30241        2.23712
10078.50000       13.30845       23.85444       -0.01758       36.17445       33.16495        2.23569
10079.00000       13.24794       23.85568       -0.01502       37.87897       35.12046        2.23200
10079.50000       13.18762       24.08687       -0.01985       39.79095       37.07537        2.22598
10080.00000       13.19548       24.64081       -0.02612       42.01649       40.03580        2.21730
10080.50000       13.32809       24.94352       -0.03239       47.89154       41.61357        2.20863
10081.00000       13.43851       24.58417       -0.02709       52.77641       41.95968        2.21822
10081.50000       13.44597       24.18463       -0.01890       55.63849       41.99048        2.22780
10082.00000       13.29862       23.78449       -0.01071       56.34576       41.32670        2.23738
10082.50000       13.15128       23.72661       -0.00555       57.05303       40.82075        2.23230
10083.00000       13.11434       24.79213       -0.01254       50.68761       40.55066        2.21745
10083.50000       13.15128       25.19001       -0.01952       49.03732       40.28116        2.20774
10084.00000       13.18801       24.85372       -0.02651       47.38702       40.90308        2.21515
10084.50000       13.21513       25.20963       -0.02501       48.44793       42.04520        2.20750
10085.00000       13.22750       24.80772       -0.02140       49.50883       42.01688        2.21513
10085.50000       13.23968       24.40581       -0.01777       50.50608       41.91171        2.22275
10086.00000       13.22986       24.62222       -0.01416       51.50333       41.23788        2.21272
10086.50000       13.13163       25.17793       -0.01390       51.81924       40.26140        2.19828
10087.00000       13.03340       26.47197       -0.02707       52.04792       39.28491        2.17407
10087.50000       12.98684       28.05447       -0.04024       53.67936       38.39946        2.13519
10088.00000       13.14636       28.70620       -0.04941       55.31315       38.00405        2.14754
10088.50000       13.37976       25.75180       -0.04253       54.06600       38.34282        2.20469
10089.00000       13.66208       24.89565       -0.03566       53.82553       37.64535        2.22100
10089.50000       13.94460       24.01020       -0.02878       54.73083       36.94787        2.23274
10090.00000       14.15324       24.23809       -0.02340       55.63849       36.04114        2.22625
10090.50000       13.93025       24.49588       -0.02417       52.40627       33.18545        2.21978
10091.00000       13.68742       24.75307       -0.02110       44.51079       32.04345        2.22014
10091.50000       13.44479       24.45875       -0.01709       31.89547       31.47366        2.22506
10092.00000       13.33693       25.16934       -0.01888       23.65343       31.96731        2.21392
10092.50000       13.31925       26.14594       -0.02454       25.69744       32.50056        2.20277
10093.00000       13.27839       26.36589       -0.03021       28.34970       33.21140        2.19163
10093.50000       13.20334       27.13855       -0.03586       31.52769       33.80376        2.18048
10094.00000       13.12809       26.66039       -0.03730       35.49312       33.81091        2.17552
10094.50000       13.05304       25.35287       -0.03240       38.15245       33.42792        2.19529
10095.00000       13.10216       25.86070       -0.02749       35.59921       33.20453        2.20349
10095.50000       13.15128       26.36854       -0.03343       30.66954       32.87001        2.19434
10096.00000       13.20039       26.45041       -0.03938       25.73988       32.39125        2.18336
10096.50000       13.20412       25.63885       -0.04532       24.28290       32.56155        2.19368
10097.00000       13.19666       25.65487       -0.03795       25.46168       32.51195        2.20401
10097.50000       13.21021       27.42949       -0.03669       26.64047       32.31634        2.18176
10098.00000       13.30845       27.21792       -0.03948       27.50569       32.10088        2.16615
10098.50000       13.37092       27.41896       -0.03457       27.89705       32.33833        2.17022
10099.00000       13.37996       27.84699       -0.04138       28.29076       32.47730        2.16427
10099.50000       13.39293       27.25710       -0.04071       26.92337       32.57725        2.16291
10100.00000       13.42240       26.52300       -0.02686       22.91552       33.22033        2.17969
10100.50000       13.41076       26.49403       -0.01491       20.60195       33.70310        2.19029
10101.00000       13.38043       26.92824       -0.01493       21.02935       34.19772        2.18717
10101.50000       13.35010       27.40332       -0.01864       21.63757       34.80133        2.17792
10102.00000       13.31957       27.73920       -0.02478       22.98082       35.83908        2.16867
10102.50000       13.28924       27.45614       -0.03094       23.24853       36.25967        2.16586
10103.00000       13.25890       27.08068       -0.03520       23.24853       36.68085        2.17268
10103.50000       13.23503       26.84975       -0.03193       23.24853       37.25661        2.17952
10104.00000       13.22113       27.19629       -0.03958       24.37573       37.83001        2.17735
10104.50000       13.20724       26.90139       -0.04724       28.20586       38.40400        2.17294
10105.00000       13.19315       26.56206       -0.04589       32.64187       38.84769        2.18319
10105.50000       13.17671       25.89697       -0.03104       34.79529       39.31269        2.19345
10106.00000       13.15068       25.88103       -0.01618       35.72993       40.32439        2.19762
10106.50000       13.12466       26.09964       -0.01936       36.36398       40.85159        2.19265
10107.00000       13.11683       25.47873       -0.02254       37.36672       41.45993        2.20068
10107.50000       13.18199       24.89478       -0.01428       39.86300       42.12217        2.21735
10108.00000       13.24716       25.19217       -0.00587       44.85322       42.78382        2.20744
