~Version ---------------------------------------------------
VERS. 2.0 : CWLS LOG ASCII STANDARD - VERSION 2.0
WRAP. NO  : One line per depth step
DLM . SPACE : Column Data Section Delimiter
~Well ------------------------------------------------------
STRT.F         8350 : START DEPTH
STOP.F      12743.5 : STOP DEPTH
STEP.F          0.5 : STEP
NULL.       -999.25 : NULL VALUE
COMP.            AMOCO PRODUCTION COMPANY : COMPANY
WELL.             155847-SL862-011-862-30 : WELL
FLD .                  VERMILION BLOCK 15 : FIELD
CNTY.                           VERMILION : COUNTY
STAT.                           LOUISIANA : STATE
CTRY.                                 USA : COUNTRY
SEC .                                     : SECTION
TWP .                                     : TOWNSHIP
RGE .                                     : RANGE
LOC .                                     : LOCATION
EKB .F                    44.35 : ELEVATION KELLY BUSHING
EDF .F                     44.5 : ELEVATION DERRICK FLOOR
EGL .F                          : ELEVATION GROUND LEVEL
PDAT.                       BHF : PERMANENT DATUM
EPD .                           : ELEVATION PERMANENT DATUM
APD .                        33 : ABOVE PERMANENT DATUM
LMF .                       RKB : LOG MEASURED FROM
DMF .                       RKB : DRILLING MEASURED FROM
API .            17705200940000 : API NUMBER
UWI .                           : UWI NUMBER
DIGC.                     NthDS : DIGITIZING COMPANY
~Params ----------------------------------------------------
SRVC.                     WELEX : LOGGING COMPANY
LOG .                       CDL : LOG
DATE.                1977-09-17 : RUN DATE
RUN .                         1 : RUN NUMBER
TDD .F                    11102 : TOTAL DEPTH DRILLER
TDL .F                    11116 : TOTAL DEPTH LOGGER
BOTL.F                    11020 : BOTTOM LOGGED INTERVAL
TOPL.F                     8350 : TOP LOGGED INTERVAL
CSGS.IN                  13.375 : CASING SIZE
CSGD.F                     1800 : CASING DRILLER
CSGL.F                          : CASING LOGGER
BS  .IN                   12.25 : BIT SIZE
MUD .             LIGNO LIGNITE : MUD TYPE
MUDD.                      10.5 : MUD DENSITY
MUDV.                           : MUD VISCOSITY
PH  .                           : MUD PH
FL  .                           : FLUID LOSS
MUDS.                           : SOURCE OF SAMPLE
RM  .OHMM                       : MUD RESISTIVITY
RMT .DEGF                       : RM TEMPERATURE
RMF .OHMM                       : MUD FILTRATE RESISTIVITY
RMFT.DEGF                       : RMF TEMPERATURE
RMC .OHMM                       : MUD CAKE RESISTIVITY
RMCT.DEGF                       : RMC TEMPERATURE
RMFS.                           : RMF SOURCE
RMCS.                           : RMC SOURCE
RMBH.OHMM                       : MUD RESISTIVITY AT BHT
BHT .DEGF                       : BOTTOM HOLE TEMPERATURE
TIMC.                           : TIME CIRCULATION STOPPED
TIML.                           : TIME LOGGER ON BOTTOM
TMAX.DEGF                   194 : MAXIMUM RECORDED TEMPERATURE
UNIT.                           : EQUIPMENT NUMBER
BASE.                           : BASE LOCATION
ENG .          KNOLES, MOBERLEY : RECORDED BY
WIT .               MR. HUBBARD : WITNESSED BY
#
SRVC.                     WELEX : LOGGING COMPANY
LOG .                       CDL : LOG
DATE.                1977-12-08 : RUN DATE
RUN .                         2 : RUN NUMBER
TDD .F                    12749 : TOTAL DEPTH DRILLER
TDL .F                    12746 : TOTAL DEPTH LOGGER
BOTL.F                    12744 : BOTTOM LOGGED INTERVAL
TOPL.F                    12140 : TOP LOGGED INTERVAL
CSGS.IN                  13.375 : CASING SIZE
CSGD.F                     1800 : CASING DRILLER
CSGL.F                          : CASING LOGGER
BS  .IN                     6.5 : BIT SIZE
MUD .             LIGNO LIGNITE : MUD TYPE
MUDD.                      16.4 : MUD DENSITY
MUDV.                           : MUD VISCOSITY
PH  .                           : MUD PH
FL  .                           : FLUID LOSS
MUDS.                           : SOURCE OF SAMPLE
RM  .OHMM                       : MUD RESISTIVITY
RMT .DEGF                       : RM TEMPERATURE
RMF .OHMM                       : MUD FILTRATE RESISTIVITY
RMFT.DEGF                       : RMF TEMPERATURE
RMC .OHMM                       : MUD CAKE RESISTIVITY
RMCT.DEGF                       : RMC TEMPERATURE
RMFS.                           : RMF SOURCE
RMCS.                           : RMC SOURCE
RMBH.OHMM                       : MUD RESISTIVITY AT BHT
BHT .DEGF                       : BOTTOM HOLE TEMPERATURE
TIMC.                           : TIME CIRCULATION STOPPED
TIML.                           : TIME LOGGER ON BOTTOM
TMAX.DEGF                   235 : MAXIMUM RECORDED TEMPERATURE
UNIT.                           : EQUIPMENT NUMBER
BASE.                           : BASE LOCATION
ENG .                  CROTHERS : RECORDED BY
WIT .               MR. HUBBARD : WITNESSED BY
~Curve Information -----------------------------------------
DEPT.F          :DEPTH
CALI.IN         :
DPHI.%          :
DRHO.G/CC       :
GR.GAPI         :
NPHI.%          :
RHOB.G/CC       :
~ASCII ------------------------------------------------------
# ...
12557.50000        7.54558       14.75099        0.00428       51.76802       59.87668        2.39876
12558.00000        7.52734       14.05139        0.00733       50.65236       59.58498        2.41155
12558.50000        7.53754       13.87352        0.01265       50.65629       58.99209        2.42434
12559.00000        7.59009       14.07095        0.01224       49.39946       58.71047        2.41559
12559.50000        7.64284       12.80633        0.00886       48.31124       58.89605        2.43599
12560.00000        7.68323       13.21661        0.00883       51.25633       59.47470        2.43186
12560.50000        7.70558       13.62748        0.00881       54.93671       59.86779        2.42162
12561.00000        7.75657       13.39922        0.00470       56.06808       59.83340        2.41555
12561.50000        7.82696       12.95040        0.00386       53.37596       59.79960        2.42621
12562.00000        7.89755       11.97629        0.00384       54.14852       59.76522        2.43686
12562.50000        7.96794       12.02728        0.00381       53.88971       59.73083        2.44752
12563.00000        7.98794       11.58499        0.00611       52.37013       59.07391        2.45817
12563.50000        7.93226       10.64645        0.00840       52.85249       57.50099        2.47244
12564.00000        7.89344        9.78261        0.01069       51.05841       55.92747        2.49213
12564.50000        7.85461        9.38716        0.01197       50.86038       53.69407        2.49277
12565.00000        7.81579        9.78261        0.00919       50.64275       51.29526        2.48865
12565.50000        7.83579        9.01186        0.00641       50.31924       48.96759        2.49585
12566.00000        7.85579        7.88538        0.00363       51.69571       46.68735        2.52006
12566.50000        7.97972        6.68005       -0.01069       53.17022       44.40712        2.54426
12567.00000        8.00952        7.69922       -0.02501       52.68397       41.93656        2.51879
12567.50000        8.01952        7.86167       -0.03666       53.52907       39.54546        2.51404
12568.00000        7.94972        7.94467       -0.04429       52.39772       37.47036        2.51447
12568.50000        7.88011        8.62649       -0.04443       49.91148       36.42688        2.50556
12569.00000        7.81051        9.98005       -0.03956       47.71347       35.71542        2.49041
12569.50000        7.74090       10.36364       -0.04856       46.03703       35.81028        2.47526
12570.00000        7.68992       11.26483       -0.04183       37.14692       38.45218        2.45368
12570.50000        7.63895       12.96226       -0.03119       35.82146       41.58083        2.43048
12571.00000        7.58797       14.62945       -0.02988       34.49403       45.71146        2.40728
12571.50000        7.53699       14.30040       -0.03480       33.11171       52.35178        2.40899
12572.00000        7.46915       12.33202       -0.03396       26.84118       54.31542        2.44804
12572.50000        7.39680        9.16009       -0.02452       25.88552       55.31621        2.48711
12573.00000        7.32464        9.11858       -0.01507       24.69142       54.72332        2.50709
12573.50000        7.25249        9.07115       -0.00468       27.44122       53.53755        2.49845
12574.00000        7.18014        9.59467        0.00942       31.95492       52.35178        2.48982
12574.50000        7.12269       10.73123        0.02017       34.50786       51.52174        2.46886
12575.00000        7.08739       12.07767        0.02591       36.08041       52.29249        2.44791
12575.50000        7.07465       13.75495        0.03163       37.18237       55.79051        2.42696
12576.00000        7.15132       14.78835        0.03736       35.76083       57.37174        2.40600
12576.50000        7.20720       15.19744        0.03000       38.73925       57.33202        2.39374
12577.00000        7.23210       12.92491        0.02903       40.29807       56.14625        2.41624
12577.50000        7.25701       12.36167        0.03766       39.04124       54.90119        2.43875
12578.00000        7.41681       12.80633        0.04629       41.79025       53.06324        2.44505
12578.50000        7.68073       14.12254        0.04744       45.51964       51.22530        2.42703
12579.00000        8.07787       15.59289        0.04383       48.46473       49.15020        2.40902
12579.50000        7.98407       16.36364        0.03590       47.68436       48.08301        2.39102
12580.00000        7.68152       16.35178        0.02798       45.61968       47.57194        2.37301
12580.50000        7.37878       16.12649        0.02497       45.35695       48.27569        2.37491
12581.00000        7.34466       16.42293        0.02354       45.56285       49.22431        2.38179
12581.50000        7.37780       16.83795        0.02254       47.65108       50.50079        2.37921
12582.00000        7.51074       16.54151        0.02322       48.09619       51.81818        2.37427
12582.50000        7.64388       16.71937        0.02388       47.44719       53.02885        2.36933
12583.00000        7.80357       17.00752        0.02456       47.24132       54.23893        2.36438
12583.50000        7.95592       17.26127        0.02523       49.04916       55.71403        2.35944
12584.00000        8.11318       16.81838        0.03162       51.40602       57.30949        2.35893
12584.50000        8.27043       15.40317        0.03803       51.85897       58.68083        2.37615
12585.00000        8.30710       14.48597        0.04442       50.97272       59.18597        2.39338
12585.50000        8.31357       15.17787        0.05049       50.08451       59.07806        2.41060
12586.00000        8.32024       15.38538        0.05649       51.65706       59.72134        2.39939
12586.50000        8.34828       14.24408        0.06201       53.71980       59.81028        2.38817
12587.00000        8.39436       13.81423        0.06565       55.78254       59.82213        2.41023
12587.50000        8.45495       13.45850        0.06709       60.36095       59.52569        2.42586
12588.00000        8.51573       12.70732        0.06218       64.39113       59.88142        2.43170
12588.50000        8.50573       13.16206        0.05726       63.27350       59.88142        2.43753
12589.00000        8.44868       15.00001        0.05064       61.58333       59.88142        2.43395
12589.50000        8.39162       15.35574        0.04402       60.21473       59.88142        2.41626
12590.00000        8.33456       15.68538        0.03740       60.70886       58.99209        2.39857
12590.50000        8.27751       14.66384        0.03078       58.35987       57.15415        2.38087
12591.00000        8.22045       13.73538        0.02988       54.44149       56.18004        2.39709
12591.50000        8.28771       13.43479        0.03754       55.45326       55.36779        2.41331
12592.00000        8.28653       11.89981        0.04520       57.68541       54.66403        2.42953
12592.50000        8.21908       11.22273        0.05286       56.21798       54.87569        2.44576
12593.00000        8.15163       11.20554        0.05840       54.56899       55.89427        2.46198
12593.50000        8.14497       10.41522        0.05700       58.77564       58.69565        2.46829
12594.00000        8.13850       11.06325        0.06000       56.05607       59.40711        2.46540
12594.50000        8.13321       10.12352        0.05553       53.88080       58.39091        2.46251
12595.00000        8.13360        8.75277        0.05106       48.39459       56.70356        2.48220
12595.50000        8.13399        9.10080        0.05452       47.41814       54.56917        2.50188
12596.00000        8.13439        9.98005        0.04122       48.79461       52.41107        2.50543
12596.50000        8.13478       11.29447        0.01674       52.39264       49.50593        2.48480
