~Version ---------------------------------------------------
VERS. 2.0 : CWLS LOG ASCII STANDARD - VERSION 2.0
WRAP. NO  : One line per depth step
DLM . SPACE : Column Data Section Delimiter
~Well ------------------------------------------------------
STRT.F         8350 : START DEPTH
STOP.F      12743.5 : STOP DEPTH
STEP.F          0.5 : STEP
NULL.       -999.25 : NULL VALUE
COMP.            AMOCO PRODUCTION COMPANY : COMPANY
WELL.             155847-SL862-011-862-30 : WELL
FLD .                  VERMILION BLOCK 15 : FIELD
CNTY.                           VERMILION : COUNTY
STAT.                           LOUISIANA : STATE
CTRY.                                 USA : COUNTRY
SEC .                                     : SECTION
TWP .                                     : TOWNSHIP
RGE .                                     : RANGE
LOC .                                     : LOCATION
EKB .F                    44.35 : ELEVATION KELLY BUSHING
EDF .F                     44.5 : ELEVATION DERRICK FLOOR
EGL .F                          : ELEVATION GROUND LEVEL
PDAT.                       BHF : PERMANENT DATUM
EPD .                           : ELEVATION PERMANENT DATUM
APD .                        33 : ABOVE PERMANENT DATUM
LMF .                       RKB : LOG MEASURED FROM
DMF .                       RKB : DRILLING MEASURED FROM
API .            17705200940000 : API NUMBER
UWI .                           : UWI NUMBER
DIGC.                     NthDS : DIGITIZING COMPANY
~Params ----------------------------------------------------
SRVC.                     WELEX : LOGGING COMPANY
LOG .                       CDL : LOG
DATE.                1977-09-17 : RUN DATE
RUN .                         1 : RUN NUMBER
TDD .F                    11102 : TOTAL DEPTH DRILLER
TDL .F                    11116 : TOTAL DEPTH LOGGER
BOTL.F                    11020 : BOTTOM LOGGED INTERVAL
TOPL.F                     8350 : TOP LOGGED INTERVAL
CSGS.IN                  13.375 : CASING SIZE
CSGD.F                     1800 : CASING DRILLER
CSGL.F                          : CASING LOGGER
BS  .IN                   12.25 : BIT SIZE
MUD .             LIGNO LIGNITE : MUD TYPE
MUDD.                      10.5 : MUD DENSITY
MUDV.                           : MUD VISCOSITY
PH  .                           : MUD PH
FL  .                           : FLUID LOSS
MUDS.                           : SOURCE OF SAMPLE
RM  .OHMM                       : MUD RESISTIVITY
RMT .DEGF                       : RM TEMPERATURE
RMF .OHMM                       : MUD FILTRATE RESISTIVITY
RMFT.DEGF                       : RMF TEMPERATURE
RMC .OHMM                       : MUD CAKE RESISTIVITY
RMCT.DEGF                       : RMC TEMPERATURE
RMFS.                           : RMF SOURCE
RMCS.                           : RMC SOURCE
RMBH.OHMM                       : MUD RESISTIVITY AT BHT
BHT .DEGF                       : BOTTOM HOLE TEMPERATURE
TIMC.                           : TIME CIRCULATION STOPPED
TIML.                           : TIME LOGGER ON BOTTOM
TMAX.DEGF                   194 : MAXIMUM RECORDED TEMPERATURE
UNIT.                           : EQUIPMENT NUMBER
BASE.                           : BASE LOCATION
ENG .          KNOLES, MOBERLEY : RECORDED BY
WIT .               MR. HUBBARD : WITNESSED BY
#
SRVC.                     WELEX : LOGGING COMPANY
LOG .                       CDL : LOG
DATE.                1977-12-08 : RUN DATE
RUN .                         2 : RUN NUMBER
TDD .F                    12749 : TOTAL DEPTH DRILLER
TDL .F                    12746 : TOTAL DEPTH LOGGER
BOTL.F                    12744 : BOTTOM LOGGED INTERVAL
TOPL.F                    12140 : TOP LOGGED INTERVAL
CSGS.IN                  13.375 : CASING SIZE
CSGD.F                     1800 : CASING DRILLER
CSGL.F                          : CASING LOGGER
BS  .IN                     6.5 : BIT SIZE
MUD .             LIGNO LIGNITE : MUD TYPE
MUDD.                      16.4 : MUD DENSITY
MUDV.                           : MUD VISCOSITY
PH  .                           : MUD PH
FL  .                           : FLUID LOSS
MUDS.                           : SOURCE OF SAMPLE
RM  .OHMM                       : MUD RESISTIVITY
RMT .DEGF                       : RM TEMPERATURE
RMF .OHMM                       : MUD FILTRATE RESISTIVITY
RMFT.DEGF                       : RMF TEMPERATURE
RMC .OHMM                       : MUD CAKE RESISTIVITY
RMCT.DEGF                       : RMC TEMPERATURE
RMFS.                           : RMF SOURCE
RMCS.                           : RMC SOURCE
RMBH.OHMM                       : MUD RESISTIVITY AT BHT
BHT .DEGF                       : BOTTOM HOLE TEMPERATURE
TIMC.                           : TIME CIRCULATION STOPPED
TIML.                           : TIME LOGGER ON BOTTOM
TMAX.DEGF                   235 : MAXIMUM RECORDED TEMPERATURE
UNIT.                           : EQUIPMENT NUMBER
BASE.                           : BASE LOCATION
ENG .                  CROTHERS : RECORDED BY
WIT .               MR. HUBBARD : WITNESSED BY
~Curve Information -----------------------------------------
DEPT.F          :DEPTH
CALI.IN         :
DPHI.%          :
DRHO.G/CC       :
GR.GAPI         :
NPHI.%          :
RHOB.G/CC       :
~ASCII ------------------------------------------------------
# ...
10424.50000       13.18333       21.16619        0.00431      106.09409       45.27298        2.29440
10425.00000       13.04255       22.08589       -0.00581      103.09174       44.97727        2.27652
10425.50000       12.90196       21.85539       -0.01854       97.88233       44.75862        2.26699
10426.00000       13.13078       20.22153       -0.03127       98.66586       44.84828        2.29080
10426.50000       13.41745       18.86692       -0.03664       97.36939       45.02390        2.31461
10427.00000       13.71843       18.02101       -0.03096       95.55057       45.39518        2.33005
10427.50000       14.01961       18.40237       -0.02528       95.70586       44.89195        2.33535
10428.00000       14.39941       18.43214       -0.02286       97.17645       44.38873        2.32544
10428.50000       14.50980       18.37358       -0.02124       96.44233       44.05329        2.32833
10429.00000       14.21568       18.26106       -0.01961       94.84939       43.98998        2.33122
10429.50000       13.92157       17.97779       -0.02100       91.97410       44.06481        2.33411
10430.00000       13.89765       17.45975       -0.02248       91.52939       43.91732        2.34043
10430.50000       13.94117       17.14921       -0.02296       92.82351       43.62160        2.34902
10431.00000       13.95098       16.81139       -0.02248       94.58821       43.00988        2.35761
10431.50000       13.96078       16.15520       -0.01818       91.89880       42.39756        2.36620
10432.00000       13.97059       15.49961       -0.01389       91.97880       41.78584        2.37480
10432.50000       13.98039       14.89322       -0.00958       93.90351       41.54941        2.38364
10433.00000       14.07098       14.57378       -0.01554       94.15292       41.77661        2.39352
10433.50000       14.17941       14.39012       -0.02149       91.43998       42.04651        2.40339
10434.00000       14.25039       13.92958       -0.01411       89.17645       42.08517        2.41326
10434.50000       14.30843       13.94157       -0.00672       91.69645       41.19657        2.41212
10435.00000       14.36627       14.26838       -0.00983       95.26586       41.19744        2.40822
10435.50000       14.42431       14.18610       -0.01061       99.52939       41.38433        2.40431
10436.00000       14.48608       14.99329       -0.00785       97.17645       42.31707        2.39478
10436.50000       14.56353       15.37346       -0.00510       94.82351       43.29427        2.38526
10437.00000       14.64078       15.26747       -0.00346       95.99998       44.07879        2.38282
10437.50000       14.71823       15.09033       -0.00632       97.17645       44.72576        2.38721
10438.00000       14.75235       15.84579       -0.00917       99.95762       44.99624        2.37620
10438.50000       14.72157       16.09671       -0.01201      102.73880       44.76634        2.37065
10439.00000       14.69078       15.85436       -0.01486      102.96233       44.80026        2.37326
10439.50000       14.66000       15.78868       -0.01184      102.54586       44.30652        2.37588
10440.00000       14.62921       16.00699       -0.00884      102.13174       43.64381        2.37453
10440.50000       14.59823       16.60060       -0.01049      101.88233       43.30600        2.36722
10441.00000       14.56745       17.19421       -0.01916      101.88233       43.22194        2.35993
10441.50000       14.54000       17.13564       -0.02784      101.25880       43.81555        2.35262
10442.00000       14.51725       16.42491       -0.02073      100.22115       44.19038        2.35211
10442.50000       14.49470       16.96931       -0.01485       99.18351       44.51008        2.35615
10443.00000       14.57333       16.43466       -0.01417       98.76468       44.70704        2.36382
10443.50000       14.67706       15.68598       -0.01465      100.82351       44.41133        2.37700
10444.00000       14.78078       15.01971       -0.01512      102.88233       44.11561        2.39017
10444.50000       14.81627       14.95462       -0.01290      102.87056       43.76890        2.38905
10445.00000       14.74921       14.86167       -0.01068      102.34115       43.34631        2.38941
10445.50000       14.68215       14.49955       -0.00697      101.81174       43.28775        2.39566
10446.00000       14.61510       14.17774       -0.00287      101.28233       43.22918        2.40190
10446.50000       14.54804       14.31661       -0.00130       99.10586       42.48302        2.40585
10447.00000       14.48098       14.74599       -0.00348       96.51762       41.97090        2.40058
10447.50000       14.41392       15.06924       -0.00567       93.29410       41.39356        2.39530
10448.00000       14.34666       16.67090       -0.00674       89.91057       40.77472        2.39003
10448.50000       14.48235       19.04316       -0.00335       86.52939       40.15529        2.35592
10449.00000       14.66863       20.80297        0.00006       83.99998       40.15068        2.32180
10449.50000       14.85490       22.15369       -0.00130       82.82351       40.74429        2.28769
10450.00000       15.04117       22.06671       -0.00422       83.61645       41.85850        2.26195
10450.50000       15.16666       21.73811       -0.00786       88.85174       42.73819        2.26647
10451.00000       15.13333       22.21267       -0.01240       88.96233       43.38452        2.27098
10451.50000       14.97647       24.04952       -0.01695       88.10586       43.59551        2.25118
10452.00000       14.90921       27.13849       -0.02149       88.89410       43.95161        2.20764
10452.50000       14.97666       28.31566       -0.02603       90.77645       44.84078        2.15817
10453.00000       15.04412       27.33317       -0.04378       92.65880       45.87803        2.15515
10453.50000       15.08568       27.09875       -0.03505       91.84233       47.30619        2.16373
10454.00000       15.02451       26.63393       -0.02929       89.22821       48.07513        2.17231
10454.50000       15.08235       24.94246       -0.03542       87.76468       48.19623        2.18089
10455.00000       15.21961       22.10015       -0.04278       90.35292       47.98965        2.20005
10455.50000       15.27451       20.32398       -0.03307       92.94115       46.91831        2.26150
10456.00000       15.27451       18.92865       -0.02213       90.82351       45.88251        2.29099
10456.50000       15.31588       17.66008       -0.01594       88.98116       45.73516        2.31248
10457.00000       15.52294       17.03889       -0.01163       86.82351       45.29166        2.32968
10457.50000       15.59882       17.87653       -0.00731       84.66586       44.84816        2.35118
10458.00000       15.47804       18.81250       -0.00298       83.99998       44.40466        2.34856
10458.50000       15.35745       19.74846        0.00133       84.23527       43.96116        2.32611
10459.00000       15.33333       20.68442        0.00388       87.33410       44.58735        2.30741
10459.50000       15.33333       21.86974        0.00330       91.54821       45.01690        2.28859
10460.00000       15.46706       21.57432       -0.00498       95.76468       44.66225        2.26929
10460.50000       15.60078       20.29153       -0.01492       99.14821       44.27501        2.25896
10461.00000       15.52549       19.29541       -0.01596      101.88233       43.75748        2.28457
10461.50000       15.37255       19.44421       -0.00613       96.32939       43.23994        2.31018
10462.00000       15.48686       18.75372       -0.00322       90.58821       42.51510        2.31912
10462.50000       15.39510       18.06383       -0.00492       90.24939       41.99519        2.32805
10463.00000       15.25196       17.37334       -0.00417       91.29410       42.50411        2.33698
10463.50000       15.14431       17.55175        0.00086       92.94115       43.26949        2.34591
