~Version ---------------------------------------------------
VERS. 2.0 : CWLS LOG ASCII STANDARD - VERSION 2.0
WRAP. NO  : One line per depth step
DLM . SPACE : Column Data Section Delimiter
~Well ------------------------------------------------------
STRT.F         8350 : START DEPTH
STOP.F      12743.5 : STOP DEPTH
STEP.F          0.5 : STEP
NULL.       -999.25 : NULL VALUE
COMP.            AMOCO PRODUCTION COMPANY : COMPANY
WELL.             155847-SL862-011-862-30 : WELL
FLD .                  VERMILION BLOCK 15 : FIELD
CNTY.                           VERMILION : COUNTY
STAT.                           LOUISIANA : STATE
CTRY.                                 USA : COUNTRY
SEC .                                     : SECTION
TWP .                                     : TOWNSHIP
RGE .                                     : RANGE
LOC .                                     : LOCATION
EKB .F                    44.35 : ELEVATION KELLY BUSHING
EDF .F                     44.5 : ELEVATION DERRICK FLOOR
EGL .F                          : ELEVATION GROUND LEVEL
PDAT.                       BHF : PERMANENT DATUM
EPD .                           : ELEVATION PERMANENT DATUM
APD .                        33 : ABOVE PERMANENT DATUM
LMF .                       RKB : LOG MEASURED FROM
DMF .                       RKB : DRILLING MEASURED FROM
API .            17705200940000 : API NUMBER
UWI .                           : UWI NUMBER
DIGC.                     NthDS : DIGITIZING COMPANY
~Params ----------------------------------------------------
SRVC.                     WELEX : LOGGING COMPANY
LOG .                       CDL : LOG
DATE.                1977-09-17 : RUN DATE
RUN .                         1 : RUN NUMBER
TDD .F                    11102 : TOTAL DEPTH DRILLER
TDL .F                    11116 : TOTAL DEPTH LOGGER
BOTL.F                    11020 : BOTTOM LOGGED INTERVAL
TOPL.F                     8350 : TOP LOGGED INTERVAL
CSGS.IN                  13.375 : CASING SIZE
CSGD.F                     1800 : CASING DRILLER
CSGL.F                          : CASING LOGGER
BS  .IN                   12.25 : BIT SIZE
MUD .             LIGNO LIGNITE : MUD TYPE
MUDD.                      10.5 : MUD DENSITY
MUDV.                           : MUD VISCOSITY
PH  .                           : MUD PH
FL  .                           : FLUID LOSS
MUDS.                           : SOURCE OF SAMPLE
RM  .OHMM                       : MUD RESISTIVITY
RMT .DEGF                       : RM TEMPERATURE
RMF .OHMM                       : MUD FILTRATE RESISTIVITY
RMFT.DEGF                       : RMF TEMPERATURE
RMC .OHMM                       : MUD CAKE RESISTIVITY
RMCT.DEGF                       : RMC TEMPERATURE
RMFS.                           : RMF SOURCE
RMCS.                           : RMC SOURCE
RMBH.OHMM                       : MUD RESISTIVITY AT BHT
BHT .DEGF                       : BOTTOM HOLE TEMPERATURE
TIMC.                           : TIME CIRCULATION STOPPED
TIML.                           : TIME LOGGER ON BOTTOM
TMAX.DEGF                   194 : MAXIMUM RECORDED TEMPERATURE
UNIT.                           : EQUIPMENT NUMBER
BASE.                           : BASE LOCATION
ENG .          KNOLES, MOBERLEY : RECORDED BY
WIT .               MR. HUBBARD : WITNESSED BY
#
SRVC.                     WELEX : LOGGING COMPANY
LOG .                       CDL : LOG
DATE.                1977-12-08 : RUN DATE
RUN .                         2 : RUN NUMBER
TDD .F                    12749 : TOTAL DEPTH DRILLER
TDL .F                    12746 : TOTAL DEPTH LOGGER
BOTL.F                    12744 : BOTTOM LOGGED INTERVAL
TOPL.F                    12140 : TOP LOGGED INTERVAL
CSGS.IN                  13.375 : CASING SIZE
CSGD.F                     1800 : CASING DRILLER
CSGL.F                          : CASING LOGGER
BS  .IN                     6.5 : BIT SIZE
MUD .             LIGNO LIGNITE : MUD TYPE
MUDD.                      16.4 : MUD DENSITY
MUDV.                           : MUD VISCOSITY
PH  .                           : MUD PH
FL  .                           : FLUID LOSS
MUDS.                           : SOURCE OF SAMPLE
RM  .OHMM                       : MUD RESISTIVITY
RMT .DEGF                       : RM TEMPERATURE
RMF .OHMM                       : MUD FILTRATE RESISTIVITY
RMFT.DEGF                       : RMF TEMPERATURE
RMC .OHMM                       : MUD CAKE RESISTIVITY
RMCT.DEGF                       : RMC TEMPERATURE
RMFS.                           : RMF SOURCE
RMCS.                           : RMC SOURCE
RMBH.OHMM                       : MUD RESISTIVITY AT BHT
BHT .DEGF                       : BOTTOM HOLE TEMPERATURE
TIMC.                           : TIME CIRCULATION STOPPED
TIML.                           : TIME LOGGER ON BOTTOM
TMAX.DEGF                   235 : MAXIMUM RECORDED TEMPERATURE
UNIT.                           : EQUIPMENT NUMBER
BASE.                           : BASE LOCATION
ENG .                  CROTHERS : RECORDED BY
WIT .               MR. HUBBARD : WITNESSED BY
~Curve Information -----------------------------------------
DEPT.F          :DEPTH
CALI.IN         :
DPHI.%          :
DRHO.G/CC       :
GR.GAPI         :
NPHI.%          :
RHOB.G/CC       :
~ASCII ------------------------------------------------------
# ...
12202.00000        9.95515       28.09841       -0.00612       42.56520       56.15437        2.16704
12202.50000        9.94554       28.35152       -0.00931       43.45148       55.75136        2.16428
12203.00000        9.95751       28.15542       -0.00884       43.94560       55.36911        2.17240
12203.50000        9.96927       26.86961       -0.00747       44.80443       55.09713        2.18051
12204.00000        9.98123       26.90830       -0.00609       45.28680       54.92653        2.18862
12204.50000        9.97653       26.82426       -0.00765       44.11427       55.01798        2.19673
12205.00000        9.96751       26.43193       -0.00920       42.54959       55.17525        2.19809
12205.50000        9.95869       27.06350       -0.01077       40.25551       55.33251        2.18934
12206.00000        9.94967       26.75001       -0.00796       41.32218       55.00717        2.19890
12206.50000        9.92987       25.85551       -0.00406       42.38885       54.65041        2.21697
12207.00000        9.90261       25.53847       -0.00017       41.36338       54.64937        2.22023
12207.50000        9.87536       25.41055        0.00013       39.81439       54.64834        2.22004
12208.00000        9.84830       25.47711       -0.00047       39.24578       54.64730        2.21465
12208.50000        9.82105       25.56501       -0.00108       40.14971       54.70555        2.21200
12209.00000        9.79399       25.23789       -0.00023       41.05168       54.85274        2.22031
12209.50000        9.76400       25.05899        0.00277       39.58504       55.01475        2.22863
12210.00000        9.72361       24.76151        0.00579       39.62231       55.19869        2.23161
12210.50000        9.68321       24.90455        0.00879       40.03408       55.05714        2.23093
12211.00000        9.64263       24.52229        0.01035       41.06742       54.91797        2.23037
12211.50000        9.60224       24.77797        0.00528       43.03212       55.11436        2.23094
12212.00000        9.57577       24.72773        0.00105       45.45369       54.71767        2.23605
12212.50000        9.56989       24.42017       -0.00050       49.73484       54.81565        2.24116
12213.00000        9.56420       24.05867       -0.00028       49.41721       54.74465        2.24627
12213.50000        9.55048       23.78846       -0.00006       47.90665       54.41990        2.25138
12214.00000        9.50519       24.02221        0.00016       44.75179       54.17994        2.25286
12214.50000        9.45989       23.42809        0.00023       42.70280       54.27791        2.24891
12215.00000        9.41441       23.92092        0.00020       41.37341       54.22767        2.24495
12215.50000        9.36911       23.80131        0.00018       40.12246       54.17683        2.24100
12216.00000        9.32382       23.63427        0.00015       41.10678       53.85979        2.24157
12216.50000        9.28265       23.56209        0.00073       42.09110       53.36489        2.24894
12217.00000        9.25853       23.50177        0.00372       43.07542       52.86939        2.25507
12217.50000        9.23441       22.94994        0.00671       40.55780       52.29919        2.26090
12218.00000        9.21030       22.84753        0.00667       40.02449       51.67800        2.26672
12218.50000        9.18618       23.12811        0.00460       37.40099       50.93645        2.27255
12219.00000        9.16207       22.64506        0.00401       35.28142       50.01290        2.27838
12219.50000        9.17971       21.89581        0.00933       32.76773       48.59369        2.28421
12220.00000        9.22540       21.92442        0.01465       30.15796       46.84365        2.28612
12220.50000        9.27109       22.10125        0.01340       32.12266       44.63393        2.28216
12221.00000        9.20795       21.77413        0.01215       34.44619       42.74634        2.28282
12221.50000        9.14501       21.18021        0.01065       37.31088       40.89374        2.29037
12222.00000        9.08188       21.42641        0.01013       40.17362       39.06485        2.29792
12222.50000        9.05129       21.11886        0.01256       39.39325       37.35513        2.30801
12223.00000        9.04247       19.39846        0.01319       38.61288       36.12268        2.32145
12223.50000        9.03345       19.11285        0.00662       40.18543       34.89023        2.33482
12224.00000        9.02463       18.93395        0.00446       41.75798       34.52576        2.33677
12224.50000        8.98934       18.62441        0.00889       39.09527       34.74053        2.33249
12225.00000        8.91483       18.80144        0.01169       38.43254       34.63159        2.32591
12225.50000        8.84013       19.57116        0.00799       35.60709       33.91889        2.32628
12226.00000        8.76562       18.71044        0.00999       30.00911       33.20640        2.33709
12226.50000        8.74542       19.27244        0.01578       28.17777       32.53837        2.33876
12227.00000        8.72503       19.17654        0.02158       28.00327       31.69663        2.32671
12227.50000        8.70484       19.90772        0.02188       27.73270       30.59462        2.30618
12228.00000        8.68033       21.20649        0.01393       27.08370       29.97106        2.29362
12228.50000        8.63876       21.69932        0.00599       26.43470       28.83109        2.28105
12229.00000        8.77445       22.19216        0.00765       25.81707       27.98283        2.27560
12229.50000        8.74386       22.23084        0.01171       25.01317       28.03101        2.26669
12230.00000        8.36681       22.73791        0.01577       23.43084       29.26554        2.26376
12230.50000        8.12211       23.15109        0.01803       21.84656       30.11410        2.26010
12231.00000        8.61269       23.67654        0.01310       20.26423       30.74567        2.25644
12231.50000        8.47583       23.56048        0.00719       18.67995       31.73238        2.25278
12232.00000        7.72466       23.61281        0.00647       19.66426       33.23845        2.24911
12232.50000        7.53153       24.19398        0.00854       20.64858       34.31942        2.24691
12233.00000        7.78682       24.22615        0.01061       21.77604       34.21167        2.24000
12233.50000        8.04212       25.87451       -0.00356       23.47212       33.85491        2.21833
12234.00000        8.00918       26.51972       -0.00985       25.17016       33.30842        2.20675
12234.50000        7.78408       24.37838        0.00176       24.47410       32.93209        2.23688
12235.00000        7.62232       24.45264        0.00245       23.77804       33.42493        2.23449
12235.50000        7.50291       25.38599        0.00040       23.37806       34.52487        2.22187
12236.00000        7.45703       25.74898       -0.00163       24.16630       35.63134        2.21135
12236.50000        7.42938       25.02819       -0.00042       24.60160       35.61548        2.22241
12237.00000        7.40174       24.88308        0.00568       23.62516       34.45833        2.23346
12237.50000        7.42880       24.05201        0.01178       23.15066       33.30118        2.24452
12238.00000        7.45606       23.41363        0.01788       24.68792       32.07228        2.25557
12238.50000        7.78978       22.47881        0.02399       26.22322       31.49082        2.26663
12239.00000        8.20017       22.81216        0.02494       27.75851       32.07674        2.26623
12239.50000        8.64546       23.74313        0.02442       28.54675       32.84645        2.24863
12240.00000        9.11428       23.17708        0.02685       27.75854       35.37109        2.25681
12240.50000        8.30645       23.47901        0.02927       26.97032       37.84948        2.26015
12241.00000        7.79704       25.09239        0.01920       26.18211       40.00417        2.24407
