~Version ---------------------------------------------------
VERS. 2.0 : CWLS LOG ASCII STANDARD - VERSION 2.0
WRAP. NO  : One line per depth step
DLM . SPACE : Column Data Section Delimiter
~Well ------------------------------------------------------
STRT.F         3992 : START DEPTH
STOP.F      15175.5 : STOP DEPTH
STEP.F          0.5 : STEP
NULL.       -999.25 : NULL VALUE
COMP.                  HILCORP ENERGY CO. : COMPANY
WELL.          212648-SL3306-015-03306-10 : WELL
FLD .                       REDFISH POINT : FIELD
CNTY.                           VERMILION : COUNTY
STAT.                           LOUISIANA : STATE
CTRY.                                 USA : COUNTRY
SEC .                                     : SECTION
TWP .                                     : TOWNSHIP
RGE .                                     : RANGE
LOC . LAT 29*40'57.085"N LONG 92*2'43.95"W : LOCATION
EKB .F                       41 : ELEVATION KELLY BUSHING
EDF .F                       41 : ELEVATION DERRICK FLOOR
EGL .F                          : ELEVATION GROUND LEVEL
PDAT.                       MSL : PERMANENT DATUM
EPD .                           : ELEVATION PERMANENT DATUM
APD .                           : ABOVE PERMANENT DATUM
LMF .                        KB : LOG MEASURED FROM
DMF .                        KB : DRILLING MEASURED FROM
API .            17113217870000 : API NUMBER
UWI .                           : UWI NUMBER
DIGC.                     NthDS : DIGITIZING COMPANY
~Params ----------------------------------------------------
SRVC.               HALLIBURTON : LOGGING COMPANY
LOG .                 DIL/SONIC : LOG
DATE.                           : RUN DATE
RUN .                         1 : RUN NUMBER
TDD .F                          : TOTAL DEPTH DRILLER
TDL .F                          : TOTAL DEPTH LOGGER
BOTL.F                          : BOTTOM LOGGED INTERVAL
TOPL.F                          : TOP LOGGED INTERVAL
CSGS.IN                         : CASING SIZE
CSGD.F                          : CASING DRILLER
CSGL.F                          : CASING LOGGER
BS  .IN                         : BIT SIZE
MUD .                           : MUD TYPE
MUDD.                           : MUD DENSITY
MUDV.                           : MUD VISCOSITY
PH  .                           : MUD PH
FL  .                           : FLUID LOSS
MUDS.                           : SOURCE OF SAMPLE
RM  .OHMM                       : MUD RESISTIVITY
RMT .DEGF                       : RM TEMPERATURE
RMF .OHMM                       : MUD FILTRATE RESISTIVITY
RMFT.DEGF                       : RMF TEMPERATURE
RMC .OHMM                       : MUD CAKE RESISTIVITY
RMCT.DEGF                       : RMC TEMPERATURE
RMFS.                           : RMF SOURCE
RMCS.                           : RMC SOURCE
RMBH.OHMM                       : MUD RESISTIVITY AT BHT
BHT .DEGF                       : BOTTOM HOLE TEMPERATURE
TIMC.                           : TIME CIRCULATION STOPPED
TIML.                           : TIME LOGGER ON BOTTOM
TMAX.DEGF                       : MAXIMUM RECORDED TEMPERATURE
UNIT.                      4546 : EQUIPMENT NUMBER
BASE.                     HOUMA : BASE LOCATION
ENG .                 BOURGEOIS : RECORDED BY
WIT .                BRUNEFIELD : WITNESSED BY
#
SRVC.               HALLIBURTON : LOGGING COMPANY
LOG .                 DIL/SONIC : LOG
DATE.                1991-02-03 : RUN DATE
RUN .                         2 : RUN NUMBER
TDD .F                    15214 : TOTAL DEPTH DRILLER
TDL .F                    15178 : TOTAL DEPTH LOGGER
BOTL.F                    15174 : BOTTOM LOGGED INTERVAL
TOPL.F                    14860 : TOP LOGGED INTERVAL
CSGS.IN                         : CASING SIZE
CSGD.F                    14869 : CASING DRILLER
CSGL.F                   148756 : CASING LOGGER
BS  .IN                       6 : BIT SIZE
MUD .                     LIGNO : MUD TYPE
MUDD.                        10 : MUD DENSITY
MUDV.                        44 : MUD VISCOSITY
PH  .                        11 : MUD PH
FL  .                       5.2 : FLUID LOSS
MUDS.                  FLOWLINE : SOURCE OF SAMPLE
RM  .OHMM                   2.1 : MUD RESISTIVITY
RMT .DEGF                    68 : RM TEMPERATURE
RMF .OHMM                   1.9 : MUD FILTRATE RESISTIVITY
RMFT.DEGF                    68 : RMF TEMPERATURE
RMC .OHMM                   2.5 : MUD CAKE RESISTIVITY
RMCT.DEGF                    68 : RMC TEMPERATURE
RMFS.                      MEAS : RMF SOURCE
RMCS.                      MEAS : RMC SOURCE
RMBH.OHMM                  0.62 : MUD RESISTIVITY AT BHT
BHT .DEGF                   245 : BOTTOM HOLE TEMPERATURE
TIMC.                           : TIME CIRCULATION STOPPED
TIML.                     1630  : TIME LOGGER ON BOTTOM
TMAX.DEGF                   245 : MAXIMUM RECORDED TEMPERATURE
UNIT.                      4546 : EQUIPMENT NUMBER
BASE.                       HMA : BASE LOCATION
ENG .                 BOURGEOIS : RECORDED BY
WIT .                 BREAZEALE : WITNESSED BY
~Curve Information -----------------------------------------
DEPT.F          :DEPTH
CILD.MMHO       :
DCAL.IN         :
DT.US/F         :
GR.GAPI         :
ILD.OHMM        :
ILM.OHMM        :
SGRD.OHMM       :
SP.MV           :
TENS.LBS        :
~ASCII ------------------------------------------------------
# ...
8447.00000     4223.61311        0.51315      108.46510       55.05829        0.23001        0.27118        0.77156     -148.04744     3744.93715
8447.50000     4003.41415        0.51419      106.68792       56.13437        0.24918        0.28461        0.76476     -147.50989     3751.37096
8448.00000     4001.50736        0.52549      104.32137       57.21342        0.26885        0.31610        0.77193     -143.30831     3757.80477
8448.50000     3998.61056        0.53718       99.79199       60.81224        0.30433        0.36073        0.86112     -136.53361     3764.23858
8449.00000     3995.64630        0.54848       97.03253       63.29050        0.33743        0.40131        1.02374     -134.54547     3765.95746
8449.50000     3359.58886        0.55978       94.66598       63.27271        0.37352        0.42973        1.30896     -134.78262     3764.14015
8450.00000     2971.97754        0.70543       92.82608       60.64030        0.42331        0.48278        1.45169     -136.75891     3710.12497
8450.50000     1948.30879        0.71668       89.87017       60.19340        0.46539        0.54013        1.47880     -133.87205     3708.30766
8451.00000     1934.51082        0.72793       93.79019       60.86415        0.50135        0.60429        1.29068     -125.25863     3706.49034
8451.50000     1920.71284        0.75379       96.53147       62.14555        0.52245        0.64467        1.22254     -117.73212     3704.67303
8452.00000     1906.91487        0.80176      101.04086       65.86363        0.52859        0.67954        1.23410     -119.47010     3702.85572
8452.50000     1893.11689        0.84934      103.38923       69.43349        0.53480        0.70834        1.35199     -120.86026     3703.39588
8453.00000     1879.31892        0.89731      102.79078       72.41048        0.54040        0.70561        1.41532     -119.39282     3713.75879
8453.50000     1865.52095        0.90896      101.99587       75.38747        0.54333        0.70295        1.39026     -116.96099     3722.12770
8454.00000     1851.72297        0.92100      102.18324       78.36447        0.54886        0.70850        1.36564     -116.63580     3732.88352
8454.50000     1837.92500        0.93264      101.38833       79.56287        0.55850        0.71416        1.30536     -116.84023     3733.42367
8455.00000     1752.03292        0.94231       99.21824       81.72468        0.58605        0.71980        1.24775     -112.21085     3731.60636
8455.50000     1666.06180        0.94369       96.85169       84.82617        0.61972        0.72331        1.16058     -107.58542     3729.78905
8456.00000     1580.16972        0.97468       99.00361       87.30812        0.64875        0.72354        1.07944     -104.87692     3727.97174
8456.50000     1494.19859        1.17665      102.33426       87.32080        0.68223        0.73131        0.98594     -103.03795     3726.15443
8457.00000     1408.30652        1.45798      105.07737       85.63492        0.73061        0.74945        0.93389      -99.56268     3724.33712
8457.50000     1322.33539        1.73892      108.80093       83.08939        0.77653        0.78099        0.92053      -96.08741     3722.51981
8458.00000     1236.44331        1.75451      108.20248       80.54090        0.80066        0.81387        0.95033      -93.79787     3720.70250
8458.50000     1150.47219        1.76971      100.72628       80.66961        0.82756        0.84812        0.98102      -93.25867     3718.88519
8459.00000     1129.79682        1.78254       96.78809       80.83050        0.85848        0.88070        1.00828      -91.26556     3717.06788
8459.50000     1109.04239        1.78392       92.06407       79.68709        0.89056        0.90971        1.03800      -88.61239     3701.49870
8460.00000     1088.36702        1.78529       88.12407       76.69395        0.92384        0.93968        1.07326      -87.60738     3682.78625
8460.50000     1067.61260        1.77798       87.52743       74.50414        0.95245        0.97063        1.09949      -86.83952     3663.68088
8461.00000     1046.93723        1.75725       88.50062       74.09292        0.97297        0.96847        1.08573      -87.21786     3644.96842
8461.50000     1026.18281        1.82418       91.04545       77.06991        0.99394        0.96632        1.05627      -88.14954     3632.54253
8462.00000     1005.50743        1.94875       95.35838       84.78981        1.00206        0.96425        1.02389      -86.39358     3647.22745
8462.50000      984.75301        1.81430       96.13511       92.50971        1.00694        0.96693        1.00329      -83.57046     3661.91238
8463.00000      979.49250        1.67984       95.14375       94.74563        1.01185        0.97714        1.02668      -83.11879     3676.20440
8463.50000      974.31103        1.54579       92.77720       96.17821        1.01679        0.98736        1.05062      -82.35093     3690.88932
8464.00000      969.05052        1.49595       89.82129       96.40136        1.01803        0.99769        1.07511      -82.30636     3698.53131
8464.50000      963.79000        1.45785       88.43702       93.44971        1.01836        1.00001        1.09191      -83.70047     3697.07746
8465.00000      958.60854        1.45330       88.62438       91.38737        1.01868        1.00032        1.10333      -82.94447     3695.26015
8465.50000      953.34802        1.47126       89.40112       88.57208        1.02114        1.00064        1.10298      -83.15681     3693.44284
8466.00000      958.12693        1.47580       90.96367       89.26952        1.03220        1.00096        1.09983      -84.49897     3691.62553
8466.50000      962.90583        1.42782       92.32977       89.82806        1.04347        1.00128        1.09658      -82.45052     3689.80822
8467.00000      967.68474        1.37984       93.69587       90.84267        1.04162        0.99434        1.09334      -80.06216     3687.99091
8467.50000      972.46365        1.33186       94.27615       94.97279        1.03102        0.98270        1.09022      -80.44051     3686.17360
8468.00000      977.24255        1.28902       95.24934       99.76098        1.02062        0.97111        1.08236      -82.39982     3684.35629
8468.50000      977.27842        1.26552       96.61544      101.45442        1.02095        0.95365        1.05655      -84.35913     3685.28935
8469.00000      977.31430        1.24242       98.57091       99.48990        1.02127        0.93251        1.03135      -86.31844     3687.40114
8469.50000      977.35017        1.21892      100.13528       95.94539        1.02159        0.92437        1.00319      -82.34911     3689.90585
8470.00000      977.38604        1.28190      100.12619       93.43840        1.02192        0.92460        1.03294      -81.54173     3692.41055
8470.50000      977.42191        1.34527       99.13483       86.78136        1.01983        0.93939        1.06358      -84.42195     3694.91525
8471.00000      977.45778        1.40824       94.99837       86.17746        1.01814        0.95823        1.09523      -87.63418     3697.41996
8471.50000      993.30377        1.50557       91.25663       85.57059        1.01597        0.97737        1.12771      -89.99211     3699.92466
8472.00000     1009.14975        1.61119       89.28299       85.79713        1.01389        0.98330        1.15684      -91.75380     3702.42937
8472.50000     1024.99573        1.71721       88.09518       86.95996        1.00111        0.97799        1.15335      -91.26261     3704.54116
8473.00000     1040.84171        1.78137       89.46128       86.03887        0.98849        0.95632        1.13520      -89.61336     3705.47422
8473.50000     1056.68770        1.78275       92.00611       83.81645        0.97090        0.93512        1.10300      -87.39891     3703.65691
8474.00000     1072.53368        1.76912       98.08713       81.61775        0.93372        0.90909        1.07171      -86.62710     3701.83960
