~Version ---------------------------------------------------
VERS. 2.0 : CWLS LOG ASCII STANDARD - VERSION 2.0
WRAP. NO  : One line per depth step
DLM . SPACE : Column Data Section Delimiter
~Well ------------------------------------------------------
STRT.F         3992 : START DEPTH
STOP.F      15175.5 : STOP DEPTH
STEP.F          0.5 : STEP
NULL.       -999.25 : NULL VALUE
COMP.                  HILCORP ENERGY CO. : COMPANY
WELL.          212648-SL3306-015-03306-10 : WELL
FLD .                       REDFISH POINT : FIELD
CNTY.                           VERMILION : COUNTY
STAT.                           LOUISIANA : STATE
CTRY.                                 USA : COUNTRY
SEC .                                     : SECTION
TWP .                                     : TOWNSHIP
RGE .                                     : RANGE
LOC . LAT 29*40'57.085"N LONG 92*2'43.95"W : LOCATION
EKB .F                       41 : ELEVATION KELLY BUSHING
EDF .F                       41 : ELEVATION DERRICK FLOOR
EGL .F                          : ELEVATION GROUND LEVEL
PDAT.                       MSL : PERMANENT DATUM
EPD .                           : ELEVATION PERMANENT DATUM
APD .                           : ABOVE PERMANENT DATUM
LMF .                        KB : LOG MEASURED FROM
DMF .                        KB : DRILLING MEASURED FROM
API .            17113217870000 : API NUMBER
UWI .                           : UWI NUMBER
DIGC.                     NthDS : DIGITIZING COMPANY
~Params ----------------------------------------------------
SRVC.               HALLIBURTON : LOGGING COMPANY
LOG .                 DIL/SONIC : LOG
DATE.                           : RUN DATE
RUN .                         1 : RUN NUMBER
TDD .F                          : TOTAL DEPTH DRILLER
TDL .F                          : TOTAL DEPTH LOGGER
BOTL.F                          : BOTTOM LOGGED INTERVAL
TOPL.F                          : TOP LOGGED INTERVAL
CSGS.IN                         : CASING SIZE
CSGD.F                          : CASING DRILLER
CSGL.F                          : CASING LOGGER
BS  .IN                         : BIT SIZE
MUD .                           : MUD TYPE
MUDD.                           : MUD DENSITY
MUDV.                           : MUD VISCOSITY
PH  .                           : MUD PH
FL  .                           : FLUID LOSS
MUDS.                           : SOURCE OF SAMPLE
RM  .OHMM                       : MUD RESISTIVITY
RMT .DEGF                       : RM TEMPERATURE
RMF .OHMM                       : MUD FILTRATE RESISTIVITY
RMFT.DEGF                       : RMF TEMPERATURE
RMC .OHMM                       : MUD CAKE RESISTIVITY
RMCT.DEGF                       : RMC TEMPERATURE
RMFS.                           : RMF SOURCE
RMCS.                           : RMC SOURCE
RMBH.OHMM                       : MUD RESISTIVITY AT BHT
BHT .DEGF                       : BOTTOM HOLE TEMPERATURE
TIMC.                           : TIME CIRCULATION STOPPED
TIML.                           : TIME LOGGER ON BOTTOM
TMAX.DEGF                       : MAXIMUM RECORDED TEMPERATURE
UNIT.                      4546 : EQUIPMENT NUMBER
BASE.                     HOUMA : BASE LOCATION
ENG .                 BOURGEOIS : RECORDED BY
WIT .                BRUNEFIELD : WITNESSED BY
#
SRVC.               HALLIBURTON : LOGGING COMPANY
LOG .                 DIL/SONIC : LOG
DATE.                1991-02-03 : RUN DATE
RUN .                         2 : RUN NUMBER
TDD .F                    15214 : TOTAL DEPTH DRILLER
TDL .F                    15178 : TOTAL DEPTH LOGGER
BOTL.F                    15174 : BOTTOM LOGGED INTERVAL
TOPL.F                    14860 : TOP LOGGED INTERVAL
CSGS.IN                         : CASING SIZE
CSGD.F                    14869 : CASING DRILLER
CSGL.F                   148756 : CASING LOGGER
BS  .IN                       6 : BIT SIZE
MUD .                     LIGNO : MUD TYPE
MUDD.                        10 : MUD DENSITY
MUDV.                        44 : MUD VISCOSITY
PH  .                        11 : MUD PH
FL  .                       5.2 : FLUID LOSS
MUDS.                  FLOWLINE : SOURCE OF SAMPLE
RM  .OHMM                   2.1 : MUD RESISTIVITY
RMT .DEGF                    68 : RM TEMPERATURE
RMF .OHMM                   1.9 : MUD FILTRATE RESISTIVITY
RMFT.DEGF                    68 : RMF TEMPERATURE
RMC .OHMM                   2.5 : MUD CAKE RESISTIVITY
RMCT.DEGF                    68 : RMC TEMPERATURE
RMFS.                      MEAS : RMF SOURCE
RMCS.                      MEAS : RMC SOURCE
RMBH.OHMM                  0.62 : MUD RESISTIVITY AT BHT
BHT .DEGF                   245 : BOTTOM HOLE TEMPERATURE
TIMC.                           : TIME CIRCULATION STOPPED
TIML.                     1630  : TIME LOGGER ON BOTTOM
TMAX.DEGF                   245 : MAXIMUM RECORDED TEMPERATURE
UNIT.                      4546 : EQUIPMENT NUMBER
BASE.                       HMA : BASE LOCATION
ENG .                 BOURGEOIS : RECORDED BY
WIT .                 BREAZEALE : WITNESSED BY
~Curve Information -----------------------------------------
DEPT.F          :DEPTH
CILD.MMHO       :
DCAL.IN         :
DT.US/F         :
GR.GAPI         :
ILD.OHMM        :
ILM.OHMM        :
SGRD.OHMM       :
SP.MV           :
TENS.LBS        :
~ASCII ------------------------------------------------------
# ...
7704.50000     1759.06668        1.52023        -999.25       87.96838        0.58571        0.61045        0.88841      -75.99741     3547.69162
7705.00000     1758.92952        1.44837        -999.25       90.10621        0.57610        0.61273        0.88036      -76.22600     3547.00583
7705.50000     1711.64139        1.37650        -999.25       90.71145        0.58688        0.62318        0.88841      -78.37157     3546.32005
7706.00000     1593.62679        1.30503        -999.25       90.35029        0.62075        0.64626        0.88841      -83.39459     3545.63426
7706.50000     1499.18767        1.23317        -999.25       93.30926        0.66124        0.70777        0.94679      -88.41760     3544.94848
7707.00000     1412.60705        1.15696        -999.25       93.50244        0.70444        0.77514        1.09504      -91.80032     3556.83628
7707.50000     1333.88493        1.07798        -999.25       89.65217        0.75039        0.84892        1.36207      -94.77197     3571.86749
7708.00000     1255.16281        0.84896        -999.25       83.56971        0.79397        0.92973        1.78920      -98.40369     3586.89870
7708.50000     1215.73317        0.52004        -999.25       74.81039        0.81756        1.00087        1.99546     -102.19747     3601.92990
7709.00000     1192.02053        0.19072        -999.25       64.26352        0.84177        1.00598        1.99546     -104.91616     3616.96111
7709.50000     1191.88337        0.01184        -999.25       59.77887        0.85279        0.99878        1.83867     -106.02221     3619.41872
7710.00000     1207.46321       -0.06713        -999.25       60.16771        0.84315        0.97367        1.49171     -107.65395     3618.73294
7710.50000     1238.76003       -0.14610        -999.25       67.06934        0.82054        0.94920        1.33752     -108.05644     3618.04715
7711.00000     1309.34934       -0.13821        -999.25       79.84643        0.79542        0.92534        1.26651     -104.60521     3617.36137
7711.50000     1340.64617       -0.07226        -999.25       86.21447        0.77107        0.90208        1.26651     -100.16585     3616.67558
7712.00000     1356.22601       -0.00829        -999.25       88.30784        0.74746        0.88197        1.26651      -96.22055     3615.98979
7712.50000     1356.08885        0.04778        -999.25       89.83500        0.74386        0.86607        1.24369      -94.25152     3613.33938
7713.00000     1355.95169        0.10424        -999.25       86.66358        0.74036        0.85047        1.18842      -93.27063     3602.83048
7713.50000     1355.81454        0.16308        -999.25       82.88446        0.73680        0.83211        1.14597      -93.08025     3592.32157
7714.00000     1371.39437        0.22547        -999.25       79.94723        0.73219        0.80972        1.12532      -93.68037     3583.91445
7714.50000     1386.97421        0.28786        -999.25       79.58607        0.72313        0.78994        1.09504      -94.12239     3573.40554
7715.00000     1394.69555        0.35024        -999.25       81.21106        0.71424        0.77352        1.06558      -92.46957     3586.86505
7715.50000     1394.55839        0.30997        -999.25       83.79948        0.71178        0.75745        0.99082      -88.91952     3599.93163
7716.00000     1402.27973        0.20138        -999.25       89.52237        0.70926        0.74407        0.93822      -86.69213     3610.64066
7716.50000     1441.43505        0.09279        -999.25       96.46254        0.70137        0.73399        0.88841      -87.35155     3609.95488
7717.00000     1582.75083       -0.01580        -999.25       95.68043        0.64921        0.72668        0.88841      -91.28366     3609.26909
7717.50000     1724.09404       -0.11293        -999.25       91.78274        0.55421        0.69124        0.93822     -101.09466     3608.58331
7718.00000     2325.65452       -0.20296        -999.25       86.91864        0.44253        0.63977        1.10504     -113.09391     3607.89752
7718.50000     3044.04712       -0.27088        -999.25       82.04565        0.35336        0.53069        1.16700     -125.08922     3607.21173
7719.00000     3563.43516       -0.30681        -999.25       79.73688        0.28215        0.44025        1.14597     -134.44422     3606.52595
7719.50000     4311.89627       -0.29615        -999.25       76.08226        0.23867        0.36518        1.02752     -139.84273     3605.84016
7720.00000     4788.21975       -0.09872        -999.25       70.41778        0.22015        0.31871        0.84124     -144.65627     3605.15438
7720.50000     4831.77584        0.09871        -999.25       64.83333        0.20968        0.28772        0.76813     -146.46192     3598.96764
7721.00000     4847.67001        0.25666        -999.25       58.52152        0.20741        0.28218        0.73399     -146.94346     3591.60213
7721.50000     4688.24113        0.25666        -999.25       55.05366        0.20875        0.28772        0.78937     -146.55545     3584.23663
7722.00000     4269.01036        0.14728        -999.25       57.77953        0.22715        0.30339        0.92131     -138.42837     3576.47819
7722.50000     3870.68529        0.01066        -999.25       60.31756        0.26536        0.34114        1.01822     -129.37638     3569.11269
7723.00000     3215.69963       -0.09714        -999.25       64.96921        0.31397        0.38982        1.10504     -122.13717     3561.74718
7723.50000     2634.03374       -0.08845        -999.25       70.15149        0.37148        0.44544        1.10504     -117.09702     3561.06139
7724.00000     2217.39627       -0.07977        -999.25       74.71421        0.43953        0.52274        1.05593     -116.15565     3560.37561
7724.50000     2107.24016       -0.07108        -999.25       78.34610        0.47333        0.57031        1.01822     -117.34866     3559.68982
7725.00000     2146.39549       -0.06279        -999.25       81.38215        0.47441        0.59009        1.02752     -121.55745     3559.00403
7725.50000     2303.42826       -0.05765        -999.25       82.03778        0.44085        0.58918        1.12532     -126.32356     3558.31825
7726.00000     2531.18750       -0.05489        -999.25       81.00370        0.39603        0.55877        1.24369     -131.08571     3561.16879
7726.50000     2868.96568       -0.05173        -999.25       77.44098        0.35581        0.52992        1.30153     -135.85181     3566.76980
7727.00000     3096.72492       -0.04897        -999.25       74.70829        0.32923        0.50251        1.27808     -140.61791     3572.37081
7727.50000     3285.19168       -0.04620        -999.25       73.22066        0.30688        0.47136        1.23243     -143.79510     3577.57889
7728.00000     3395.07347       -0.04344        -999.25       71.73302        0.29300        0.44390        1.15644     -144.43475     3583.17991
7728.50000     3449.94579       -0.04067        -999.25       74.46966        0.28859        0.43773        1.10504     -144.67914     3588.38799
7729.00000     3386.94066       -0.03791        -999.25       77.20631        0.29332        0.43168        1.11514     -144.42156     3593.98900
7729.50000     3245.35057       -0.03515        -999.25       79.94295        0.30873        0.43397        1.13560     -141.02172     3599.59001
7730.00000     3025.17551       -0.03199        -999.25       82.67959        0.33148        0.45436        1.17766     -136.23058     3604.79810
7730.50000     2765.70797       -0.02922        -999.25       79.87576        0.36070        0.48457        1.24369     -131.43943     3610.39911
7731.00000     2537.67442       -0.02646        -999.25       77.62924        0.39245        0.51454        1.30153     -128.11468     3616.00012
7731.50000     2364.65034       -0.02369        -999.25       77.62380        0.42704        0.53671        1.31342     -127.33142     3621.20821
