~Version ---------------------------------------------------
VERS. 2.0 : CWLS LOG ASCII STANDARD - VERSION 2.0
WRAP. NO  : One line per depth step
DLM . SPACE : Column Data Section Delimiter
~Well ------------------------------------------------------
STRT.F         3992 : START DEPTH
STOP.F      15175.5 : STOP DEPTH
STEP.F          0.5 : STEP
NULL.       -999.25 : NULL VALUE
COMP.                  HILCORP ENERGY CO. : COMPANY
WELL.          212648-SL3306-015-03306-10 : WELL
FLD .                       REDFISH POINT : FIELD
CNTY.                           VERMILION : COUNTY
STAT.                           LOUISIANA : STATE
CTRY.                                 USA : COUNTRY
SEC .                                     : SECTION
TWP .                                     : TOWNSHIP
RGE .                                     : RANGE
LOC . LAT 29*40'57.085"N LONG 92*2'43.95"W : LOCATION
EKB .F                       41 : ELEVATION KELLY BUSHING
EDF .F                       41 : ELEVATION DERRICK FLOOR
EGL .F                          : ELEVATION GROUND LEVEL
PDAT.                       MSL : PERMANENT DATUM
EPD .                           : ELEVATION PERMANENT DATUM
APD .                           : ABOVE PERMANENT DATUM
LMF .                        KB : LOG MEASURED FROM
DMF .                        KB : DRILLING MEASURED FROM
API .            17113217870000 : API NUMBER
UWI .                           : UWI NUMBER
DIGC.                     NthDS : DIGITIZING COMPANY
~Params ----------------------------------------------------
SRVC.               HALLIBURTON : LOGGING COMPANY
LOG .                 DIL/SONIC : LOG
DATE.                           : RUN DATE
RUN .                         1 : RUN NUMBER
TDD .F                          : TOTAL DEPTH DRILLER
TDL .F                          : TOTAL DEPTH LOGGER
BOTL.F                          : BOTTOM LOGGED INTERVAL
TOPL.F                          : TOP LOGGED INTERVAL
CSGS.IN                         : CASING SIZE
CSGD.F                          : CASING DRILLER
CSGL.F                          : CASING LOGGER
BS  .IN                         : BIT SIZE
MUD .                           : MUD TYPE
MUDD.                           : MUD DENSITY
MUDV.                           : MUD VISCOSITY
PH  .                           : MUD PH
FL  .                           : FLUID LOSS
MUDS.                           : SOURCE OF SAMPLE
RM  .OHMM                       : MUD RESISTIVITY
RMT .DEGF                       : RM TEMPERATURE
RMF .OHMM                       : MUD FILTRATE RESISTIVITY
RMFT.DEGF                       : RMF TEMPERATURE
RMC .OHMM                       : MUD CAKE RESISTIVITY
RMCT.DEGF                       : RMC TEMPERATURE
RMFS.                           : RMF SOURCE
RMCS.                           : RMC SOURCE
RMBH.OHMM                       : MUD RESISTIVITY AT BHT
BHT .DEGF                       : BOTTOM HOLE TEMPERATURE
TIMC.                           : TIME CIRCULATION STOPPED
TIML.                           : TIME LOGGER ON BOTTOM
TMAX.DEGF                       : MAXIMUM RECORDED TEMPERATURE
UNIT.                      4546 : EQUIPMENT NUMBER
BASE.                     HOUMA : BASE LOCATION
ENG .                 BOURGEOIS : RECORDED BY
WIT .                BRUNEFIELD : WITNESSED BY
#
SRVC.               HALLIBURTON : LOGGING COMPANY
LOG .                 DIL/SONIC : LOG
DATE.                1991-02-03 : RUN DATE
RUN .                         2 : RUN NUMBER
TDD .F                    15214 : TOTAL DEPTH DRILLER
TDL .F                    15178 : TOTAL DEPTH LOGGER
BOTL.F                    15174 : BOTTOM LOGGED INTERVAL
TOPL.F                    14860 : TOP LOGGED INTERVAL
CSGS.IN                         : CASING SIZE
CSGD.F                    14869 : CASING DRILLER
CSGL.F                   148756 : CASING LOGGER
BS  .IN                       6 : BIT SIZE
MUD .                     LIGNO : MUD TYPE
MUDD.                        10 : MUD DENSITY
MUDV.                        44 : MUD VISCOSITY
PH  .                        11 : MUD PH
FL  .                       5.2 : FLUID LOSS
MUDS.                  FLOWLINE : SOURCE OF SAMPLE
RM  .OHMM                   2.1 : MUD RESISTIVITY
RMT .DEGF                    68 : RM TEMPERATURE
RMF .OHMM                   1.9 : MUD FILTRATE RESISTIVITY
RMFT.DEGF                    68 : RMF TEMPERATURE
RMC .OHMM                   2.5 : MUD CAKE RESISTIVITY
RMCT.DEGF                    68 : RMC TEMPERATURE
RMFS.                      MEAS : RMF SOURCE
RMCS.                      MEAS : RMC SOURCE
RMBH.OHMM                  0.62 : MUD RESISTIVITY AT BHT
BHT .DEGF                   245 : BOTTOM HOLE TEMPERATURE
TIMC.                           : TIME CIRCULATION STOPPED
TIML.                     1630  : TIME LOGGER ON BOTTOM
TMAX.DEGF                   245 : MAXIMUM RECORDED TEMPERATURE
UNIT.                      4546 : EQUIPMENT NUMBER
BASE.                       HMA : BASE LOCATION
ENG .                 BOURGEOIS : RECORDED BY
WIT .                 BREAZEALE : WITNESSED BY
~Curve Information -----------------------------------------
DEPT.F          :DEPTH
CILD.MMHO       :
DCAL.IN         :
DT.US/F         :
GR.GAPI         :
ILD.OHMM        :
ILM.OHMM        :
SGRD.OHMM       :
SP.MV           :
TENS.LBS        :
~ASCII ------------------------------------------------------
# ...
6219.50000     1783.75565        0.47265        -999.25       86.96441        0.56695        0.57594        0.86450      -75.49410     3081.73274
6220.00000     1799.26679        0.48371        -999.25       85.67192        0.56438        0.57307        0.86450      -75.73916     3080.90980
6220.50000     1806.96064        0.43435        -999.25       90.66105        0.56182        0.57016        0.86450      -75.88936     3079.88113
6221.00000     1814.61334        0.38499        -999.25       91.89721        0.55927        0.56711        0.87240      -75.88936     3078.85245
6221.50000     1822.26604        0.33563        -999.25       93.74998        0.55674        0.56387        0.87240      -75.88936     3077.82377
6222.00000     1822.06031        0.36841        -999.25       94.38733        0.55421        0.56070        0.86450      -76.12651     3076.79510
6222.50000     1829.71301        0.40158        -999.25       92.06618        0.55170        0.55750        0.86450      -76.42295     3070.65844
6223.00000     1821.64884        0.44738        -999.25       88.04346        0.54920        0.55436        0.84124      -76.71940     3045.26861
6223.50000     1813.58467        0.50227        -999.25       86.56124        0.54670        0.55371        0.84124      -77.01584     3019.48586
6224.00000     1813.37893        0.55715        -999.25       85.07903        0.54422        0.55371        0.84124      -77.07513     2994.09603
6224.50000     1805.31476        0.61204        -999.25       83.59682        0.54482        0.55371        0.84124      -77.07513     3006.42669
6225.00000     1805.10902        0.64363        -999.25       82.41105        0.54586        0.55371        0.84124      -77.07513     3018.75736
6225.50000     1804.90329        0.68312        -999.25       83.49899        0.54720        0.55371        0.84892      -77.20556     3031.08802
6226.00000     1796.83912        0.72260        -999.25       83.42785        0.54855        0.55371        0.84892      -77.42691     3043.41869
6226.50000     1804.49182        0.75696        -999.25       84.26381        0.54989        0.55578        0.84124      -77.99608     3055.74935
6227.00000     1796.42765        0.78973        -999.25       90.71144        0.55125        0.55922        0.84124      -78.65616     3068.47294
6227.50000     1796.22191        0.81816        -999.25       94.29840        0.55260        0.56269        0.83362      -78.78659     3080.80361
6228.00000     1796.01618        0.84027        -999.25       97.41104        0.55371        0.56618        0.83362      -78.13046     3093.13427
6228.50000     1787.95200        0.82369        -999.25       99.36756        0.55371        0.56902        0.83362      -77.47039     3102.92022
6229.00000     1772.02940        0.78144        -999.25       96.86262        0.55371        0.56902        0.84124      -77.47039     3097.17648
6229.50000     1740.43106        0.73879        -999.25       96.49207        0.55684        0.57500        0.83362      -77.47039     3091.43275
6230.00000     1700.93314        0.69654        -999.25       96.78851        0.57276        0.59026        0.83362      -77.79450     3085.29609
6230.50000     1630.00148        0.65429        -999.25       98.12251        0.58918        0.60592        0.84124      -78.33205     3079.55235
6231.00000     1598.36200        0.61204        -999.25       98.30037        0.60603        0.62199        0.85668      -78.76288     3073.80861
6231.50000     1558.86408        0.63415        -999.25       97.41104        0.62335        0.63849        0.88036      -79.02374     3068.06487
6232.00000     1527.22460        0.65587        -999.25       96.52172        0.64123        0.65543        0.90471      -79.28857     3062.32113
6232.50000     1503.44355        0.67798        -999.25       87.70551        0.65651        0.67276        0.95543      -80.53363     3056.18447
6233.00000     1487.52094        0.69101        -999.25       82.26283        0.66746        0.68529        0.96416      -83.25299     3048.08320
6233.50000     1487.31521        0.69101        -999.25       84.48615        0.67632        0.69445        0.96416      -84.36762     3039.19609
6234.00000     1502.82635        0.69101        -999.25       86.46342        0.67632        0.70604        0.97297      -85.08698     3030.30898
6234.50000     1541.91279        0.69101        -999.25       87.45057        0.66413        0.71782        0.97297      -87.07117     3021.42186
6235.00000     1604.57455        0.70878        -999.25       87.79741        0.63462        0.72867        0.99082      -90.23323     3012.53475
6235.50000     1690.81162        0.72695        -999.25       86.56124        0.60641        0.73106        1.08513      -94.74706     3013.86361
6236.00000     1745.61494        0.73050        -999.25       81.91599        0.57946        0.71638        1.16700      -99.26485     3017.54999
6236.50000     1808.27670        0.55005        -999.25       76.64820        0.55694        0.70207        1.22128     -102.37157     3021.62930
6237.00000     1831.68742        0.32418        -999.25       77.37152        0.54800        0.68804        1.23243     -103.35971     3024.73558
6237.50000     1831.48168        0.09871        -999.25       76.48219        0.53915        0.67325        1.22128     -103.55734     3028.81488
6238.00000     1839.13438        0.02685        -999.25       76.64820        0.53719        0.65812        1.16700     -102.15022     3032.50127
6238.50000     1815.35334       -0.04502        -999.25       81.91599        0.54536        0.64626        1.10504      -99.80240     3036.58058
6239.00000     1791.57229       -0.05923        -999.25       84.68476        0.55371        0.64626        1.07531      -97.45457     3040.26696
6239.50000     1759.93281       -0.05923        -999.25       84.27567        0.56218        0.64626        1.05593      -95.82216     3041.20290
6240.00000     1744.01020       -0.05923        -999.25       86.17883        0.57073        0.64626        1.02752      -95.25694     3040.17422
6240.50000     1743.80447       -0.05923        -999.25       85.76974        0.57422        0.64263        0.99987      -91.76682     3039.14554
6241.00000     1759.31561       -0.05489        -999.25       85.82014        0.57422        0.63381        0.97297      -86.16604     3038.11687
6241.50000     1790.54362       -0.04462        -999.25       88.48812        0.56315        0.61754        0.91297      -80.56525     3037.08819
6242.00000     1829.63006       -0.03633        -999.25       91.28061        0.54870        0.60481        0.88841      -78.45853     3036.05951
6242.50000     1884.43339       -0.02606        -999.25       92.63832        0.53117        0.58950        0.85668      -77.47039     3035.03084
6243.00000     1907.80296       -0.01975        -999.25       93.99602        0.52322        0.57479        0.81860      -77.47039     3034.00216
6243.50000     1915.45566       -0.01975        -999.25       92.49010        0.52136        0.56044        0.80385      -78.13046     3032.97348
6244.00000     1915.24993       -0.01975        -999.25       92.01579        0.51957        0.54651        0.78937      -79.94074     3029.98020
6244.50000     1899.32732       -0.02448        -999.25       96.47132        0.52689        0.55260        0.80385      -82.41110     3018.73556
6245.00000     1867.68784       -0.03278        -999.25       92.65907        0.53432        0.56387        0.85668      -84.88145     3010.05418
6245.50000     1836.08950       -0.04107        -999.25       93.20156        0.54452        0.57537        0.88841      -83.99212     2998.80953
6246.00000     1796.59158       -0.04936        -999.25       93.23120        0.55902        0.58710        0.90471      -82.69568     2987.56489
6246.50000     1733.51836       -0.05765        -999.25       86.19069        0.57396        0.59912        0.90471      -83.13442     2976.71317
