~Version ---------------------------------------------------
VERS. 2.0 : CWLS LOG ASCII STANDARD - VERSION 2.0
WRAP. NO  : One line per depth step
DLM . SPACE : Column Data Section Delimiter
~Well ------------------------------------------------------
STRT.F         3992 : START DEPTH
STOP.F      15175.5 : STOP DEPTH
STEP.F          0.5 : STEP
NULL.       -999.25 : NULL VALUE
COMP.                  HILCORP ENERGY CO. : COMPANY
WELL.          212648-SL3306-015-03306-10 : WELL
FLD .                       REDFISH POINT : FIELD
CNTY.                           VERMILION : COUNTY
STAT.                           LOUISIANA : STATE
CTRY.                                 USA : COUNTRY
SEC .                                     : SECTION
TWP .                                     : TOWNSHIP
RGE .                                     : RANGE
LOC . LAT 29*40'57.085"N LONG 92*2'43.95"W : LOCATION
EKB .F                       41 : ELEVATION KELLY BUSHING
EDF .F                       41 : ELEVATION DERRICK FLOOR
EGL .F                          : ELEVATION GROUND LEVEL
PDAT.                       MSL : PERMANENT DATUM
EPD .                           : ELEVATION PERMANENT DATUM
APD .                           : ABOVE PERMANENT DATUM
LMF .                        KB : LOG MEASURED FROM
DMF .                        KB : DRILLING MEASURED FROM
API .            17113217870000 : API NUMBER
UWI .                           : UWI NUMBER
DIGC.                     NthDS : DIGITIZING COMPANY
~Params ----------------------------------------------------
SRVC.               HALLIBURTON : LOGGING COMPANY
LOG .                 DIL/SONIC : LOG
DATE.                           : RUN DATE
RUN .                         1 : RUN NUMBER
TDD .F                          : TOTAL DEPTH DRILLER
TDL .F                          : TOTAL DEPTH LOGGER
BOTL.F                          : BOTTOM LOGGED INTERVAL
TOPL.F                          : TOP LOGGED INTERVAL
CSGS.IN                         : CASING SIZE
CSGD.F                          : CASING DRILLER
CSGL.F                          : CASING LOGGER
BS  .IN                         : BIT SIZE
MUD .                           : MUD TYPE
MUDD.                           : MUD DENSITY
MUDV.                           : MUD VISCOSITY
PH  .                           : MUD PH
FL  .                           : FLUID LOSS
MUDS.                           : SOURCE OF SAMPLE
RM  .OHMM                       : MUD RESISTIVITY
RMT .DEGF                       : RM TEMPERATURE
RMF .OHMM                       : MUD FILTRATE RESISTIVITY
RMFT.DEGF                       : RMF TEMPERATURE
RMC .OHMM                       : MUD CAKE RESISTIVITY
RMCT.DEGF                       : RMC TEMPERATURE
RMFS.                           : RMF SOURCE
RMCS.                           : RMC SOURCE
RMBH.OHMM                       : MUD RESISTIVITY AT BHT
BHT .DEGF                       : BOTTOM HOLE TEMPERATURE
TIMC.                           : TIME CIRCULATION STOPPED
TIML.                           : TIME LOGGER ON BOTTOM
TMAX.DEGF                       : MAXIMUM RECORDED TEMPERATURE
UNIT.                      4546 : EQUIPMENT NUMBER
BASE.                     HOUMA : BASE LOCATION
ENG .                 BOURGEOIS : RECORDED BY
WIT .                BRUNEFIELD : WITNESSED BY
#
SRVC.               HALLIBURTON : LOGGING COMPANY
LOG .                 DIL/SONIC : LOG
DATE.                1991-02-03 : RUN DATE
RUN .                         2 : RUN NUMBER
TDD .F                    15214 : TOTAL DEPTH DRILLER
TDL .F                    15178 : TOTAL DEPTH LOGGER
BOTL.F                    15174 : BOTTOM LOGGED INTERVAL
TOPL.F                    14860 : TOP LOGGED INTERVAL
CSGS.IN                         : CASING SIZE
CSGD.F                    14869 : CASING DRILLER
CSGL.F                   148756 : CASING LOGGER
BS  .IN                       6 : BIT SIZE
MUD .                     LIGNO : MUD TYPE
MUDD.                        10 : MUD DENSITY
MUDV.                        44 : MUD VISCOSITY
PH  .                        11 : MUD PH
FL  .                       5.2 : FLUID LOSS
MUDS.                  FLOWLINE : SOURCE OF SAMPLE
RM  .OHMM                   2.1 : MUD RESISTIVITY
RMT .DEGF                    68 : RM TEMPERATURE
RMF .OHMM                   1.9 : MUD FILTRATE RESISTIVITY
RMFT.DEGF                    68 : RMF TEMPERATURE
RMC .OHMM                   2.5 : MUD CAKE RESISTIVITY
RMCT.DEGF                    68 : RMC TEMPERATURE
RMFS.                      MEAS : RMF SOURCE
RMCS.                      MEAS : RMC SOURCE
RMBH.OHMM                  0.62 : MUD RESISTIVITY AT BHT
BHT .DEGF                   245 : BOTTOM HOLE TEMPERATURE
TIMC.                           : TIME CIRCULATION STOPPED
TIML.                     1630  : TIME LOGGER ON BOTTOM
TMAX.DEGF                   245 : MAXIMUM RECORDED TEMPERATURE
UNIT.                      4546 : EQUIPMENT NUMBER
BASE.                       HMA : BASE LOCATION
ENG .                 BOURGEOIS : RECORDED BY
WIT .                 BREAZEALE : WITNESSED BY
~Curve Information -----------------------------------------
DEPT.F          :DEPTH
CILD.MMHO       :
DCAL.IN         :
DT.US/F         :
GR.GAPI         :
ILD.OHMM        :
ILM.OHMM        :
SGRD.OHMM       :
SP.MV           :
TENS.LBS        :
~ASCII ------------------------------------------------------
# ...
11417.00000      853.18214        1.44593       94.79373       84.92340        1.10804        0.94166        1.25354      -38.86376     4559.92539
11417.50000      872.34437        1.44489       96.75836       87.05494        1.08062        0.92321        1.22163      -38.86755     4572.89199
11418.00000      891.50661        1.44386       98.33007       90.75762        1.05397        0.90521        1.19053      -38.87135     4575.64248
11418.50000      903.31719        1.44282       99.31239       94.16386        1.02789        0.89225        1.17990      -38.71704     4575.64248
11419.00000      915.12778        1.44179       99.70532       95.64322        1.00986        0.87947        1.18252      -38.52320     4575.64248
11419.50000      926.93837        1.34896       98.52654       97.12259        0.99206        0.86937        1.18525      -37.76811     4575.64248
11420.00000      938.74895        1.19433       97.93714       94.30354        0.98311        0.85988        1.18799      -36.87467     4593.32420
11420.50000      950.55954        1.20198       97.93714       90.92422        0.98700        0.85267        1.18007      -36.20182     4611.39885
11421.00000      962.37012        1.27163       98.13361       89.60517        0.99081        0.84822        1.17209      -35.41510     4629.08058
11421.50000      966.27571        1.42538       98.13361       88.36616        0.99472        0.84802        1.16427      -34.94459     4647.15523
11422.00000      970.18130        1.57952       97.54422       87.25166        0.99856        0.84781        1.15640      -34.94838     4638.11790
11422.50000      974.48214        1.60574       96.56190       86.76265        0.99597        0.84761        1.15465      -34.95217     4611.00593
11423.00000      978.70393        1.47321       95.77604       86.43075        0.99347        0.84457        1.15438      -34.95597     4583.89395
11423.50000      983.00477        1.47218       96.56190       84.57515        0.99089        0.83718        1.14939      -35.12972     4556.78197
11424.00000      987.22656        1.47115       98.13361       85.15333        0.98831        0.82986        1.14131      -35.97936     4529.66999
11424.50000      991.52739        1.47011      100.49117       88.53938        0.98584        0.82237        1.13328      -36.15312     4502.55801
11425.00000      995.74918        1.43275      102.45581       90.06321        0.98327        0.81392        1.12531      -35.73399     4489.59142
11425.50000     1000.05002        1.38591      102.84873       91.65523        0.98081        0.80960        1.12463      -35.31486     4480.16116
11426.00000     1004.27181        1.35803      102.65227       93.61779        0.97968        0.81147        1.12898      -34.95502     4470.73091
11426.50000     1008.57265        1.40319      101.47349       92.57740        0.98418        0.81334        1.13323      -34.83233     4461.69358
11427.00000     1012.79444        1.44875      100.88410       91.64669        0.98879        0.81515        1.13750      -34.71360     4457.76431
11427.50000     1017.09528        1.49392      100.29471       91.14879        0.99333        0.81725        1.14179      -34.59486     4457.76431
11428.00000     1011.75202        1.68281       99.50885       88.47796        0.99798        0.81936        1.14609      -34.92672     4457.76431
11428.50000     1006.48781        1.90764       97.54422       87.58579        1.00265        0.82156        1.15041      -35.26253     4457.76431
11429.00000     1001.14455        2.13207       96.36544       90.36357        1.00059        0.82398        1.14368      -35.59438     4457.76431
11429.50000     1003.07389        2.15315       96.56190       92.32317        0.99410        0.82671        1.13429      -35.57841     4457.76431
11430.00000     1005.00323        2.17226       97.54422       90.83811        0.98765        0.82937        1.12498      -35.04466     4457.76431
11430.50000     1006.93257        2.18425      100.09824       91.04574        0.98124        0.82918        1.11931      -34.56229     4457.76431
11431.00000     1008.86191        2.19625      101.86642       91.12887        0.97487        0.82898        1.11904      -34.28150     4462.47944
11431.50000     1012.72059        2.20588      102.65227       89.05093        0.96854        0.82712        1.11878      -34.62521     4473.87433
11432.00000     1014.64993        2.20484      102.06288       86.97299        0.97317        0.82273        1.11851      -35.12308     4485.66214
11432.50000     1016.57927        2.26462      100.68763       87.23990        0.98048        0.82463        1.11825      -35.02806     4497.05703
11433.00000     1010.60361        2.41521      100.09824       87.50682        0.98794        0.83068        1.11798      -34.04371     4508.45192
11433.50000     1004.62795        2.53600       99.50885       83.85181        0.99546        0.83723        1.12460      -34.16608     4520.23974
11434.00000      998.65230        2.57880       99.50885       80.41023        1.00295        0.84552        1.14143      -34.56513     4531.63463
11434.50000      992.67664        2.54025       99.11593       81.74138        1.00907        0.85389        1.15861      -34.35944     4536.34975
11435.00000      986.70098        2.46538       99.11593       82.28695        1.01675        0.86243        1.17606      -34.00355     4536.34975
11435.50000      980.72532        2.31627       98.91946       81.84833        1.01743        0.86568        1.17599      -34.18916     4536.34975
11436.00000      974.74967        2.11781       99.11593       84.64390        1.01349        0.86551        1.17166      -34.73051     4536.34975
11436.50000      968.77401        2.06939       99.70532       86.05805        1.00957        0.86373        1.16723      -36.04655     4536.34975
11437.00000      980.58459        2.12087       99.70532       87.00975        1.00567        0.85571        1.16293      -43.72227     4531.24170
11437.50000      992.39518        2.17275       99.70532       88.65512        1.00178        0.84931        1.15854      -54.86438     4522.59730
11438.00000     1004.20577        2.27162       98.91946       91.51294        0.98287        0.84526        1.15144      -57.70611     4513.95290
11438.50000     1016.01635        2.40207       98.52654       92.14448        0.95463        0.82606        1.14251      -50.01351     4505.70143
11439.00000     1027.82694        2.34852       99.31239       92.46772        0.93797        0.80731        1.13231      -40.40072     4497.05703
11439.50000     1039.63753        2.24087      100.09824       92.38483        0.93775        0.80711        1.11752      -32.94603     4500.20045
11440.00000     1051.44811        2.10164      101.08056       89.29899        0.93753        0.81215        1.10282      -34.13560     4503.73680
11440.50000     1063.25870        1.96240      102.25934       87.14694        0.93730        0.81997        1.09397      -34.87062     4506.88021
11441.00000     1048.98279        1.82317      100.68763       88.77510        0.93861        0.82778        1.11378      -33.79931     4510.41656
11441.50000     1034.70689        1.68393       98.52654       88.62403        0.94232        0.84600        1.16531      -32.72406     4513.55998
11442.00000     1020.43098        1.54470       96.56190       87.01447        0.95261        0.88064        1.21921      -33.16659     4517.09632
11442.50000     1006.15508        1.43547       95.18665       85.74581        0.99053        0.89479        1.24129      -33.52216     4520.23974
11443.00000      991.87917        1.44510       95.57958       85.82301        1.02997        0.89458        1.22753      -33.52595     4523.77608
11443.50000      977.60327        1.45512       95.97251       85.90317        1.07097        0.92893        1.20512      -33.66018     4526.91950
11444.00000      963.32736        1.46515       95.57958       85.98332        1.11361        0.96451        1.19610      -35.79045     4530.45585
