~Version ---------------------------------------------------
VERS. 2.0 : CWLS LOG ASCII STANDARD - VERSION 2.0
WRAP. NO  : One line per depth step
DLM . SPACE : Column Data Section Delimiter
~Well ------------------------------------------------------
STRT.F         3992 : START DEPTH
STOP.F      15175.5 : STOP DEPTH
STEP.F          0.5 : STEP
NULL.       -999.25 : NULL VALUE
COMP.                  HILCORP ENERGY CO. : COMPANY
WELL.          212648-SL3306-015-03306-10 : WELL
FLD .                       REDFISH POINT : FIELD
CNTY.                           VERMILION : COUNTY
STAT.                           LOUISIANA : STATE
CTRY.                                 USA : COUNTRY
SEC .                                     : SECTION
TWP .                                     : TOWNSHIP
RGE .                                     : RANGE
LOC . LAT 29*40'57.085"N LONG 92*2'43.95"W : LOCATION
EKB .F                       41 : ELEVATION KELLY BUSHING
EDF .F                       41 : ELEVATION DERRICK FLOOR
EGL .F                          : ELEVATION GROUND LEVEL
PDAT.                       MSL : PERMANENT DATUM
EPD .                           : ELEVATION PERMANENT DATUM
APD .                           : ABOVE PERMANENT DATUM
LMF .                        KB : LOG MEASURED FROM
DMF .                        KB : DRILLING MEASURED FROM
API .            17113217870000 : API NUMBER
UWI .                           : UWI NUMBER
DIGC.                     NthDS : DIGITIZING COMPANY
~Params ----------------------------------------------------
SRVC.               HALLIBURTON : LOGGING COMPANY
LOG .                 DIL/SONIC : LOG
DATE.                           : RUN DATE
RUN .                         1 : RUN NUMBER
TDD .F                          : TOTAL DEPTH DRILLER
TDL .F                          : TOTAL DEPTH LOGGER
BOTL.F                          : BOTTOM LOGGED INTERVAL
TOPL.F                          : TOP LOGGED INTERVAL
CSGS.IN                         : CASING SIZE
CSGD.F                          : CASING DRILLER
CSGL.F                          : CASING LOGGER
BS  .IN                         : BIT SIZE
MUD .                           : MUD TYPE
MUDD.                           : MUD DENSITY
MUDV.                           : MUD VISCOSITY
PH  .                           : MUD PH
FL  .                           : FLUID LOSS
MUDS.                           : SOURCE OF SAMPLE
RM  .OHMM                       : MUD RESISTIVITY
RMT .DEGF                       : RM TEMPERATURE
RMF .OHMM                       : MUD FILTRATE RESISTIVITY
RMFT.DEGF                       : RMF TEMPERATURE
RMC .OHMM                       : MUD CAKE RESISTIVITY
RMCT.DEGF                       : RMC TEMPERATURE
RMFS.                           : RMF SOURCE
RMCS.                           : RMC SOURCE
RMBH.OHMM                       : MUD RESISTIVITY AT BHT
BHT .DEGF                       : BOTTOM HOLE TEMPERATURE
TIMC.                           : TIME CIRCULATION STOPPED
TIML.                           : TIME LOGGER ON BOTTOM
TMAX.DEGF                       : MAXIMUM RECORDED TEMPERATURE
UNIT.                      4546 : EQUIPMENT NUMBER
BASE.                     HOUMA : BASE LOCATION
ENG .                 BOURGEOIS : RECORDED BY
WIT .                BRUNEFIELD : WITNESSED BY
#
SRVC.               HALLIBURTON : LOGGING COMPANY
LOG .                 DIL/SONIC : LOG
DATE.                1991-02-03 : RUN DATE
RUN .                         2 : RUN NUMBER
TDD .F                    15214 : TOTAL DEPTH DRILLER
TDL .F                    15178 : TOTAL DEPTH LOGGER
BOTL.F                    15174 : BOTTOM LOGGED INTERVAL
TOPL.F                    14860 : TOP LOGGED INTERVAL
CSGS.IN                         : CASING SIZE
CSGD.F                    14869 : CASING DRILLER
CSGL.F                   148756 : CASING LOGGER
BS  .IN                       6 : BIT SIZE
MUD .                     LIGNO : MUD TYPE
MUDD.                        10 : MUD DENSITY
MUDV.                        44 : MUD VISCOSITY
PH  .                        11 : MUD PH
FL  .                       5.2 : FLUID LOSS
MUDS.                  FLOWLINE : SOURCE OF SAMPLE
RM  .OHMM                   2.1 : MUD RESISTIVITY
RMT .DEGF                    68 : RM TEMPERATURE
RMF .OHMM                   1.9 : MUD FILTRATE RESISTIVITY
RMFT.DEGF                    68 : RMF TEMPERATURE
RMC .OHMM                   2.5 : MUD CAKE RESISTIVITY
RMCT.DEGF                    68 : RMC TEMPERATURE
RMFS.                      MEAS : RMF SOURCE
RMCS.                      MEAS : RMC SOURCE
RMBH.OHMM                  0.62 : MUD RESISTIVITY AT BHT
BHT .DEGF                   245 : BOTTOM HOLE TEMPERATURE
TIMC.                           : TIME CIRCULATION STOPPED
TIML.                     1630  : TIME LOGGER ON BOTTOM
TMAX.DEGF                   245 : MAXIMUM RECORDED TEMPERATURE
UNIT.                      4546 : EQUIPMENT NUMBER
BASE.                       HMA : BASE LOCATION
ENG .                 BOURGEOIS : RECORDED BY
WIT .                 BREAZEALE : WITNESSED BY
~Curve Information -----------------------------------------
DEPT.F          :DEPTH
CILD.MMHO       :
DCAL.IN         :
DT.US/F         :
GR.GAPI         :
ILD.OHMM        :
ILM.OHMM        :
SGRD.OHMM       :
SP.MV           :
TENS.LBS        :
~ASCII ------------------------------------------------------
# ...
4734.50000     5403.81310        2.22749        -999.25       47.76357        0.18894        0.23203        0.97862     -153.61223     2621.31779
4735.00000     5416.82769        2.21223        -999.25       47.61578        0.18893        0.23140        0.97598     -153.56429     2625.50273
4735.50000     5429.76372        2.11801        -999.25       47.85030        0.18892        0.23059        0.97327     -153.99052     2629.68767
4736.00000     5428.87228        2.04265        -999.25       47.05646        0.18891        0.22966        0.97056     -154.73286     2633.47978
4736.50000     5428.15912        2.04712        -999.25       39.68353        0.18889        0.22966        0.96795     -154.91805     2637.66472
4737.00000     5427.26767        2.08832        -999.25       36.74874        0.18888        0.22990        0.96921     -154.72786     2641.84966
4737.50000     5426.37623        2.18517        -999.25       36.21865        0.18887        0.23205        0.97312     -154.53767     2645.64177
4738.00000     5425.48478        2.28163        -999.25       38.54543        0.18887        0.23422        0.97714     -155.25235     2649.14685
4738.50000     5429.07155        2.37809        -999.25       40.63513        0.18886        0.23484        0.98529     -156.19226     2653.33179
4739.00000     5412.70275        2.47494        -999.25       41.78242        0.18897        0.23509        0.99631     -157.13217     2657.12390
4739.50000     5352.10174        2.57140        -999.25       42.04064        0.18917        0.23533        1.00523     -157.47937     2661.30884
4740.00000     5272.64508        2.63510        -999.25       41.70615        0.19041        0.23557        1.01647     -157.43143     2665.49378
4740.50000     5177.29709        2.64866        -999.25       33.74051        0.19326        0.24014        1.01956     -156.98835     2669.67872
4741.00000     5097.84042        2.66261        -999.25       31.99833        0.19615        0.24480        1.02061     -155.95256     2673.47083
4741.50000     5018.38376        2.67656        -999.25       30.60459        0.19909        0.24955        1.02166     -154.91677     2672.54903
4742.00000     4938.92710        2.68578        -999.25       26.43230        0.20208        0.25439        1.02272     -152.52170     2668.09179
4742.50000     4890.03230        2.67605        -999.25       31.65448        0.20320        0.25733        1.02377     -150.12662     2663.63456
4743.00000     4854.65073        2.66632        -999.25       35.99478        0.20385        0.26032        1.02260     -147.73550     2659.17732
4743.50000     4873.40058        2.65698        -999.25       39.98115        0.20451        0.26223        1.02077     -146.51399     2654.72009
4744.00000     4947.85318        2.64725        -999.25       43.97048        0.20514        0.26250        1.01904     -145.58884     2653.79829
4744.50000     5059.46712        2.63751        -999.25       45.71345        0.20276        0.25881        1.01732     -145.54090     2658.37605
4745.00000     5148.71113        2.62581        -999.25       45.57159        0.19841        0.25515        1.01559     -145.49296     2662.95382
4745.50000     5260.32508        2.61213        -999.25       43.87979        0.19415        0.25035        1.01378     -145.44502     2667.13876
4746.00000     5371.93902        2.52700        -999.25       42.18799        0.19099        0.24460        1.00647     -146.11623     2670.64384
4746.50000     5394.79542        2.33409        -999.25       40.49323        0.18937        0.23898        0.97747     -146.78745     2668.15073
4747.00000     5424.23015        2.17977        -999.25       38.25911        0.18775        0.23411        0.94930     -146.88176     2663.69350
4747.50000     5456.96462        1.98687        -999.25       36.18078        0.18647        0.23171        0.92730     -146.83382     2659.23626
4748.00000     5474.22173        1.85989        -999.25       34.60753        0.18540        0.23041        0.91986     -146.78588     2659.10011
4748.50000     5487.62916        1.73252        -999.25       33.71589        0.18505        0.22983        0.95491     -147.28718     2664.85635
4749.00000     5494.82993        1.76344        -999.25       36.02489        0.18472        0.22928        0.95589     -147.92679     2670.61260
4749.50000     5497.86674        1.89938        -999.25       38.79451        0.18439        0.22951        0.95688     -148.56639     2676.36884
4750.00000     5500.19983        2.00837        -999.25       41.06213        0.18201        0.22718        0.95234     -148.83442     2636.96691
4750.50000     5512.42877        2.00896        -999.25       41.78267        0.18162        0.22709        0.96340     -149.33572     2619.15358
4751.00000     5526.09305        2.09136        -999.25       42.50320        0.18126        0.22657        0.97474     -149.28778     2600.94744
4751.50000     5564.87704        2.17377        -999.25       41.03367        0.18232        0.22607        0.97551     -149.46507     2583.13411
4752.00000     5633.67294        2.25618        -999.25       38.10607        0.18262        0.22539        0.97629     -149.41318     2564.92797
4752.50000     5702.46884        2.29674        -999.25       35.76399        0.17988        0.22442        0.98214     -148.92268     2547.11464
4753.00000     5771.26474        2.30966        -999.25       34.31817        0.17718        0.22412        0.99578     -148.77991     2539.90763
4753.50000     5826.33288        2.32258        -999.25       33.61324        0.17452        0.22429        1.00599     -148.84825     2535.45039
4754.00000     5895.12878        2.33550        -999.25       35.87186        0.17219        0.22447        1.00647     -148.93070     2530.99316
4754.50000     5963.92468        2.34447        -999.25       37.53777        0.17103        0.22615        1.02575     -148.41650     2526.53592
4755.00000     5947.32019        2.34792        -999.25       37.89972        0.16988        0.22821        1.04540     -146.73099     2522.97013
4755.50000     5831.17357        2.43862        -999.25       40.25443        0.16975        0.23228        1.04623     -145.32377     2518.51290
4756.00000     5512.62180        2.55103        -999.25       39.57914        0.17490        0.23781        1.03758     -143.14602     2514.05566
4756.50000     5152.58759        2.66305        -999.25       38.37210        0.18152        0.24837        1.00133     -139.80261     2509.59843
4757.00000     4691.43995        2.77546        -999.25       39.64385        0.19957        0.26288        0.95759     -134.03698     2505.14119
4757.50000     4179.69632        2.88787        -999.25       40.27252        0.22258        0.28182        0.89927     -125.06113     2500.68395
4758.00000     3470.48500        3.00028        -999.25       44.07049        0.25185        0.30407        0.85999     -117.39093     2530.00976
4758.50000     2794.04752        2.74316        -999.25       51.02042        0.31287        0.34351        0.80748     -102.31806     2581.72666
4759.00000     2396.22344        2.48603        -999.25       59.36151        0.37486        0.40675        0.80812      -90.14158     2633.05072
4759.50000     2023.54024        2.22890        -999.25       68.25383        0.44915        0.48163        0.82360      -82.45557     2639.98544
4760.00000     1529.86660        2.02320        -999.25       85.03216        0.55797        0.58989        0.85478      -77.65636     2635.52821
4760.50000     1411.12733        1.76607        -999.25       94.48756        0.62903        0.68422        0.87115      -74.84243     2631.07097
4761.00000     1323.63585        1.52790        -999.25       98.69916        0.68097        0.73068        0.88784      -73.80664     2626.61374
4761.50000     1307.03136        1.29446        -999.25      101.05261        0.71535        0.76826        0.89666      -72.77085     2623.04795
