~Version ---------------------------------------------------
VERS. 2.0 : CWLS LOG ASCII STANDARD - VERSION 2.0
WRAP. NO  : One line per depth step
DLM . SPACE : Column Data Section Delimiter
~Well ------------------------------------------------------
STRT.F         3992 : START DEPTH
STOP.F      15175.5 : STOP DEPTH
STEP.F          0.5 : STEP
NULL.       -999.25 : NULL VALUE
COMP.                  HILCORP ENERGY CO. : COMPANY
WELL.          212648-SL3306-015-03306-10 : WELL
FLD .                       REDFISH POINT : FIELD
CNTY.                           VERMILION : COUNTY
STAT.                           LOUISIANA : STATE
CTRY.                                 USA : COUNTRY
SEC .                                     : SECTION
TWP .                                     : TOWNSHIP
RGE .                                     : RANGE
LOC . LAT 29*40'57.085"N LONG 92*2'43.95"W : LOCATION
EKB .F                       41 : ELEVATION KELLY BUSHING
EDF .F                       41 : ELEVATION DERRICK FLOOR
EGL .F                          : ELEVATION GROUND LEVEL
PDAT.                       MSL : PERMANENT DATUM
EPD .                           : ELEVATION PERMANENT DATUM
APD .                           : ABOVE PERMANENT DATUM
LMF .                        KB : LOG MEASURED FROM
DMF .                        KB : DRILLING MEASURED FROM
API .            17113217870000 : API NUMBER
UWI .                           : UWI NUMBER
DIGC.                     NthDS : DIGITIZING COMPANY
~Params ----------------------------------------------------
SRVC.               HALLIBURTON : LOGGING COMPANY
LOG .                 DIL/SONIC : LOG
DATE.                           : RUN DATE
RUN .                         1 : RUN NUMBER
TDD .F                          : TOTAL DEPTH DRILLER
TDL .F                          : TOTAL DEPTH LOGGER
BOTL.F                          : BOTTOM LOGGED INTERVAL
TOPL.F                          : TOP LOGGED INTERVAL
CSGS.IN                         : CASING SIZE
CSGD.F                          : CASING DRILLER
CSGL.F                          : CASING LOGGER
BS  .IN                         : BIT SIZE
MUD .                           : MUD TYPE
MUDD.                           : MUD DENSITY
MUDV.                           : MUD VISCOSITY
PH  .                           : MUD PH
FL  .                           : FLUID LOSS
MUDS.                           : SOURCE OF SAMPLE
RM  .OHMM                       : MUD RESISTIVITY
RMT .DEGF                       : RM TEMPERATURE
RMF .OHMM                       : MUD FILTRATE RESISTIVITY
RMFT.DEGF                       : RMF TEMPERATURE
RMC .OHMM                       : MUD CAKE RESISTIVITY
RMCT.DEGF                       : RMC TEMPERATURE
RMFS.                           : RMF SOURCE
RMCS.                           : RMC SOURCE
RMBH.OHMM                       : MUD RESISTIVITY AT BHT
BHT .DEGF                       : BOTTOM HOLE TEMPERATURE
TIMC.                           : TIME CIRCULATION STOPPED
TIML.                           : TIME LOGGER ON BOTTOM
TMAX.DEGF                       : MAXIMUM RECORDED TEMPERATURE
UNIT.                      4546 : EQUIPMENT NUMBER
BASE.                     HOUMA : BASE LOCATION
ENG .                 BOURGEOIS : RECORDED BY
WIT .                BRUNEFIELD : WITNESSED BY
#
SRVC.               HALLIBURTON : LOGGING COMPANY
LOG .                 DIL/SONIC : LOG
DATE.                1991-02-03 : RUN DATE
RUN .                         2 : RUN NUMBER
TDD .F                    15214 : TOTAL DEPTH DRILLER
TDL .F                    15178 : TOTAL DEPTH LOGGER
BOTL.F                    15174 : BOTTOM LOGGED INTERVAL
TOPL.F                    14860 : TOP LOGGED INTERVAL
CSGS.IN                         : CASING SIZE
CSGD.F                    14869 : CASING DRILLER
CSGL.F                   148756 : CASING LOGGER
BS  .IN                       6 : BIT SIZE
MUD .                     LIGNO : MUD TYPE
MUDD.                        10 : MUD DENSITY
MUDV.                        44 : MUD VISCOSITY
PH  .                        11 : MUD PH
FL  .                       5.2 : FLUID LOSS
MUDS.                  FLOWLINE : SOURCE OF SAMPLE
RM  .OHMM                   2.1 : MUD RESISTIVITY
RMT .DEGF                    68 : RM TEMPERATURE
RMF .OHMM                   1.9 : MUD FILTRATE RESISTIVITY
RMFT.DEGF                    68 : RMF TEMPERATURE
RMC .OHMM                   2.5 : MUD CAKE RESISTIVITY
RMCT.DEGF                    68 : RMC TEMPERATURE
RMFS.                      MEAS : RMF SOURCE
RMCS.                      MEAS : RMC SOURCE
RMBH.OHMM                  0.62 : MUD RESISTIVITY AT BHT
BHT .DEGF                   245 : BOTTOM HOLE TEMPERATURE
TIMC.                           : TIME CIRCULATION STOPPED
TIML.                     1630  : TIME LOGGER ON BOTTOM
TMAX.DEGF                   245 : MAXIMUM RECORDED TEMPERATURE
UNIT.                      4546 : EQUIPMENT NUMBER
BASE.                       HMA : BASE LOCATION
ENG .                 BOURGEOIS : RECORDED BY
WIT .                 BREAZEALE : WITNESSED BY
~Curve Information -----------------------------------------
DEPT.F          :DEPTH
CILD.MMHO       :
DCAL.IN         :
DT.US/F         :
GR.GAPI         :
ILD.OHMM        :
ILM.OHMM        :
SGRD.OHMM       :
SP.MV           :
TENS.LBS        :
~ASCII ------------------------------------------------------
# ...
12159.50000     1794.03965       -0.54956       81.02359       63.97742        0.57191        0.69294        1.36542      -96.25017     4727.31238
12160.00000     1786.06583       -0.49142       87.42634       68.48049        0.58424        0.70876        1.60795      -89.10774     4732.81336
12160.50000     1778.09201       -0.41313       97.74068       72.62784        0.62276        0.72133        1.81931      -85.40798     4748.53045
12161.00000     1681.58404       -0.33485      107.36740       73.45503        0.67619        0.73325        1.68068      -83.48217     4764.24754
12161.50000     1585.07606       -0.25262      113.65423       72.26642        0.74658        0.78131        1.30866      -78.94052     4779.96463
12162.00000     1488.56808       -0.15459      113.58154       70.28630        0.80813        0.85912        1.28921      -76.98779     4795.68172
12162.50000     1295.55213       -0.08618      105.35365       69.88919        0.80800        0.92145        1.48584      -79.32360     4811.39880
12163.00000     1265.44477       -0.13623       96.36544       74.57902        0.82870        0.95230        1.58322      -81.04676     4811.39880
12163.50000     1235.33741       -0.03820       90.47153       75.26152        0.85536        0.98258        1.45198      -81.68296     4811.39880
12164.00000     1205.23005        0.15854       89.48921       75.51362        0.86069        1.00702        1.18317      -82.08201     4811.39880
12164.50000     1175.12269        0.19734       86.93518       78.47519        0.84889        1.03217        1.13556      -83.78936     4811.39880
12165.00000     1145.01533        0.08491       80.05896       79.30239        0.79281        1.01802        1.29373      -87.46508     4814.54222
12165.50000     1238.22341       -0.09703       75.73676       76.53077        0.72379        1.00407        1.49703      -96.65463     4822.40077
12166.00000     1331.43148       -0.27856       76.12968       72.99434        0.66078        0.94846        1.73227     -105.84022     4830.25931
12166.50000     1424.63955       -0.31203       82.22006       69.98557        0.62107        0.89275        1.56246     -115.02977     4838.11785
12167.00000     1467.55751       -0.34588       88.50689       69.38984        0.61239        0.83590        1.40917     -119.41695     4845.97640
12167.50000     1517.84763       -0.34460       90.66799       68.83857        0.61508        0.80525        1.27103     -117.52351     4842.44005
12168.00000     1611.05570       -0.32081       87.37133       63.71321        0.64846        0.83647        1.34208     -111.59847     4821.61491
12168.50000     1555.65287       -0.25239       76.67585       58.59081        0.68366        0.91369        1.76266     -105.67342     4801.18270
12169.00000     1444.84720       -0.18398       65.32419       54.14133        0.74298        1.01719        3.16092     -102.91042     4780.35755
12169.50000     1389.44437       -0.11557       58.66407       44.25807        0.81357        1.13232        6.55934     -102.64939     4772.10608
12170.00000     1334.04154       -0.04716       55.42242       40.10504        0.89087        1.26059       13.61275     -103.74410     4772.10608
12170.50000     1278.63871       -0.10905       54.91161       37.38382        0.92372        1.40338       12.59606     -107.88227     4772.10608
12171.00000     1223.23587       -0.15857       60.20041       35.75054        0.92357        1.42028        6.80399     -112.01649     4772.10608
12171.50000     1167.83304       -0.22046       65.49118       38.59354        0.89972        1.37770        3.94111     -114.98470     4787.43024
12172.00000     1112.43021       -0.28275       71.88607       42.26658        0.84082        1.25491        2.53536     -119.13869     4812.97051
12172.50000     1057.02738       -0.34464       78.29078       47.36253        0.74534        1.08859        1.85918     -125.07132     4838.90371
12173.00000     1173.39662       -0.40653       82.26131       52.55039        0.66076        0.92298        1.70693     -125.07512     4864.44398
12173.50000     1289.68681       -0.37603       86.40277       55.00505        0.58572        0.80518        1.59691     -123.10263     4889.98425
12174.00000     1406.05605       -0.34552       90.54225       54.04766        0.52749        0.71129        1.49399     -124.88508     4863.65812
12174.50000     1468.21507       -0.31502       92.48921       53.87881        0.47505        0.66050        1.43387     -126.66752     4837.72493
12175.00000     1522.42529       -0.29794       91.14933       54.56371        0.45386        0.61547        1.40143     -126.67132     4811.39880
12175.50000     1638.79454       -0.33456       88.95876       55.81481        0.44319        0.57376        1.32886     -126.67511     4785.07268
12176.00000     1755.08473       -0.37118       83.35954       57.06592        0.43513        0.53342        1.25846     -129.55242     4759.13948
12176.50000     1871.45397       -0.40780       78.19255       58.37927        0.43152        0.50973        1.10666     -132.43368     4732.81336
12177.00000     1987.82321       -0.44443       79.66603       59.30429        0.42903        0.50752        0.95529     -129.84854     4732.81336
12177.50000     2104.19245       -0.47749       82.36740       58.66706        0.42651        0.50580        0.87507     -121.72587     4732.81336
12178.00000     2220.48264       -0.50977       83.93125       55.67608        0.43249        0.52326        1.01580     -112.72968     4732.81336
12178.50000     2336.85189       -0.54205       83.79176       52.09814        0.45210        0.53486        1.02389     -107.06551     4734.38507
12179.00000     2261.68696       -0.57433       82.12182       48.52317        0.49160        0.53702        0.99618     -111.57522     4739.10020
12179.50000     2186.52204       -0.60661       80.45188       45.63298        0.53455        0.54659        0.98343     -117.37742     4743.42240
12180.00000     2111.35712       -0.60611       81.91357       46.66768        0.53049        0.58773        0.98865     -123.17962     4747.74460
12180.50000     2036.19220       -0.59732       86.28096       52.59367        0.50734        0.62285        1.12810     -121.17947     4752.06679
12181.00000     1961.02728       -0.58854       89.09628       55.85169        0.48059        0.61153        1.32751     -117.49552     4756.38899
12181.50000     1885.86236       -0.58014       89.22791       56.25201        0.45525        0.58426        1.44153     -115.33727     4760.71119
12182.00000     1988.55624       -0.53226       87.91750       56.65529        0.43769        0.54650        1.34409     -117.83117     4765.03339
12182.50000     2091.25011       -0.45911       87.60316       52.87873        0.43024        0.51114        1.10255     -122.77567     4769.35559
12183.00000     2193.94399       -0.38557       89.25935       55.64169        0.41841        0.47811        0.90450     -124.45930     4765.42632
12183.50000     2296.63786       -0.33532       91.63459       58.40761        0.40121        0.48074        0.74195     -114.56193     4749.31630
12184.00000     2399.33174       -0.31982       94.00787       61.17057        0.38172        0.48739        0.77810     -102.31279     4732.81336
12184.50000     2455.18351       -0.30393       88.34972       61.06990        0.37274        0.49419        1.05816      -98.08734     4716.31042
12185.00000     2502.02562       -0.35832       83.83106       59.08979        0.39666        0.49550        1.34098     -103.11879     4700.20040
12185.50000     2604.71949       -0.41310       79.31239       54.04743        0.42711        0.49542        1.35301     -111.24905     4698.62869
12186.00000     2425.37890       -0.43432       77.35758       49.00507        0.45993        0.50311        1.15780     -114.89711     4707.27309
12186.50000     2335.74813       -0.44725       79.07664       49.59510        0.49527        0.52304        0.95850     -107.22108     4715.91749
