~Version ---------------------------------------------------
VERS. 2.0 : CWLS LOG ASCII STANDARD - VERSION 2.0
WRAP. NO  : One line per depth step
DLM . SPACE : Column Data Section Delimiter
~Well ------------------------------------------------------
STRT.F         3992 : START DEPTH
STOP.F      15175.5 : STOP DEPTH
STEP.F          0.5 : STEP
NULL.       -999.25 : NULL VALUE
COMP.                  HILCORP ENERGY CO. : COMPANY
WELL.          212648-SL3306-015-03306-10 : WELL
FLD .                       REDFISH POINT : FIELD
CNTY.                           VERMILION : COUNTY
STAT.                           LOUISIANA : STATE
CTRY.                                 USA : COUNTRY
SEC .                                     : SECTION
TWP .                                     : TOWNSHIP
RGE .                                     : RANGE
LOC . LAT 29*40'57.085"N LONG 92*2'43.95"W : LOCATION
EKB .F                       41 : ELEVATION KELLY BUSHING
EDF .F                       41 : ELEVATION DERRICK FLOOR
EGL .F                          : ELEVATION GROUND LEVEL
PDAT.                       MSL : PERMANENT DATUM
EPD .                           : ELEVATION PERMANENT DATUM
APD .                           : ABOVE PERMANENT DATUM
LMF .                        KB : LOG MEASURED FROM
DMF .                        KB : DRILLING MEASURED FROM
API .            17113217870000 : API NUMBER
UWI .                           : UWI NUMBER
DIGC.                     NthDS : DIGITIZING COMPANY
~Params ----------------------------------------------------
SRVC.               HALLIBURTON : LOGGING COMPANY
LOG .                 DIL/SONIC : LOG
DATE.                           : RUN DATE
RUN .                         1 : RUN NUMBER
TDD .F                          : TOTAL DEPTH DRILLER
TDL .F                          : TOTAL DEPTH LOGGER
BOTL.F                          : BOTTOM LOGGED INTERVAL
TOPL.F                          : TOP LOGGED INTERVAL
CSGS.IN                         : CASING SIZE
CSGD.F                          : CASING DRILLER
CSGL.F                          : CASING LOGGER
BS  .IN                         : BIT SIZE
MUD .                           : MUD TYPE
MUDD.                           : MUD DENSITY
MUDV.                           : MUD VISCOSITY
PH  .                           : MUD PH
FL  .                           : FLUID LOSS
MUDS.                           : SOURCE OF SAMPLE
RM  .OHMM                       : MUD RESISTIVITY
RMT .DEGF                       : RM TEMPERATURE
RMF .OHMM                       : MUD FILTRATE RESISTIVITY
RMFT.DEGF                       : RMF TEMPERATURE
RMC .OHMM                       : MUD CAKE RESISTIVITY
RMCT.DEGF                       : RMC TEMPERATURE
RMFS.                           : RMF SOURCE
RMCS.                           : RMC SOURCE
RMBH.OHMM                       : MUD RESISTIVITY AT BHT
BHT .DEGF                       : BOTTOM HOLE TEMPERATURE
TIMC.                           : TIME CIRCULATION STOPPED
TIML.                           : TIME LOGGER ON BOTTOM
TMAX.DEGF                       : MAXIMUM RECORDED TEMPERATURE
UNIT.                      4546 : EQUIPMENT NUMBER
BASE.                     HOUMA : BASE LOCATION
ENG .                 BOURGEOIS : RECORDED BY
WIT .                BRUNEFIELD : WITNESSED BY
#
SRVC.               HALLIBURTON : LOGGING COMPANY
LOG .                 DIL/SONIC : LOG
DATE.                1991-02-03 : RUN DATE
RUN .                         2 : RUN NUMBER
TDD .F                    15214 : TOTAL DEPTH DRILLER
TDL .F                    15178 : TOTAL DEPTH LOGGER
BOTL.F                    15174 : BOTTOM LOGGED INTERVAL
TOPL.F                    14860 : TOP LOGGED INTERVAL
CSGS.IN                         : CASING SIZE
CSGD.F                    14869 : CASING DRILLER
CSGL.F                   148756 : CASING LOGGER
BS  .IN                       6 : BIT SIZE
MUD .                     LIGNO : MUD TYPE
MUDD.                        10 : MUD DENSITY
MUDV.                        44 : MUD VISCOSITY
PH  .                        11 : MUD PH
FL  .                       5.2 : FLUID LOSS
MUDS.                  FLOWLINE : SOURCE OF SAMPLE
RM  .OHMM                   2.1 : MUD RESISTIVITY
RMT .DEGF                    68 : RM TEMPERATURE
RMF .OHMM                   1.9 : MUD FILTRATE RESISTIVITY
RMFT.DEGF                    68 : RMF TEMPERATURE
RMC .OHMM                   2.5 : MUD CAKE RESISTIVITY
RMCT.DEGF                    68 : RMC TEMPERATURE
RMFS.                      MEAS : RMF SOURCE
RMCS.                      MEAS : RMC SOURCE
RMBH.OHMM                  0.62 : MUD RESISTIVITY AT BHT
BHT .DEGF                   245 : BOTTOM HOLE TEMPERATURE
TIMC.                           : TIME CIRCULATION STOPPED
TIML.                     1630  : TIME LOGGER ON BOTTOM
TMAX.DEGF                   245 : MAXIMUM RECORDED TEMPERATURE
UNIT.                      4546 : EQUIPMENT NUMBER
BASE.                       HMA : BASE LOCATION
ENG .                 BOURGEOIS : RECORDED BY
WIT .                 BREAZEALE : WITNESSED BY
~Curve Information -----------------------------------------
DEPT.F          :DEPTH
CILD.MMHO       :
DCAL.IN         :
DT.US/F         :
GR.GAPI         :
ILD.OHMM        :
ILM.OHMM        :
SGRD.OHMM       :
SP.MV           :
TENS.LBS        :
~ASCII ------------------------------------------------------
# ...
12902.00000      615.29294        4.42264       81.31117       65.85805        1.69311        1.40673        1.58611      -51.30007     4963.60464
12902.50000      614.06580        4.41642       75.04894       64.49157        1.65630        1.42427        1.61761      -52.39082     4960.08214
12903.00000      612.91770        4.45798       72.11352       63.34149        1.64703        1.40603        1.60271      -49.82545     4956.55963
12903.50000      611.76961        4.55601       74.26616       60.91375        1.64677        1.37634        1.56189      -48.18103     4953.03713
12904.00000      610.62151        4.63153       77.98436       59.38423        1.64651        1.34715        1.50464      -51.80932     4953.03713
12904.50000      609.39437        4.61662       81.70256       61.04146        1.62542        1.32749        1.44949      -49.34276     4953.03713
12905.00000      616.15130        4.60172       84.24659       61.03861        1.59110        1.31395        1.43993      -46.87621     4953.03713
12905.50000      624.96354        4.60577       84.63798       63.08121        1.55736        1.30268        1.43839      -47.96695     4953.03713
12906.00000      633.85483        4.63825       83.85520       66.48745        1.52836        1.29209        1.44222      -51.47272     4953.03713
12906.50000      642.66707        4.67033       82.09395       66.79587        1.50222        1.28159        1.44607      -54.99034     4953.03713
12907.00000      651.55836        4.60370       80.91978       65.04402        1.47666        1.27372        1.44834      -53.61074     4953.03713
12907.50000      660.37060        4.53747       80.33270       64.35935        1.46133        1.26959        1.44811      -52.23113     4953.03713
12908.00000      669.26189        4.47083       80.91978       65.28437        1.46110        1.26559        1.42282      -54.21121     4953.03713
12908.50000      678.07413        4.39103       82.48534       63.33094        1.48524        1.25976        1.39785      -55.20314     4953.03713
12909.00000      686.96542        4.35757       83.85520       65.36465        1.51598        1.25146        1.38863      -56.19508     4953.03713
12909.50000      686.92403        4.32371       84.44229       66.01101        1.51642        1.28422        1.40262      -58.17515     4953.03713
12910.00000      686.88264        4.21523       83.85520       65.35896        1.49660        1.31772        1.44696      -60.15523     4954.99408
12910.50000      686.84125        4.05659       82.09395       66.34327        1.47717        1.34169        1.51401      -65.36850     4963.60464
12911.00000      686.79986        4.02905       81.70256       66.43825        1.44269        1.32427        1.57456      -70.58177     4972.60660
12911.50000      686.75847        4.08917       81.11548       65.93145        1.40556        1.29090        1.59839      -67.45908     4981.60855
12912.00000      696.36121        4.14929       81.31117       68.33571        1.36927        1.24924        1.57034      -58.48266     4990.21912
12912.50000      705.96396        4.21454       86.39923       69.63128        1.35666        1.18855        1.46873      -49.50228     4992.17606
12913.00000      715.64575        4.27940       89.92174       70.18278        1.34417        1.13091        1.37382      -47.75114     4992.17606
12913.50000      725.24849        4.34466       92.27007       72.93388        1.32130        1.11167        1.30387      -46.34782     4992.17606
12914.00000      734.85124        4.34397       93.44424       73.88262        1.29870        1.10013        1.27240      -46.81407     4992.17606
12914.50000      744.45398        4.34328       89.33465       72.63175        1.27660        1.09996        1.28475      -47.96806     4992.17606
12915.00000      754.13577        4.29520       83.85520       69.87496        1.27200        1.10811        1.31635      -49.12600     4994.13301
12915.50000      763.73852        4.21554       81.89826       67.50058        1.27956        1.11643        1.34873      -49.45786     4997.26413
12916.00000      773.34126        4.06481       81.11548       64.23687        1.29882        1.12471        1.35515      -48.88458     5000.39524
12916.50000      768.87305        3.85681       82.87673       62.63916        1.31848        1.12791        1.34390      -48.08205     5003.52636
12917.00000      764.48390        3.60933       85.81215       61.03850        1.33164        1.12354        1.32548      -47.28347     5006.65747
12917.50000      760.01569        3.36185       88.16048       60.74514        1.34494        1.11908        1.30780      -46.48094     5009.78858
12918.00000      755.62653        3.20638       89.53035       62.40830        1.35836        1.10374        1.29246      -45.67842     5012.91970
12918.50000      751.15833        3.07420       90.70452       63.92620        1.36347        1.08862        1.28382      -45.39762     5016.05081
12919.00000      746.76917        2.91556       91.48729       65.01129        1.35608        1.11064        1.27536      -45.89549     5019.18193
12919.50000      742.30096        2.71744       90.90021       64.51339        1.34861        1.12961        1.28517      -46.39335     5022.31304
12920.00000      737.91181        2.43640       89.92174       63.70719        1.34118        1.13458        1.32302      -48.04537     5025.44416
12920.50000      733.44360        1.82367       87.96479       62.43261        1.32956        1.13853        1.36198      -49.69343     5028.96666
12921.00000      739.88433        1.29386       87.18201       62.61652        1.31804        1.12948        1.37246      -51.64978     5032.09778
12921.50000      746.32506        1.18182       87.96479       63.81130        1.30673        1.08620        1.35070      -53.81168     5036.40306
12922.00000      752.68674        1.41450       90.31313       66.27782        1.29540        1.04448        1.28076      -54.60598     5040.70834
12922.50000      759.12748        1.64717       91.68299       67.75718        1.28418        1.01400        1.21445      -53.35286     5045.01363
12923.00000      765.56821        1.77797       90.70452       70.96480        1.27305        0.99865        1.21150      -52.87444     5049.31891
12923.50000      772.00894        1.90917       89.92174       74.56966        1.22605        0.98345        1.22415      -55.51460     5053.62419
12924.00000      778.44967        2.00285       89.33465       75.71701        1.19515        0.97439        1.22953      -57.49467     5057.53808
12924.50000      784.89040        2.07166       88.74757       75.15685        1.17428        0.96542        1.20631      -58.05182     5061.84337
12925.00000      791.25209        2.14086       93.44424       76.63621        1.14729        0.93291        1.18352      -56.51412     5066.14865
12925.50000      797.69282        2.29930       99.11939       75.15116        1.09612        0.90002        1.16106      -55.03570     5070.45393
12926.00000      804.13355        2.81470      104.20745       71.68883        1.04782        0.86609        1.13913      -58.43080     5077.49894
12926.50000      855.47484        3.33050      106.36009       70.35793        1.00373        0.83335        1.11406      -57.26858     5084.54395
12927.00000      906.81613        3.56001      105.18592       69.55469        0.96159        0.79580        1.08450      -52.25658     5091.58896
12927.50000      958.15742        3.59881      104.01175       68.81667        0.92113        0.76371        1.05573      -47.24457     5098.24258
12928.00000     1009.49872        3.53494      103.22897       70.39386        0.90415        0.73244        1.02772      -48.03888     5105.28758
12928.50000     1033.17241        3.40276      103.81606       72.50761        0.89289        0.71424        1.03308      -43.69486     5109.59287
12929.00000     1056.84610        3.27019      105.38162       73.35259        0.88827        0.71413        1.03848      -37.76981     5109.59287
