~Version ---------------------------------------------------
VERS. 2.0 : CWLS LOG ASCII STANDARD - VERSION 2.0
WRAP. NO  : One line per depth step
DLM . SPACE : Column Data Section Delimiter
~Well ------------------------------------------------------
STRT.F         3992 : START DEPTH
STOP.F      15175.5 : STOP DEPTH
STEP.F          0.5 : STEP
NULL.       -999.25 : NULL VALUE
COMP.                  HILCORP ENERGY CO. : COMPANY
WELL.          212648-SL3306-015-03306-10 : WELL
FLD .                       REDFISH POINT : FIELD
CNTY.                           VERMILION : COUNTY
STAT.                           LOUISIANA : STATE
CTRY.                                 USA : COUNTRY
SEC .                                     : SECTION
TWP .                                     : TOWNSHIP
RGE .                                     : RANGE
LOC . LAT 29*40'57.085"N LONG 92*2'43.95"W : LOCATION
EKB .F                       41 : ELEVATION KELLY BUSHING
EDF .F                       41 : ELEVATION DERRICK FLOOR
EGL .F                          : ELEVATION GROUND LEVEL
PDAT.                       MSL : PERMANENT DATUM
EPD .                           : ELEVATION PERMANENT DATUM
APD .                           : ABOVE PERMANENT DATUM
LMF .                        KB : LOG MEASURED FROM
DMF .                        KB : DRILLING MEASURED FROM
API .            17113217870000 : API NUMBER
UWI .                           : UWI NUMBER
DIGC.                     NthDS : DIGITIZING COMPANY
~Params ----------------------------------------------------
SRVC.               HALLIBURTON : LOGGING COMPANY
LOG .                 DIL/SONIC : LOG
DATE.                           : RUN DATE
RUN .                         1 : RUN NUMBER
TDD .F                          : TOTAL DEPTH DRILLER
TDL .F                          : TOTAL DEPTH LOGGER
BOTL.F                          : BOTTOM LOGGED INTERVAL
TOPL.F                          : TOP LOGGED INTERVAL
CSGS.IN                         : CASING SIZE
CSGD.F                          : CASING DRILLER
CSGL.F                          : CASING LOGGER
BS  .IN                         : BIT SIZE
MUD .                           : MUD TYPE
MUDD.                           : MUD DENSITY
MUDV.                           : MUD VISCOSITY
PH  .                           : MUD PH
FL  .                           : FLUID LOSS
MUDS.                           : SOURCE OF SAMPLE
RM  .OHMM                       : MUD RESISTIVITY
RMT .DEGF                       : RM TEMPERATURE
RMF .OHMM                       : MUD FILTRATE RESISTIVITY
RMFT.DEGF                       : RMF TEMPERATURE
RMC .OHMM                       : MUD CAKE RESISTIVITY
RMCT.DEGF                       : RMC TEMPERATURE
RMFS.                           : RMF SOURCE
RMCS.                           : RMC SOURCE
RMBH.OHMM                       : MUD RESISTIVITY AT BHT
BHT .DEGF                       : BOTTOM HOLE TEMPERATURE
TIMC.                           : TIME CIRCULATION STOPPED
TIML.                           : TIME LOGGER ON BOTTOM
TMAX.DEGF                       : MAXIMUM RECORDED TEMPERATURE
UNIT.                      4546 : EQUIPMENT NUMBER
BASE.                     HOUMA : BASE LOCATION
ENG .                 BOURGEOIS : RECORDED BY
WIT .                BRUNEFIELD : WITNESSED BY
#
SRVC.               HALLIBURTON : LOGGING COMPANY
LOG .                 DIL/SONIC : LOG
DATE.                1991-02-03 : RUN DATE
RUN .                         2 : RUN NUMBER
TDD .F                    15214 : TOTAL DEPTH DRILLER
TDL .F                    15178 : TOTAL DEPTH LOGGER
BOTL.F                    15174 : BOTTOM LOGGED INTERVAL
TOPL.F                    14860 : TOP LOGGED INTERVAL
CSGS.IN                         : CASING SIZE
CSGD.F                    14869 : CASING DRILLER
CSGL.F                   148756 : CASING LOGGER
BS  .IN                       6 : BIT SIZE
MUD .                     LIGNO : MUD TYPE
MUDD.                        10 : MUD DENSITY
MUDV.                        44 : MUD VISCOSITY
PH  .                        11 : MUD PH
FL  .                       5.2 : FLUID LOSS
MUDS.                  FLOWLINE : SOURCE OF SAMPLE
RM  .OHMM                   2.1 : MUD RESISTIVITY
RMT .DEGF                    68 : RM TEMPERATURE
RMF .OHMM                   1.9 : MUD FILTRATE RESISTIVITY
RMFT.DEGF                    68 : RMF TEMPERATURE
RMC .OHMM                   2.5 : MUD CAKE RESISTIVITY
RMCT.DEGF                    68 : RMC TEMPERATURE
RMFS.                      MEAS : RMF SOURCE
RMCS.                      MEAS : RMC SOURCE
RMBH.OHMM                  0.62 : MUD RESISTIVITY AT BHT
BHT .DEGF                   245 : BOTTOM HOLE TEMPERATURE
TIMC.                           : TIME CIRCULATION STOPPED
TIML.                     1630  : TIME LOGGER ON BOTTOM
TMAX.DEGF                   245 : MAXIMUM RECORDED TEMPERATURE
UNIT.                      4546 : EQUIPMENT NUMBER
BASE.                       HMA : BASE LOCATION
ENG .                 BOURGEOIS : RECORDED BY
WIT .                 BREAZEALE : WITNESSED BY
~Curve Information -----------------------------------------
DEPT.F          :DEPTH
CILD.MMHO       :
DCAL.IN         :
DT.US/F         :
GR.GAPI         :
ILD.OHMM        :
ILM.OHMM        :
SGRD.OHMM       :
SP.MV           :
TENS.LBS        :
~ASCII ------------------------------------------------------
# ...
6962.00000     5889.83945        0.76078        -999.25       49.94079        0.17099        0.20136        0.67476     -154.49079     3343.00027
6962.50000     6078.41191        0.85743        -999.25       50.20290        0.16476        0.20024        0.68060     -154.50493     3344.02894
6963.00000     6241.91596        0.95407        -999.25       53.30699        0.16245        0.19934        0.67412     -153.85901     3345.05762
6963.50000     6292.41568        0.92081        -999.25       54.02265        0.16017        0.19925        0.66770     -153.11823     3346.08630
6964.00000     6102.05433        0.88755        -999.25       53.73043        0.16172        0.19915        0.67963     -151.99011     3347.11497
6964.50000     5783.05038        0.85429        -999.25       56.80867        0.16569        0.20166        0.67316     -150.85804     3348.14365
6965.00000     5397.17112        0.81905        -999.25       58.77232        0.18001        0.20964        0.67284     -149.72991     3336.59883
6965.50000     5075.13981        0.77671        -999.25       59.36644        0.19557        0.22179        0.67866     -147.94964     3321.91063
6966.00000     4626.78599        0.73398        -999.25       61.02477        0.20897        0.24774        0.72951     -144.35913     3307.22243
6966.50000     4178.35358        0.69163        -999.25       60.83037        0.22703        0.27579        0.80586     -139.50778     3292.53424
6967.00000     3902.28319        0.64890        -999.25       61.89286        0.24813        0.30288        0.86624     -134.65644     3277.84604
6967.50000     3439.70559        0.60656        -999.25       66.29617        0.27787        0.33264        0.90610     -132.90778     3284.37562
6968.00000     3025.14305        0.56382        -999.25       72.87235        0.31116        0.36769        0.93921     -132.92192     3296.40611
6968.50000     2954.62285        0.52148        -999.25       76.20850        0.33600        0.41040        0.96472     -134.12180     3308.43660
6969.00000     2994.12077        0.47677        -999.25       76.96862        0.33030        0.41557        0.99997     -136.29399     3320.46708
6969.50000     3143.63680        0.42890        -999.25       76.66158        0.31624        0.41628        1.04598     -139.19739     3332.10465
6970.00000     3308.86971        0.38142        -999.25       70.16201        0.30282        0.41397        1.05503     -142.10078     3344.13514
6970.50000     3450.52730        0.33395        -999.25       62.41148        0.28996        0.40794        1.03553     -143.56548     3356.16562
6971.00000     3458.59147        0.28608        -999.25       63.32576        0.28545        0.40106        0.98904     -143.28319     3357.19430
6971.50000     3364.49597        0.28954        -999.25       64.88033        0.29500        0.39822        0.96197     -142.90208     3351.15038
6972.00000     3246.82515        0.49634        -999.25       67.38942        0.30857        0.40342        0.96151     -142.91622     3345.49939
6972.50000     2924.83499        0.70354        -999.25       69.08924        0.32690        0.43133        1.04300     -141.74463     3339.45547
6973.00000     2752.15512        0.91035        -999.25       67.48381        0.35300        0.46117        1.20585     -138.59679     3332.04560
6973.50000     2532.32463        1.00265        -999.25       63.53359        0.38118        0.48648        1.71821     -135.44896     3326.00169
6974.00000     2265.34353        1.06652        -999.25       54.03494        0.41161        0.52014        1.93285     -133.48687     3320.35069
6974.50000     2116.23897        1.01510        -999.25       46.04726        0.44808        0.55612        1.98535     -131.20858     3314.30678
6975.00000     1982.85128        1.00829        -999.25       47.65519        0.48420        0.57728        1.65448     -127.66550     3308.26286
6975.50000     1904.47265        1.06782        -999.25       49.26016        0.51176        0.58760        1.25893     -121.71932     3302.21894
6976.00000     1888.96151        1.12735        -999.25       56.11795        0.52518        0.59306        1.08787     -115.50550     3296.17503
6976.50000     1904.88412        1.18648        -999.25       65.10034        0.52374        0.59526        0.93164     -107.74119     3294.45325
6977.00000     1912.94829        1.24364        -999.25       76.33055        0.52230        0.59325        0.88981      -99.97292     3295.48193
6977.50000     1921.01247        1.28619        -999.25       83.81679        0.52086        0.58509        0.87336      -89.82527     3296.51060
6978.00000     1913.35976        1.27110        -999.25       90.37221        0.52128        0.57705        0.86505      -84.11229     3297.53928
6978.50000     1889.99019        1.25600        -999.25       96.92468        0.52441        0.56912        0.84137      -83.25689     3298.56796
6979.00000     1827.32843        1.24051        -999.25       96.32120        0.52755        0.56885        0.83336      -84.02200     3299.59663
6979.50000     1756.80824        1.22541        -999.25       92.16051        0.54728        0.57728        0.83296      -85.02426     3300.62531
6980.00000     1654.85430        1.21031        -999.25       90.66773        0.57942        0.58802        0.82503      -85.82889     3301.65398
6980.50000     1600.05098        1.21140        -999.25       83.80058        0.61351        0.61351        0.83977      -85.84304     3302.68266
6981.00000     1553.10609        1.27922        -999.25       79.47980        0.63801        0.66345        0.91926      -86.25242     3303.71134
6981.50000     1521.87808        1.34665        -999.25       78.05224        0.65558        0.71752        1.14297      -87.25468     3304.74001
6982.00000     1474.93320        1.41447        -999.25       72.91924        0.67363        0.76049        1.44707      -90.87347     3294.76688
6982.50000     1420.12988        1.40371        -999.25       67.37207        0.69224        0.78207        1.65771      -95.14047     3284.79374
6983.00000     1365.32656        1.37322        -999.25       65.33088        0.71130        0.79431        1.55476      -98.62883     3275.21353
6983.50000     1341.95698        1.34312        -999.25       65.54260        0.73656        0.80600        1.22686      -98.97103     3271.92007
6984.00000     1357.87959        1.27511        -999.25       70.22456        0.75129        0.82722        1.14015      -99.31322     3279.62841
6984.50000     1436.66969        1.20750        -999.25       74.69521        0.72168        0.85971        1.28270     -101.76604     3286.94384
6985.00000     1499.74292        1.13949        -999.25       77.01162        0.68771        0.87403        1.63880     -104.74453     3294.25927
6985.50000     1602.10833        1.09794        -999.25       74.45760        0.65190        0.86674        2.00072     -109.70208     3301.57469
6986.00000     1688.75687        1.09587        -999.25       68.89857        0.61790        0.82782        1.99976     -114.06394     3308.89012
6986.50000     1736.11322        1.09380        -999.25       70.96301        0.58572        0.79152        1.87557     -118.42580     3315.02678
6987.00000     1799.18645        1.09174        -999.25       70.18167        0.56845        0.76005        1.59167     -121.07623     3316.05545
6987.50000     1854.40124        1.08967        -999.25       70.46750        0.55173        0.72977        1.40078     -120.56074     3317.08413
6988.00000     1886.04072        1.08760        -999.25       69.64763        0.53546        0.70075        1.33789     -117.85164     3318.11281
6988.50000     1878.38802        1.08553        -999.25       67.15289        0.53041        0.69024        1.30127     -114.20975     3319.14148
6989.00000     1839.30157        1.08347        -999.25       64.59888        0.53258        0.68423        1.31253     -110.56390     3320.17016
