~Version ---------------------------------------------------
VERS. 2.0 : CWLS LOG ASCII STANDARD - VERSION 2.0
WRAP. NO  : One line per depth step
DLM . SPACE : Column Data Section Delimiter
~Well ------------------------------------------------------
STRT.F         3992 : START DEPTH
STOP.F      15175.5 : STOP DEPTH
STEP.F          0.5 : STEP
NULL.       -999.25 : NULL VALUE
COMP.                  HILCORP ENERGY CO. : COMPANY
WELL.          212648-SL3306-015-03306-10 : WELL
FLD .                       REDFISH POINT : FIELD
CNTY.                           VERMILION : COUNTY
STAT.                           LOUISIANA : STATE
CTRY.                                 USA : COUNTRY
SEC .                                     : SECTION
TWP .                                     : TOWNSHIP
RGE .                                     : RANGE
LOC . LAT 29*40'57.085"N LONG 92*2'43.95"W : LOCATION
EKB .F                       41 : ELEVATION KELLY BUSHING
EDF .F                       41 : ELEVATION DERRICK FLOOR
EGL .F                          : ELEVATION GROUND LEVEL
PDAT.                       MSL : PERMANENT DATUM
EPD .                           : ELEVATION PERMANENT DATUM
APD .                           : ABOVE PERMANENT DATUM
LMF .                        KB : LOG MEASURED FROM
DMF .                        KB : DRILLING MEASURED FROM
API .            17113217870000 : API NUMBER
UWI .                           : UWI NUMBER
DIGC.                     NthDS : DIGITIZING COMPANY
~Params ----------------------------------------------------
SRVC.               HALLIBURTON : LOGGING COMPANY
LOG .                 DIL/SONIC : LOG
DATE.                           : RUN DATE
RUN .                         1 : RUN NUMBER
TDD .F                          : TOTAL DEPTH DRILLER
TDL .F                          : TOTAL DEPTH LOGGER
BOTL.F                          : BOTTOM LOGGED INTERVAL
TOPL.F                          : TOP LOGGED INTERVAL
CSGS.IN                         : CASING SIZE
CSGD.F                          : CASING DRILLER
CSGL.F                          : CASING LOGGER
BS  .IN                         : BIT SIZE
MUD .                           : MUD TYPE
MUDD.                           : MUD DENSITY
MUDV.                           : MUD VISCOSITY
PH  .                           : MUD PH
FL  .                           : FLUID LOSS
MUDS.                           : SOURCE OF SAMPLE
RM  .OHMM                       : MUD RESISTIVITY
RMT .DEGF                       : RM TEMPERATURE
RMF .OHMM                       : MUD FILTRATE RESISTIVITY
RMFT.DEGF                       : RMF TEMPERATURE
RMC .OHMM                       : MUD CAKE RESISTIVITY
RMCT.DEGF                       : RMC TEMPERATURE
RMFS.                           : RMF SOURCE
RMCS.                           : RMC SOURCE
RMBH.OHMM                       : MUD RESISTIVITY AT BHT
BHT .DEGF                       : BOTTOM HOLE TEMPERATURE
TIMC.                           : TIME CIRCULATION STOPPED
TIML.                           : TIME LOGGER ON BOTTOM
TMAX.DEGF                       : MAXIMUM RECORDED TEMPERATURE
UNIT.                      4546 : EQUIPMENT NUMBER
BASE.                     HOUMA : BASE LOCATION
ENG .                 BOURGEOIS : RECORDED BY
WIT .                BRUNEFIELD : WITNESSED BY
#
SRVC.               HALLIBURTON : LOGGING COMPANY
LOG .                 DIL/SONIC : LOG
DATE.                1991-02-03 : RUN DATE
RUN .                         2 : RUN NUMBER
TDD .F                    15214 : TOTAL DEPTH DRILLER
TDL .F                    15178 : TOTAL DEPTH LOGGER
BOTL.F                    15174 : BOTTOM LOGGED INTERVAL
TOPL.F                    14860 : TOP LOGGED INTERVAL
CSGS.IN                         : CASING SIZE
CSGD.F                    14869 : CASING DRILLER
CSGL.F                   148756 : CASING LOGGER
BS  .IN                       6 : BIT SIZE
MUD .                     LIGNO : MUD TYPE
MUDD.                        10 : MUD DENSITY
MUDV.                        44 : MUD VISCOSITY
PH  .                        11 : MUD PH
FL  .                       5.2 : FLUID LOSS
MUDS.                  FLOWLINE : SOURCE OF SAMPLE
RM  .OHMM                   2.1 : MUD RESISTIVITY
RMT .DEGF                    68 : RM TEMPERATURE
RMF .OHMM                   1.9 : MUD FILTRATE RESISTIVITY
RMFT.DEGF                    68 : RMF TEMPERATURE
RMC .OHMM                   2.5 : MUD CAKE RESISTIVITY
RMCT.DEGF                    68 : RMC TEMPERATURE
RMFS.                      MEAS : RMF SOURCE
RMCS.                      MEAS : RMC SOURCE
RMBH.OHMM                  0.62 : MUD RESISTIVITY AT BHT
BHT .DEGF                   245 : BOTTOM HOLE TEMPERATURE
TIMC.                           : TIME CIRCULATION STOPPED
TIML.                     1630  : TIME LOGGER ON BOTTOM
TMAX.DEGF                   245 : MAXIMUM RECORDED TEMPERATURE
UNIT.                      4546 : EQUIPMENT NUMBER
BASE.                       HMA : BASE LOCATION
ENG .                 BOURGEOIS : RECORDED BY
WIT .                 BREAZEALE : WITNESSED BY
~Curve Information -----------------------------------------
DEPT.F          :DEPTH
CILD.MMHO       :
DCAL.IN         :
DT.US/F         :
GR.GAPI         :
ILD.OHMM        :
ILM.OHMM        :
SGRD.OHMM       :
SP.MV           :
TENS.LBS        :
~ASCII ------------------------------------------------------
# ...
15129.50000      588.71061        -999.25        -999.25       87.26346        1.69060        1.77051        2.52680      -32.91151     4833.53155
15130.00000      611.89012        -999.25        -999.25       84.90271        1.68006        1.74023        2.84337      -32.90773     4828.80069
15130.50000      635.14822        -999.25        -999.25       82.54493        1.64324        1.66762        3.19961      -32.90394     4822.49812
15131.00000      649.05467        -999.25        -999.25       81.17523        1.60095        1.59819        3.14860      -32.60429     4816.19555
15131.50000      649.13011        -999.25        -999.25       83.76974        1.55961        1.53151        3.02520      -32.22970     4810.28591
15132.00000      646.37648        -999.25        -999.25       85.15891        1.58322        1.50545        2.59461      -31.85511     4803.98335
15132.50000      642.83699        -999.25        -999.25       88.42304        1.60704        1.50932        2.39581      -31.82371     4797.68078
15133.00000      636.46843        -999.25        -999.25       91.68717        1.62767        1.55887        2.42744      -32.01716     4796.87918
15133.50000      628.13524        -999.25        -999.25       93.94834        1.64601        1.62062        2.50075      -32.21061     4797.25637
15134.00000      619.72346        -999.25        -999.25       92.20365        1.66456        1.68466        2.82252      -32.40406     4797.63355
15134.50000      610.29008        -999.25        -999.25       93.38449        1.68332        1.73554        3.13512      -32.37266     4798.01073
15135.00000      598.10621        -999.25        -999.25       92.87787        1.70709        1.72394        3.26553      -32.18741     4796.81621
15135.50000      576.41352        -999.25        -999.25       94.31763        1.73435        1.71257        3.31949      -32.07712     4789.72779
15136.00000      563.35012        -999.25        -999.25       96.24251        1.76221        1.70562        3.06125      -32.07333     4782.63937
15136.50000      563.42556        -999.25        -999.25      100.19115        1.78240        1.70535        2.90724      -32.06955     4775.15802
15137.00000      574.89587        -999.25        -999.25      103.05945        1.77048        1.69472        2.88047      -32.06576     4769.56587
15137.50000      589.27383        -999.25        -999.25       99.57670        1.72148        1.66392        2.83661      -32.06197     4762.47745
15138.00000      603.65179        -999.25        -999.25       96.09395        1.66472        1.61404        2.81049      -32.05819     4751.45976
15138.50000      618.02975        -999.25        -999.25       96.58136        1.60983        1.56566        2.81005      -32.05440     4739.65622
15139.00000      628.24269        -999.25        -999.25       98.05981        1.58734        1.52412        2.67669      -32.05061     4727.45976
15139.50000      632.24739        -999.25        -999.25       97.67818        1.57272        1.50501        2.51879      -32.04683     4723.12182
15140.00000      632.40141        -999.25        -999.25       96.67455        1.58525        1.48628        2.40647      -32.08643     4723.49901
15140.50000      626.89729        -999.25        -999.25       94.73938        1.60472        1.51332        2.39517      -32.30355     4723.87619
15141.00000      621.39317        -999.25        -999.25       92.80422        1.62457        1.61985        2.54220      -32.58773     4731.71898
15141.50000      615.81047        -999.25        -999.25       90.86906        1.64453        1.65985        2.70366      -32.97842     4739.56176
15142.00000      608.26313        -999.25        -999.25       92.49632        1.67474        1.68237        2.87512      -33.36911     4747.40455
15142.50000      592.62151        -999.25        -999.25       94.12358        1.72078        1.71219        2.93407      -33.55073     4754.85441
15143.00000      576.97988        -999.25        -999.25       92.12889        1.76808        1.74429        2.96336      -33.42465     4762.69719
15143.50000      561.33826        -999.25        -999.25       91.03002        1.81668        1.77682        2.91824      -33.29858     4770.53998
15144.00000      548.84005        -999.25        -999.25       93.49952        1.84637        1.79668        2.94443      -33.17251     4778.38277
15144.50000      548.91549        -999.25        -999.25       93.15956        1.84607        1.79640        2.93514      -33.04249     4786.22555
15145.00000      551.50565        -999.25        -999.25       93.58744        1.83908        1.79611        2.89046      -32.91641     4794.06834
15145.50000      557.78933        -999.25        -999.25       97.09562        1.83045        1.79583        2.86957      -32.79034     4801.91112
15146.00000      563.99442        -999.25        -999.25      100.60379        1.82020        1.78626        2.94096      -33.18103     4803.07416
15146.50000      570.27809        -999.25        -999.25        -999.25        1.81704        1.77201        3.01439      -33.57172     4794.41403
15147.00000      558.72290        -999.25        -999.25        -999.25        1.84556        1.76434        2.92642      -33.96241     4785.75391
15147.50000      535.22275        -999.25        -999.25        -999.25        1.93583        1.77306        2.84128      -34.35310     4777.48671
15148.00000      511.72260        -999.25        -999.25        -999.25        2.03071        1.84061        2.75836      -34.57022     4768.82658
15148.50000      488.22245        -999.25        -999.25        -999.25        2.13024        2.00635        2.86294      -34.78339     4769.20376
15149.00000      476.11716        -999.25        -999.25        -999.25        2.17115        2.13339        3.10657      -35.00051     4769.58095
15149.50000      471.55607        -999.25        -999.25        -999.25        2.17991        2.18526        3.37093      -35.12690     4769.95813
15150.00000      459.50062        -999.25        -999.25        -999.25        2.22042        2.26476        3.70415      -35.12387     4732.86192
15150.50000      455.35303        -999.25        -999.25        -999.25        2.23257        2.26763        3.87939      -35.26021     4733.34197
15151.00000      452.61997        -999.25        -999.25        -999.25        2.18466        2.09481        3.90505      -35.28475     4733.82202
15151.50000      449.88691        -999.25        -999.25        -999.25        2.13496        1.97048        3.83783      -35.30929     4748.84034
15152.00000      458.31296        -999.25        -999.25        -999.25        2.07331        1.85962        3.45685      -34.72001     4774.07473
15152.50000      483.39906        -999.25        -999.25        -999.25        1.94254        1.73473        3.04663      -34.13074     4798.91619
15153.00000      514.22189        -999.25        -999.25        -999.25        1.83978        1.66724        2.71609      -33.53750     4824.15059
15153.50000      567.59867        -999.25        -999.25        -999.25        1.74118        1.60983        2.53611      -32.94822     4848.99205
15154.00000      621.05404        -999.25        -999.25        -999.25        1.62365        1.55426        2.46715      -32.35895     4849.47210
15154.50000      658.39943        -999.25        -999.25        -999.25        1.53874        1.49617        2.46656      -31.89243     4843.27241
15155.00000      674.23169        -999.25        -999.25        -999.25        1.48481        1.45429        2.46597      -31.91697     4837.07272
15155.50000      687.37284        -999.25        -999.25        -999.25        1.44003        1.41346        2.48342      -31.94151     4831.26595
15156.00000      700.59258        -999.25        -999.25        -999.25        1.41795        1.37390        2.41083      -32.16405     4825.06626
15156.50000      713.81232        -999.25        -999.25        -999.25        1.39634        1.33879        2.35148      -32.43411     4818.86657
