~Version ---------------------------------------------------
VERS. 2.0 : CWLS LOG ASCII STANDARD - VERSION 2.0
WRAP. NO  : One line per depth step
DLM . SPACE : Column Data Section Delimiter
~Well ------------------------------------------------------
STRT.F         3992 : START DEPTH
STOP.F      15175.5 : STOP DEPTH
STEP.F          0.5 : STEP
NULL.       -999.25 : NULL VALUE
COMP.                  HILCORP ENERGY CO. : COMPANY
WELL.          212648-SL3306-015-03306-10 : WELL
FLD .                       REDFISH POINT : FIELD
CNTY.                           VERMILION : COUNTY
STAT.                           LOUISIANA : STATE
CTRY.                                 USA : COUNTRY
SEC .                                     : SECTION
TWP .                                     : TOWNSHIP
RGE .                                     : RANGE
LOC . LAT 29*40'57.085"N LONG 92*2'43.95"W : LOCATION
EKB .F                       41 : ELEVATION KELLY BUSHING
EDF .F                       41 : ELEVATION DERRICK FLOOR
EGL .F                          : ELEVATION GROUND LEVEL
PDAT.                       MSL : PERMANENT DATUM
EPD .                           : ELEVATION PERMANENT DATUM
APD .                           : ABOVE PERMANENT DATUM
LMF .                        KB : LOG MEASURED FROM
DMF .                        KB : DRILLING MEASURED FROM
API .            17113217870000 : API NUMBER
UWI .                           : UWI NUMBER
DIGC.                     NthDS : DIGITIZING COMPANY
~Params ----------------------------------------------------
SRVC.               HALLIBURTON : LOGGING COMPANY
LOG .                 DIL/SONIC : LOG
DATE.                           : RUN DATE
RUN .                         1 : RUN NUMBER
TDD .F                          : TOTAL DEPTH DRILLER
TDL .F                          : TOTAL DEPTH LOGGER
BOTL.F                          : BOTTOM LOGGED INTERVAL
TOPL.F                          : TOP LOGGED INTERVAL
CSGS.IN                         : CASING SIZE
CSGD.F                          : CASING DRILLER
CSGL.F                          : CASING LOGGER
BS  .IN                         : BIT SIZE
MUD .                           : MUD TYPE
MUDD.                           : MUD DENSITY
MUDV.                           : MUD VISCOSITY
PH  .                           : MUD PH
FL  .                           : FLUID LOSS
MUDS.                           : SOURCE OF SAMPLE
RM  .OHMM                       : MUD RESISTIVITY
RMT .DEGF                       : RM TEMPERATURE
RMF .OHMM                       : MUD FILTRATE RESISTIVITY
RMFT.DEGF                       : RMF TEMPERATURE
RMC .OHMM                       : MUD CAKE RESISTIVITY
RMCT.DEGF                       : RMC TEMPERATURE
RMFS.                           : RMF SOURCE
RMCS.                           : RMC SOURCE
RMBH.OHMM                       : MUD RESISTIVITY AT BHT
BHT .DEGF                       : BOTTOM HOLE TEMPERATURE
TIMC.                           : TIME CIRCULATION STOPPED
TIML.                           : TIME LOGGER ON BOTTOM
TMAX.DEGF                       : MAXIMUM RECORDED TEMPERATURE
UNIT.                      4546 : EQUIPMENT NUMBER
BASE.                     HOUMA : BASE LOCATION
ENG .                 BOURGEOIS : RECORDED BY
WIT .                BRUNEFIELD : WITNESSED BY
#
SRVC.               HALLIBURTON : LOGGING COMPANY
LOG .                 DIL/SONIC : LOG
DATE.                1991-02-03 : RUN DATE
RUN .                         2 : RUN NUMBER
TDD .F                    15214 : TOTAL DEPTH DRILLER
TDL .F                    15178 : TOTAL DEPTH LOGGER
BOTL.F                    15174 : BOTTOM LOGGED INTERVAL
TOPL.F                    14860 : TOP LOGGED INTERVAL
CSGS.IN                         : CASING SIZE
CSGD.F                    14869 : CASING DRILLER
CSGL.F                   148756 : CASING LOGGER
BS  .IN                       6 : BIT SIZE
MUD .                     LIGNO : MUD TYPE
MUDD.                        10 : MUD DENSITY
MUDV.                        44 : MUD VISCOSITY
PH  .                        11 : MUD PH
FL  .                       5.2 : FLUID LOSS
MUDS.                  FLOWLINE : SOURCE OF SAMPLE
RM  .OHMM                   2.1 : MUD RESISTIVITY
RMT .DEGF                    68 : RM TEMPERATURE
RMF .OHMM                   1.9 : MUD FILTRATE RESISTIVITY
RMFT.DEGF                    68 : RMF TEMPERATURE
RMC .OHMM                   2.5 : MUD CAKE RESISTIVITY
RMCT.DEGF                    68 : RMC TEMPERATURE
RMFS.                      MEAS : RMF SOURCE
RMCS.                      MEAS : RMC SOURCE
RMBH.OHMM                  0.62 : MUD RESISTIVITY AT BHT
BHT .DEGF                   245 : BOTTOM HOLE TEMPERATURE
TIMC.                           : TIME CIRCULATION STOPPED
TIML.                     1630  : TIME LOGGER ON BOTTOM
TMAX.DEGF                   245 : MAXIMUM RECORDED TEMPERATURE
UNIT.                      4546 : EQUIPMENT NUMBER
BASE.                       HMA : BASE LOCATION
ENG .                 BOURGEOIS : RECORDED BY
WIT .                 BREAZEALE : WITNESSED BY
~Curve Information -----------------------------------------
DEPT.F          :DEPTH
CILD.MMHO       :
DCAL.IN         :
DT.US/F         :
GR.GAPI         :
ILD.OHMM        :
ILM.OHMM        :
SGRD.OHMM       :
SP.MV           :
TENS.LBS        :
~ASCII ------------------------------------------------------
# ...
9932.00000     1891.56604       -0.04567       88.95335       71.14623        0.60609        0.70272        1.18952     -101.97631     4039.79914
9932.50000     1678.95376       -0.03096       86.00417       67.91204        0.71988        0.84703        1.37694     -103.67196     4035.81705
9933.00000     1466.34147       -0.07114       85.01963       64.67785        0.78827        0.88267        1.53780     -108.43085     4044.40859
9933.50000     1253.72919       -0.14804       84.82094       62.71540        0.76994        0.88703        1.57291     -115.24113     4052.60720
9934.00000     1539.36888       -0.22454       86.58688       61.06718        0.68487        0.83759        1.47421     -120.71148     4061.19874
9934.50000     1825.08762       -0.15455       91.10375       68.90216        0.62525        0.77285        1.25396     -125.84982     4069.79029
9935.00000     1973.59522       -0.08495       92.08383       73.51777        0.57457        0.71318        1.16995     -129.64429     4078.38183
9935.50000     2110.72731       -0.04892       90.11697       72.27271        0.52795        0.65908        1.17157     -134.09093     4086.58044
9936.00000     2396.36700       -0.14832       85.59565       65.10769        0.48511        0.61274        1.23111     -143.42294     4095.17198
9936.50000     2682.00669       -0.24773       82.05708       57.41797        0.43014        0.56812        1.30502     -154.15021     4103.76352
9937.00000     2967.72543       -0.34713       82.64424       49.72825        0.37242        0.52088        1.38337     -156.12649     4110.39043
9937.50000     3253.36512       -0.44654       84.41018       43.13240        0.32489        0.47761        1.39896     -157.78657     4109.94467
9938.00000     3149.52560       -0.51199       85.39071       40.90908        0.29214        0.43790        1.39976     -159.85376     4109.49891
9938.50000     3045.76512       -0.52689       84.79910       38.68576        0.30987        0.40153        1.22857     -163.24112     4109.05315
9939.00000     2941.92560       -0.54179       80.47423       37.15315        0.32868        0.37784        1.04768     -163.50594     4108.60739
9939.50000     2838.16513       -0.53419       76.34628       35.79545        0.36542        0.39417        0.98293     -162.84586     4108.16163
9940.00000     2734.32560       -0.51158       74.57588       34.75790        0.39876        0.43441        1.20094     -161.88538     4107.71587
9940.50000     2630.56513       -0.48898       74.96658       34.20355        0.40406        0.47881        1.59024     -160.47432     4107.27010
9941.00000     2526.72561       -0.47269       78.69715       35.12845        0.40947        0.52464        1.96963     -160.07906     4106.82434
9941.50000     2422.96513       -0.48127       82.23170       36.46244        0.41491        0.56157        2.00546     -165.01977     4106.37858
9942.00000     2575.72182       -0.48986       85.56935       38.32707        0.40108        0.54801        1.85568     -169.96048     4105.93282
9942.50000     2728.55756       -0.49844       88.31760       41.71244        0.36727        0.50286        1.63645     -171.14625     4105.48706
9943.00000     2881.31424       -0.50703       87.92245       43.33991        0.33277        0.44718        1.44312     -171.36760     4105.04130
9943.50000     3034.07093       -0.49706       86.93790       42.26086        0.30910        0.39456        1.27263     -171.14625     4104.59554
9944.00000     3186.90667       -0.41325       86.14982       40.61264        0.29801        0.36159        1.13863     -168.37945     4104.14977
9944.50000     3270.33677       -0.32944       84.96881       41.05730        0.29921        0.36898        1.07967     -164.42689     4103.70401
9945.00000     3098.51403       -0.24523       84.18073       41.50197        0.31923        0.38133        1.06005     -161.26483     4103.25825
9945.50000     2857.36470       -0.16142       83.78558       42.73813        0.35559        0.40640        1.09584     -148.61661     4102.81249
9946.00000     2616.21538       -0.07761       85.55152       48.91303        0.40704        0.45170        1.16407     -138.24112     4102.36673
9946.50000     2375.06605       -0.10949       88.29977       56.32410        0.48556        0.54703        1.21990     -130.90911     4101.92097
9947.00000     2190.04221       -0.21877       90.65510       61.06718        0.57919        0.66243        1.31089     -128.45852     4101.47521
9947.50000     1819.99452       -0.32804       91.63519       63.43872        0.69087        0.77989        1.48280     -128.85377     4101.02944
9948.00000     1634.97067       -0.43732       90.84710       61.63635        0.68364        0.88031        1.75142     -135.33598     4100.58368
9948.50000     1449.94683       -0.50671       88.88024       55.59485        0.60810        0.89413        2.03310     -144.62452     4100.13792
9949.00000     1841.23319       -0.54965       86.52046       49.55038        0.50885        0.80129        2.09374     -152.96444     4099.78131
9949.50000     2082.29969       -0.59299       85.92884       46.17094        0.42577        0.69225        2.00037     -159.88143     4099.33555
9950.00000     2714.65256       -0.54806       87.13136       44.56422        0.36415        0.60207        1.89413     -164.42689     4143.37678
9950.50000     3127.62826       -0.51874       87.71852       43.50295        0.31246        0.50550        1.73965     -167.68775     4142.93102
9951.00000     3347.00543       -0.48902       87.71629       43.95948        0.27360        0.42846        1.59791     -170.15811     4142.48525
9951.50000     3979.35830       -0.45931       86.92821       45.65216        0.24696        0.38822        1.50652     -170.70356     4142.03949
9952.00000     3995.05206       -0.42959       86.14013       43.72529        0.23819        0.35176        1.47726     -169.96048     4133.73521
9952.50000     4066.15012       -0.36908       85.35205       41.79841        0.23538        0.34016        1.48375     -171.21740     4113.64314
9953.00000     4137.24819       -0.28882       85.15336       41.20552        0.23534        0.33605        1.49028     -172.47431     4093.55107
9953.50000     4208.34625       -0.20817       85.34759       42.39129        0.23691        0.33879        1.50858     -172.02372     4073.45899
9954.00000     4279.44432       -0.14765       85.54183       42.39129        0.24148        0.34155        1.52724     -171.14625     4053.36692
9954.50000     4238.76572       -0.16690       86.12899       43.16204        0.24661        0.34289        1.51167     -171.64032     4033.27485
9955.00000     4198.00808       -0.18654       86.91261       45.08892        0.25185        0.34427        1.41913     -171.64823     4030.47153
9955.50000     4157.32948       -0.20579       88.08916       45.85078        0.25444        0.34076        1.33239     -170.92886     4053.99427
9956.00000     4116.65089       -0.22543       89.06925       44.89031        0.25361        0.33609        1.29021     -170.50198     4077.12408
9956.50000     4075.97229       -0.24507       90.04933       44.04248        0.25103        0.33194        1.27775     -171.24507     4100.64682
9957.00000     4035.21464       -0.26432       89.85064       43.63635        0.24490        0.32793        1.26599     -172.46246     4124.16955
9957.50000     3994.53605       -0.28396       88.86610       42.26086        0.23808        0.32399        1.29453     -174.00001     4147.29936
9958.00000     4101.99710       -0.30321       87.88155       40.61264        0.23142        0.32008        1.30496     -174.43084     4170.82210
9958.50000     4209.45815       -0.29206       87.48640       38.64426        0.22498        0.31284        1.29636     -174.58103     4164.48245
9959.00000     4316.91921       -0.27300       87.87710       35.94960        0.22181        0.30576        1.28770     -174.28064     4150.67719
