~Version ---------------------------------------------------
VERS. 2.0 : CWLS LOG ASCII STANDARD - VERSION 2.0
WRAP. NO  : One line per depth step
DLM . SPACE : Column Data Section Delimiter
~Well ------------------------------------------------------
STRT.F         3992 : START DEPTH
STOP.F      15175.5 : STOP DEPTH
STEP.F          0.5 : STEP
NULL.       -999.25 : NULL VALUE
COMP.                  HILCORP ENERGY CO. : COMPANY
WELL.          212648-SL3306-015-03306-10 : WELL
FLD .                       REDFISH POINT : FIELD
CNTY.                           VERMILION : COUNTY
STAT.                           LOUISIANA : STATE
CTRY.                                 USA : COUNTRY
SEC .                                     : SECTION
TWP .                                     : TOWNSHIP
RGE .                                     : RANGE
LOC . LAT 29*40'57.085"N LONG 92*2'43.95"W : LOCATION
EKB .F                       41 : ELEVATION KELLY BUSHING
EDF .F                       41 : ELEVATION DERRICK FLOOR
EGL .F                          : ELEVATION GROUND LEVEL
PDAT.                       MSL : PERMANENT DATUM
EPD .                           : ELEVATION PERMANENT DATUM
APD .                           : ABOVE PERMANENT DATUM
LMF .                        KB : LOG MEASURED FROM
DMF .                        KB : DRILLING MEASURED FROM
API .            17113217870000 : API NUMBER
UWI .                           : UWI NUMBER
DIGC.                     NthDS : DIGITIZING COMPANY
~Params ----------------------------------------------------
SRVC.               HALLIBURTON : LOGGING COMPANY
LOG .                 DIL/SONIC : LOG
DATE.                           : RUN DATE
RUN .                         1 : RUN NUMBER
TDD .F                          : TOTAL DEPTH DRILLER
TDL .F                          : TOTAL DEPTH LOGGER
BOTL.F                          : BOTTOM LOGGED INTERVAL
TOPL.F                          : TOP LOGGED INTERVAL
CSGS.IN                         : CASING SIZE
CSGD.F                          : CASING DRILLER
CSGL.F                          : CASING LOGGER
BS  .IN                         : BIT SIZE
MUD .                           : MUD TYPE
MUDD.                           : MUD DENSITY
MUDV.                           : MUD VISCOSITY
PH  .                           : MUD PH
FL  .                           : FLUID LOSS
MUDS.                           : SOURCE OF SAMPLE
RM  .OHMM                       : MUD RESISTIVITY
RMT .DEGF                       : RM TEMPERATURE
RMF .OHMM                       : MUD FILTRATE RESISTIVITY
RMFT.DEGF                       : RMF TEMPERATURE
RMC .OHMM                       : MUD CAKE RESISTIVITY
RMCT.DEGF                       : RMC TEMPERATURE
RMFS.                           : RMF SOURCE
RMCS.                           : RMC SOURCE
RMBH.OHMM                       : MUD RESISTIVITY AT BHT
BHT .DEGF                       : BOTTOM HOLE TEMPERATURE
TIMC.                           : TIME CIRCULATION STOPPED
TIML.                           : TIME LOGGER ON BOTTOM
TMAX.DEGF                       : MAXIMUM RECORDED TEMPERATURE
UNIT.                      4546 : EQUIPMENT NUMBER
BASE.                     HOUMA : BASE LOCATION
ENG .                 BOURGEOIS : RECORDED BY
WIT .                BRUNEFIELD : WITNESSED BY
#
SRVC.               HALLIBURTON : LOGGING COMPANY
LOG .                 DIL/SONIC : LOG
DATE.                1991-02-03 : RUN DATE
RUN .                         2 : RUN NUMBER
TDD .F                    15214 : TOTAL DEPTH DRILLER
TDL .F                    15178 : TOTAL DEPTH LOGGER
BOTL.F                    15174 : BOTTOM LOGGED INTERVAL
TOPL.F                    14860 : TOP LOGGED INTERVAL
CSGS.IN                         : CASING SIZE
CSGD.F                    14869 : CASING DRILLER
CSGL.F                   148756 : CASING LOGGER
BS  .IN                       6 : BIT SIZE
MUD .                     LIGNO : MUD TYPE
MUDD.                        10 : MUD DENSITY
MUDV.                        44 : MUD VISCOSITY
PH  .                        11 : MUD PH
FL  .                       5.2 : FLUID LOSS
MUDS.                  FLOWLINE : SOURCE OF SAMPLE
RM  .OHMM                   2.1 : MUD RESISTIVITY
RMT .DEGF                    68 : RM TEMPERATURE
RMF .OHMM                   1.9 : MUD FILTRATE RESISTIVITY
RMFT.DEGF                    68 : RMF TEMPERATURE
RMC .OHMM                   2.5 : MUD CAKE RESISTIVITY
RMCT.DEGF                    68 : RMC TEMPERATURE
RMFS.                      MEAS : RMF SOURCE
RMCS.                      MEAS : RMC SOURCE
RMBH.OHMM                  0.62 : MUD RESISTIVITY AT BHT
BHT .DEGF                   245 : BOTTOM HOLE TEMPERATURE
TIMC.                           : TIME CIRCULATION STOPPED
TIML.                     1630  : TIME LOGGER ON BOTTOM
TMAX.DEGF                   245 : MAXIMUM RECORDED TEMPERATURE
UNIT.                      4546 : EQUIPMENT NUMBER
BASE.                       HMA : BASE LOCATION
ENG .                 BOURGEOIS : RECORDED BY
WIT .                 BREAZEALE : WITNESSED BY
~Curve Information -----------------------------------------
DEPT.F          :DEPTH
CILD.MMHO       :
DCAL.IN         :
DT.US/F         :
GR.GAPI         :
ILD.OHMM        :
ILM.OHMM        :
SGRD.OHMM       :
SP.MV           :
TENS.LBS        :
~ASCII ------------------------------------------------------
# ...
9189.50000     1255.13017       -0.10741      104.03284       85.46785        0.77261        0.88036        1.06558      -74.18392     3790.48813
9190.00000     1271.79064       -0.16585      102.06088       84.76130        0.75993        0.83362        1.08513      -75.36313     3789.01370
9190.50000     1288.45112       -0.10662      102.24997       84.73657        0.74746        0.78937        1.06558      -74.34077     3787.53927
9191.00000     1305.19064       -0.02962      103.81426       87.33535        0.74184        0.79253        1.02752      -73.17612     3786.06484
9191.50000     1321.85111        0.06712      105.37855       95.56748        0.73619        0.79571        0.97297      -73.10238     3794.02040
9192.00000     1338.51158        0.08687      105.76410       96.79966        0.73066        0.79890        0.96416      -72.01678     3815.33511
9192.50000     1355.17206        0.05251      104.97089       95.53581        0.72319        0.80210        0.99082      -73.19599     3837.04273
9193.00000     1371.83253       -0.06239      102.99894       92.64153        0.71301        0.80539        1.02752      -75.40286     3858.75036
9193.50000     1365.48912       -0.17769      101.61636       89.33817        0.70296        0.80862        1.05593      -81.72038     3847.06011
9194.00000     1359.14572       -0.11846      101.41253       86.69785        0.69546        0.80913        1.04638      -86.77440     3835.76278
9194.50000     1352.80231       -0.05923      101.99453       88.68002        0.69774        0.79897        1.02752      -84.79157     3824.07253
9195.00000     1346.45890       -0.02330      102.18362       91.05745        0.70003        0.78894        0.99987      -85.13284     3812.38228
9195.50000     1340.11550        0.01263      101.78333       92.87955        0.70694        0.77910        0.99987      -86.05909     3801.08494
9196.00000     1315.03697        0.08726      100.99013       91.58012        0.72102        0.77726        0.99082      -86.98138     3789.39470
9196.50000     1290.03750        0.13109      100.19692       89.50995        0.73546        0.78080        0.99987      -87.53214     3778.09736
9197.00000     1264.95898        0.11293       97.63560       90.81328        0.75011        0.79448        1.00900      -87.32796     3769.94336
9197.50000     1239.88045        0.08726       93.50113       92.95850        0.76513        0.81541        1.04638      -86.33327     3775.54142
9198.00000     1214.88098        0.03119       92.51147       92.22231        0.78457        0.83689        1.06558      -85.33858     3781.53240
9198.50000     1189.80246       -0.02527       94.27222       91.48612        0.80568        0.84377        1.11514      -86.57312     3787.13046
9199.00000     1164.72394       -0.06397       97.40965       89.41497        0.82736        0.84700        1.10504      -88.36103     3793.12144
9199.50000     1139.72446       -0.07542      102.90310       84.57011        0.84954        0.85186        1.05593      -87.49282     3798.71950
9200.00000     1107.12812       -0.08727      114.04549       79.52721        0.87240        0.85925        1.00900      -85.11002     3907.04448
9200.50000     1076.35414        0.05923      116.00557       77.50743        0.90471        0.89889        1.01822      -83.65684     3906.13924
9201.00000     1051.24839        0.14886      114.82115       76.19615        0.90471        0.90668        1.01822      -82.49614     3905.00770
9201.50000     1041.32024        0.23889      107.74179       79.75835        0.91563        0.91364        1.01822      -81.79789     3903.87616
9202.00000     1031.39208        0.30523       99.28834       83.29685        0.93413        0.91680        1.03220      -81.79134     3902.74462
9202.50000     1021.46392        0.36604       94.76409       86.83830        0.95300        0.92005        1.05593      -80.67807     3901.61307
9203.00000     1011.53577        0.41461       91.02569       89.67423        0.97226        0.92576        1.08021      -79.28812     3900.48153
9203.50000     1018.28716        0.41461       89.05542       90.39060        0.99190        0.93320        1.10504      -78.68869     3899.34999
9204.00000     1024.95949        0.38815       89.83561       88.01806        0.99987        0.94069        1.11190      -77.21969     3898.21844
9204.50000     1031.71088        0.25666       91.40163       83.41035        0.99987        0.94429        1.10665      -76.35544     3897.08690
9205.00000     1038.46227        0.12517       93.55704       81.21568        0.98857        0.93218        1.10133      -78.98523     3895.95536
9205.50000     1045.21366       -0.00672       95.51599       81.08126        0.97740        0.92014        1.09614      -81.61503     3894.82382
9206.00000     1051.88599       -0.08885       96.88555       81.25219        0.96635        0.90825        1.07248      -81.02745     3893.69227
9206.50000     1058.63738       -0.13821       98.45271       85.60886        0.95543        0.89652        1.04504      -79.63750     3892.78704
9207.00000     1052.02933       -0.17532       99.23289       91.01493        0.95179        0.88639        1.01822      -80.03016     3891.65550
9207.50000     1045.34222       -0.16269       98.24493       96.41803        0.94825        0.87637        1.01056      -79.90107     3885.80890
9208.00000     1038.73416       -0.15045       96.47113       99.38736        0.95257        0.87589        1.00288      -78.31350     3879.17647
9208.50000     1032.12610       -0.13821       92.73273       96.66501        0.96223        0.88189        1.00424      -77.75359     3872.15112
9209.00000     1025.43900       -0.04541       90.36841       97.02566        0.97199        0.88784        1.01158      -78.73518     3865.12576
9209.50000     1018.83094        0.04778       88.98753       96.83196        0.98185        0.89383        1.01896      -78.47566     3858.10041
9210.00000     1028.03288        0.14057       89.17947       97.03549        0.99407        0.89987        1.02640      -78.65487     3851.46798
9210.50000     1037.15576        0.17769       89.76319       87.25687        1.00653        0.90430        1.03389      -79.70496     3844.44263
9211.00000     1046.35770        0.17769       91.13275       90.67086        0.99742        0.90208        1.02948      -78.90790     3862.17128
9211.50000     1055.55964        0.17769       93.09170       94.08484        0.98310        0.89995        1.01720      -80.21754     3880.29285
9212.00000     1064.68252        0.17769       96.42587       93.79332        0.96899        0.89783        1.00516      -79.68530     3898.02150
9212.50000     1073.88446        0.17769       99.56358       92.01959        0.95500        0.89448        0.99317      -79.38231     3916.14307
9213.00000     1065.93255        0.17769      100.34376       90.24585        0.94429        0.88946        0.99082      -81.84609     3933.87172
9213.50000     1057.98065        0.20296      100.92748       90.04030        0.93822        0.88438        0.99082      -84.30988     3951.60037
9214.00000     1050.02874        0.32853      100.72537       91.20430        0.93218        0.88181        0.99082      -86.77367     3948.11130
9214.50000     1042.07683        0.45409       98.95156       90.67562        0.93184        0.88913        0.99082      -86.51811     3939.12135
9215.00000     1034.12493        0.58558       97.37422       88.01256        0.93541        0.89652        1.00060      -86.91076     3930.13139
9215.50000     1034.07802        0.66061       95.01104       86.41670        0.94146        0.90397        1.02537      -88.27574     3921.14143
9216.00000     1034.03111        0.72142       92.25494       84.19831        0.95761        0.91148        1.05076      -89.63677     3912.15148
9216.50000     1033.98420        0.78420       90.87406       78.64495        0.97412        0.91738        1.07209      -90.42863     3914.16330
