~Version ---------------------------------------------------
VERS. 2.0 : CWLS LOG ASCII STANDARD - VERSION 2.0
WRAP. NO  : One line per depth step
DLM . SPACE : Column Data Section Delimiter
~Well ------------------------------------------------------
STRT.F         3992 : START DEPTH
STOP.F      15175.5 : STOP DEPTH
STEP.F          0.5 : STEP
NULL.       -999.25 : NULL VALUE
COMP.                  HILCORP ENERGY CO. : COMPANY
WELL.          212648-SL3306-015-03306-10 : WELL
FLD .                       REDFISH POINT : FIELD
CNTY.                           VERMILION : COUNTY
STAT.                           LOUISIANA : STATE
CTRY.                                 USA : COUNTRY
SEC .                                     : SECTION
TWP .                                     : TOWNSHIP
RGE .                                     : RANGE
LOC . LAT 29*40'57.085"N LONG 92*2'43.95"W : LOCATION
EKB .F                       41 : ELEVATION KELLY BUSHING
EDF .F                       41 : ELEVATION DERRICK FLOOR
EGL .F                          : ELEVATION GROUND LEVEL
PDAT.                       MSL : PERMANENT DATUM
EPD .                           : ELEVATION PERMANENT DATUM
APD .                           : ABOVE PERMANENT DATUM
LMF .                        KB : LOG MEASURED FROM
DMF .                        KB : DRILLING MEASURED FROM
API .            17113217870000 : API NUMBER
UWI .                           : UWI NUMBER
DIGC.                     NthDS : DIGITIZING COMPANY
~Params ----------------------------------------------------
SRVC.               HALLIBURTON : LOGGING COMPANY
LOG .                 DIL/SONIC : LOG
DATE.                           : RUN DATE
RUN .                         1 : RUN NUMBER
TDD .F                          : TOTAL DEPTH DRILLER
TDL .F                          : TOTAL DEPTH LOGGER
BOTL.F                          : BOTTOM LOGGED INTERVAL
TOPL.F                          : TOP LOGGED INTERVAL
CSGS.IN                         : CASING SIZE
CSGD.F                          : CASING DRILLER
CSGL.F                          : CASING LOGGER
BS  .IN                         : BIT SIZE
MUD .                           : MUD TYPE
MUDD.                           : MUD DENSITY
MUDV.                           : MUD VISCOSITY
PH  .                           : MUD PH
FL  .                           : FLUID LOSS
MUDS.                           : SOURCE OF SAMPLE
RM  .OHMM                       : MUD RESISTIVITY
RMT .DEGF                       : RM TEMPERATURE
RMF .OHMM                       : MUD FILTRATE RESISTIVITY
RMFT.DEGF                       : RMF TEMPERATURE
RMC .OHMM                       : MUD CAKE RESISTIVITY
RMCT.DEGF                       : RMC TEMPERATURE
RMFS.                           : RMF SOURCE
RMCS.                           : RMC SOURCE
RMBH.OHMM                       : MUD RESISTIVITY AT BHT
BHT .DEGF                       : BOTTOM HOLE TEMPERATURE
TIMC.                           : TIME CIRCULATION STOPPED
TIML.                           : TIME LOGGER ON BOTTOM
TMAX.DEGF                       : MAXIMUM RECORDED TEMPERATURE
UNIT.                      4546 : EQUIPMENT NUMBER
BASE.                     HOUMA : BASE LOCATION
ENG .                 BOURGEOIS : RECORDED BY
WIT .                BRUNEFIELD : WITNESSED BY
#
SRVC.               HALLIBURTON : LOGGING COMPANY
LOG .                 DIL/SONIC : LOG
DATE.                1991-02-03 : RUN DATE
RUN .                         2 : RUN NUMBER
TDD .F                    15214 : TOTAL DEPTH DRILLER
TDL .F                    15178 : TOTAL DEPTH LOGGER
BOTL.F                    15174 : BOTTOM LOGGED INTERVAL
TOPL.F                    14860 : TOP LOGGED INTERVAL
CSGS.IN                         : CASING SIZE
CSGD.F                    14869 : CASING DRILLER
CSGL.F                   148756 : CASING LOGGER
BS  .IN                       6 : BIT SIZE
MUD .                     LIGNO : MUD TYPE
MUDD.                        10 : MUD DENSITY
MUDV.                        44 : MUD VISCOSITY
PH  .                        11 : MUD PH
FL  .                       5.2 : FLUID LOSS
MUDS.                  FLOWLINE : SOURCE OF SAMPLE
RM  .OHMM                   2.1 : MUD RESISTIVITY
RMT .DEGF                    68 : RM TEMPERATURE
RMF .OHMM                   1.9 : MUD FILTRATE RESISTIVITY
RMFT.DEGF                    68 : RMF TEMPERATURE
RMC .OHMM                   2.5 : MUD CAKE RESISTIVITY
RMCT.DEGF                    68 : RMC TEMPERATURE
RMFS.                      MEAS : RMF SOURCE
RMCS.                      MEAS : RMC SOURCE
RMBH.OHMM                  0.62 : MUD RESISTIVITY AT BHT
BHT .DEGF                   245 : BOTTOM HOLE TEMPERATURE
TIMC.                           : TIME CIRCULATION STOPPED
TIML.                     1630  : TIME LOGGER ON BOTTOM
TMAX.DEGF                   245 : MAXIMUM RECORDED TEMPERATURE
UNIT.                      4546 : EQUIPMENT NUMBER
BASE.                       HMA : BASE LOCATION
ENG .                 BOURGEOIS : RECORDED BY
WIT .                 BREAZEALE : WITNESSED BY
~Curve Information -----------------------------------------
DEPT.F          :DEPTH
CILD.MMHO       :
DCAL.IN         :
DT.US/F         :
GR.GAPI         :
ILD.OHMM        :
ILM.OHMM        :
SGRD.OHMM       :
SP.MV           :
TENS.LBS        :
~ASCII ------------------------------------------------------
3992.00000        -999.25        -999.25        -999.25       50.39872        -999.25        -999.25        -999.25        -999.25        -999.25
3992.50000        -999.25        -999.25        -999.25       46.81964        -999.25        -999.25        -999.25        -999.25        -999.25
3993.00000        -999.25        -999.25        -999.25       43.83708        -999.25        -999.25        -999.25        -999.25        -999.25
3993.50000        -999.25        -999.25        -999.25       40.85451        -999.25        -999.25        -999.25        -999.25        -999.25
3994.00000        -999.25        -999.25        -999.25       37.87195        -999.25        -999.25        -999.25        -999.25        -999.25
3994.50000        -999.25        -999.25        -999.25       36.49005        -999.25        -999.25        -999.25        -999.25        -999.25
3995.00000        -999.25        -999.25        -999.25       37.42023        -999.25        -999.25        -999.25        -999.25        -999.25
3995.50000        -999.25        -999.25        -999.25       37.73088        -999.25        -999.25        -999.25        -999.25        -999.25
3996.00000        -999.25        -999.25        -999.25       38.09490        -999.25        -999.25        -999.25        -999.25        -999.25
3996.50000        -999.25        -999.25        -999.25       42.52283        -999.25        -999.25        -999.25        -999.25        -999.25
3997.00000        -999.25        -999.25        -999.25       44.91732        -999.25        -999.25        -999.25        -999.25        -999.25
3997.50000        -999.25        -999.25        -999.25       46.21209        -999.25        -999.25        -999.25        -999.25        -999.25
3998.00000        -999.25        -999.25        -999.25       46.61761        -999.25        -999.25        -999.25        -999.25        -999.25
3998.50000        -999.25        -999.25        -999.25       41.97142        -999.25        -999.25        -999.25        -999.25        -999.25
3999.00000        -999.25        -999.25        -999.25       39.58169        -999.25        -999.25        -999.25        -999.25        -999.25
3999.50000        -999.25        -999.25        -999.25       43.12036        -999.25        -999.25        -999.25        -999.25        -999.25
4000.00000     3606.29931        -999.25        -999.25       45.85093       12.54664        -999.25        -999.25        -999.25        -999.25
4000.50000     2666.69324        -999.25        -999.25       45.33754        5.76741        -999.25        0.28090        -999.25        -999.25
4001.00000     2538.03185        -999.25        -999.25       50.26417        4.22253        -999.25        0.32715        -999.25        -999.25
4001.50000     2409.44920        -999.25        -999.25       55.56061        3.40590        -999.25        0.43720        -999.25        -999.25
4002.00000     2280.86656        0.30608        -999.25       60.92226        2.45598      432.61631        0.58427      -90.42695        -999.25
4002.50000     2152.20517        0.63713        -999.25       66.70780        1.65897       11.40167        0.83946      -91.18533        -999.25
4003.00000     2023.62253        1.05095        -999.25       71.33800        1.12792        2.43646        1.01327      -91.94370        -999.25
4003.50000     1895.03988        1.31880        -999.25       72.16740        0.82677        0.97943        1.12874      -90.92543        -999.25
4004.00000     1766.37849        1.68451        -999.25       71.30127        0.56947        0.68388        1.15253      -89.38930        -999.25
4004.50000     1637.79585        2.27722        -999.25       72.76500        0.57375        0.56562        1.12738      -87.55442        -999.25
4005.00000     1609.44940        2.86994        -999.25       72.74664        0.57807        0.60128        1.09703      -85.72351        -999.25
4005.50000     1581.10295        3.34411        -999.25       70.80154        0.59509        0.63913        1.06741      -83.88862        -999.25
4006.00000     1552.75650        3.93682        -999.25       68.11539        0.61587        0.67113        1.03867      -83.17837        -999.25
4006.50000     1524.41005        4.05248        -999.25       64.39178        0.63743        0.68472        1.03355      -82.29554        -999.25
4007.00000     1496.06360        3.98526        -999.25       61.20694        0.65522        0.68334        1.02835      -81.36491        -999.25
4007.50000     1483.70140        3.64772        -999.25       61.26861        0.67810        0.69685        1.03285      -80.25900        -999.25
4008.00000     1471.33919        3.04778        -999.25       63.15100        0.69309        0.70687        1.04215      -79.15310        -999.25
4008.50000     1458.97699        2.44785        -999.25       72.44911        0.69531        0.71141        1.05163      -78.55708        -999.25
4009.00000     1446.53605        1.72793        -999.25       77.69219        0.69747        0.71591        1.06110      -78.72589        -999.25
4009.50000     1434.17385        1.35341        -999.25       80.23489        0.69971        0.72051        1.07065      -78.89073        -999.25
4010.00000     1421.81165        1.33470        -999.25       81.87422        0.70188        0.72255        1.08030      -79.29457        -999.25
4010.50000     1409.44945        1.38754        -999.25       81.73729        0.70413        0.72281        1.08982      -80.05294        -999.25
4011.00000     1409.44945        1.72893        -999.25       81.12241        0.70632        0.72307        1.09953      -80.80733        -999.25
4011.50000     1409.44945        2.27990        -999.25       80.87058        0.70858        0.72333        1.10923      -81.56570        -999.25
4012.00000     1409.44945        2.83048        -999.25       78.42157        0.71079        0.72365        1.11687      -82.32407        -999.25
4012.50000     1409.44945        3.38145        -999.25       74.84249        0.71260        0.72391        1.11594      -82.35745        -999.25
4013.00000     1409.44945        3.51135        -999.25       72.89740        0.71247        0.72417        1.11501      -82.39082        -999.25
4013.50000     1409.44945        3.54352        -999.25       70.58177        0.71240        0.72443        1.11409      -82.90222        -999.25
4014.00000     1409.44945        3.41070        -999.25       66.67438        0.71233        0.72489        1.12001      -83.53312        -999.25
4014.50000     1409.44945        2.95317        -999.25       65.28359        0.71226        0.72527        1.13051      -83.31155        -999.25
4015.00000     1409.44945        2.57189        -999.25       65.15555        0.71218        0.72573        1.13184      -82.87487        -999.25
4015.50000     1413.38645        2.19061        -999.25       67.54411        0.71211        0.72619        1.13109      -82.44218        -999.25
4016.00000     1417.32346        1.97630        -999.25       69.93564        0.71204        0.72665        1.13015      -82.14891        -999.25
4016.50000     1425.19747        1.87330        -999.25       71.84767        0.71197        0.72718        1.13564      -82.07074        -999.25
4017.00000     1429.13448        1.82994        -999.25       72.07237        0.71183        0.72698        1.14262      -81.99258        -999.25
4017.50000     1433.07149        1.82633        -999.25       71.75758        0.71176        0.72637        1.15080      -81.91840        -999.25
4018.00000     1437.00849        1.80682        -999.25       76.59161        0.71169        0.72067        1.14638      -81.74065        -999.25
4018.50000     1440.94550        1.76346        -999.25       80.70237        0.71162        0.71502        1.11756      -81.53900        -999.25
4019.00000     1442.91400        1.69068        -999.25       83.66895        0.71109        0.71253        1.08947      -81.33735        -999.25
