~Version ---------------------------------------------------
VERS. 2.0 : CWLS LOG ASCII STANDARD - VERSION 2.0
WRAP. NO  : One line per depth step
DLM . SPACE : Column Data Section Delimiter
~Well ------------------------------------------------------
STRT.F         3992 : START DEPTH
STOP.F      15175.5 : STOP DEPTH
STEP.F          0.5 : STEP
NULL.       -999.25 : NULL VALUE
COMP.                  HILCORP ENERGY CO. : COMPANY
WELL.          212648-SL3306-015-03306-10 : WELL
FLD .                       REDFISH POINT : FIELD
CNTY.                           VERMILION : COUNTY
STAT.                           LOUISIANA : STATE
CTRY.                                 USA : COUNTRY
SEC .                                     : SECTION
TWP .                                     : TOWNSHIP
RGE .                                     : RANGE
LOC . LAT 29*40'57.085"N LONG 92*2'43.95"W : LOCATION
EKB .F                       41 : ELEVATION KELLY BUSHING
EDF .F                       41 : ELEVATION DERRICK FLOOR
EGL .F                          : ELEVATION GROUND LEVEL
PDAT.                       MSL : PERMANENT DATUM
EPD .                           : ELEVATION PERMANENT DATUM
APD .                           : ABOVE PERMANENT DATUM
LMF .                        KB : LOG MEASURED FROM
DMF .                        KB : DRILLING MEASURED FROM
API .            17113217870000 : API NUMBER
UWI .                           : UWI NUMBER
DIGC.                     NthDS : DIGITIZING COMPANY
~Params ----------------------------------------------------
SRVC.               HALLIBURTON : LOGGING COMPANY
LOG .                 DIL/SONIC : LOG
DATE.                           : RUN DATE
RUN .                         1 : RUN NUMBER
TDD .F                          : TOTAL DEPTH DRILLER
TDL .F                          : TOTAL DEPTH LOGGER
BOTL.F                          : BOTTOM LOGGED INTERVAL
TOPL.F                          : TOP LOGGED INTERVAL
CSGS.IN                         : CASING SIZE
CSGD.F                          : CASING DRILLER
CSGL.F                          : CASING LOGGER
BS  .IN                         : BIT SIZE
MUD .                           : MUD TYPE
MUDD.                           : MUD DENSITY
MUDV.                           : MUD VISCOSITY
PH  .                           : MUD PH
FL  .                           : FLUID LOSS
MUDS.                           : SOURCE OF SAMPLE
RM  .OHMM                       : MUD RESISTIVITY
RMT .DEGF                       : RM TEMPERATURE
RMF .OHMM                       : MUD FILTRATE RESISTIVITY
RMFT.DEGF                       : RMF TEMPERATURE
RMC .OHMM                       : MUD CAKE RESISTIVITY
RMCT.DEGF                       : RMC TEMPERATURE
RMFS.                           : RMF SOURCE
RMCS.                           : RMC SOURCE
RMBH.OHMM                       : MUD RESISTIVITY AT BHT
BHT .DEGF                       : BOTTOM HOLE TEMPERATURE
TIMC.                           : TIME CIRCULATION STOPPED
TIML.                           : TIME LOGGER ON BOTTOM
TMAX.DEGF                       : MAXIMUM RECORDED TEMPERATURE
UNIT.                      4546 : EQUIPMENT NUMBER
BASE.                     HOUMA : BASE LOCATION
ENG .                 BOURGEOIS : RECORDED BY
WIT .                BRUNEFIELD : WITNESSED BY
#
SRVC.               HALLIBURTON : LOGGING COMPANY
LOG .                 DIL/SONIC : LOG
DATE.                1991-02-03 : RUN DATE
RUN .                         2 : RUN NUMBER
TDD .F                    15214 : TOTAL DEPTH DRILLER
TDL .F                    15178 : TOTAL DEPTH LOGGER
BOTL.F                    15174 : BOTTOM LOGGED INTERVAL
TOPL.F                    14860 : TOP LOGGED INTERVAL
CSGS.IN                         : CASING SIZE
CSGD.F                    14869 : CASING DRILLER
CSGL.F                   148756 : CASING LOGGER
BS  .IN                       6 : BIT SIZE
MUD .                     LIGNO : MUD TYPE
MUDD.                        10 : MUD DENSITY
MUDV.                        44 : MUD VISCOSITY
PH  .                        11 : MUD PH
FL  .                       5.2 : FLUID LOSS
MUDS.                  FLOWLINE : SOURCE OF SAMPLE
RM  .OHMM                   2.1 : MUD RESISTIVITY
RMT .DEGF                    68 : RM TEMPERATURE
RMF .OHMM                   1.9 : MUD FILTRATE RESISTIVITY
RMFT.DEGF                    68 : RMF TEMPERATURE
RMC .OHMM                   2.5 : MUD CAKE RESISTIVITY
RMCT.DEGF                    68 : RMC TEMPERATURE
RMFS.                      MEAS : RMF SOURCE
RMCS.                      MEAS : RMC SOURCE
RMBH.OHMM                  0.62 : MUD RESISTIVITY AT BHT
BHT .DEGF                   245 : BOTTOM HOLE TEMPERATURE
TIMC.                           : TIME CIRCULATION STOPPED
TIML.                     1630  : TIME LOGGER ON BOTTOM
TMAX.DEGF                   245 : MAXIMUM RECORDED TEMPERATURE
UNIT.                      4546 : EQUIPMENT NUMBER
BASE.                       HMA : BASE LOCATION
ENG .                 BOURGEOIS : RECORDED BY
WIT .                 BREAZEALE : WITNESSED BY
~Curve Information -----------------------------------------
DEPT.F          :DEPTH
CILD.MMHO       :
DCAL.IN         :
DT.US/F         :
GR.GAPI         :
ILD.OHMM        :
ILM.OHMM        :
SGRD.OHMM       :
SP.MV           :
TENS.LBS        :
~ASCII ------------------------------------------------------
# ...
5477.00000     2640.47184       -0.14689        -999.25       66.54694        0.38840        0.52910        1.13560     -119.70156     2846.76274
5477.50000     2711.19874       -0.07029        -999.25       69.29804        0.37833        0.49445        1.01822     -122.83578     2846.76274
5478.00000     2774.06709        0.00671        -999.25       68.97207        0.36849        0.47835        0.94679     -125.11230     2846.76274
5478.50000     2821.21836        0.08331        -999.25       69.20638        0.35893        0.46586        0.92131     -124.48764     2846.76274
5479.00000     2899.80380        0.07226        -999.25       72.01973        0.35096        0.46586        0.99082     -121.35310     2846.76274
5479.50000     2939.09652        0.03948        -999.25       72.93586        0.34857        0.46586        1.02752     -118.21856     2846.76274
5480.00000     2962.67216        0.00671        -999.25       73.84309        0.34620        0.46586        1.02752     -115.08402     2843.22639
5480.50000     2970.53070       -0.02646        -999.25       76.14360        0.34385        0.46586        1.00900     -114.45936     2834.97492
5481.00000     3001.96488       -0.05923        -999.25       75.07949        0.34124        0.45655        0.96416     -115.10346     2826.33052
5481.50000     3033.39905        0.02843        -999.25       75.17744        0.33753        0.44516        0.91297     -116.34441     2817.68612
5482.00000     3056.97469        0.11609        -999.25       78.28723        0.33387        0.43405        0.88036     -117.58140     2809.04172
5482.50000     3080.55032        0.20414        -999.25       80.15197        0.33025        0.42371        0.81860     -118.82235     2809.43465
5483.00000     3104.12595        0.22389        -999.25       78.62541        0.32666        0.41555        0.83362     -119.67199     2812.18514
5483.50000     3096.26741        0.15794        -999.25       77.08403        0.32382        0.42398        0.88841     -119.22519     2814.93563
5484.00000     3033.39905        0.07581        -999.25       73.71954        0.32753        0.44125        0.96416     -117.91279     2817.68612
5484.50000     2836.93545        0.10424        -999.25       69.76512        0.33799        0.45922        1.02752     -117.29998     2820.43661
5485.00000     2679.76456        0.16071        -999.25       69.16939        0.35942        0.47796        1.02752     -116.86504     2823.18710
5485.50000     2554.02785        0.21717        -999.25       70.89480        0.38224        0.49742        1.01822     -114.71469     2825.93759
5486.00000     2491.15950        0.10938        -999.25       70.94235        0.40647        0.51773        1.01822     -112.56038     2828.29516
5486.50000     2459.72532        0.00197        -999.25       75.22013        0.40955        0.53881        0.99987     -111.86853     2831.04565
5487.00000     2467.58387        0.13820        -999.25       78.64415        0.41269        0.54156        1.02752     -113.52054     2833.79614
5487.50000     2491.15950        0.33563        -999.25       78.04842        0.41070        0.54373        1.02752     -116.48876     2836.54663
5488.00000     2506.87659        0.54965        -999.25       75.45171        0.40540        0.54373        1.05593     -118.43326     2839.29712
5488.50000     2522.59368        0.76327        -999.25       71.18602        0.40020        0.54418        1.10504     -116.27895     2842.04761
5489.00000     2483.30096        0.80671        -999.25       66.92331        0.40702        0.54646        1.10504     -114.12860     2844.79810
5489.50000     2412.57406        0.73603        -999.25       64.45406        0.41714        0.54870        1.13560     -111.61857     2846.76274
5490.00000     2318.27153        0.66574        -999.25       69.16761        0.42949        0.55497        1.13560     -109.10458     2846.76274
5490.50000     2192.53482        0.60928        -999.25       73.88116        0.45057        0.56131        1.13560     -107.81589     2846.76274
5491.00000     2058.93957        0.55676        -999.25       76.54629        0.47273        0.57946        1.13560     -108.64972     2846.76274
5491.50000     1972.49558        0.50424        -999.25       75.90906        0.49598        0.60641        1.14597     -110.03691     2846.76274
5492.00000     1933.20286        0.44975        -999.25       75.15678        0.51721        0.62318        1.16700     -109.40829     2846.76274
5492.50000     1925.34431        0.39486        -999.25       74.23200        0.52910        0.63462        1.14597     -105.19395     2846.76274
5493.00000     1996.07121        0.33998        -999.25       74.55821        0.52910        0.63462        1.11514      -99.92898     2846.76274
5493.50000     2121.80792        0.29852        -999.25       75.52473        0.49919        0.63462        1.07531      -98.74700     2846.76274
5494.00000     2278.97880        0.30997        -999.25       77.44876        0.46417        0.61295        1.06558     -100.92471     2846.76274
5494.50000     2373.28134        0.32181        -999.25       78.80065        0.44113        0.56203        1.00900     -104.55300     2846.76274
5495.00000     2412.57406        0.33327        -999.25       78.59919        0.42152        0.51919        0.94679     -108.17734     2847.94152
5495.50000     2412.57406        0.41461        -999.25       75.63192        0.41393        0.49422        0.86450     -111.80563     2854.62128
5496.00000     2459.72532        0.55794        -999.25       73.17157        0.41393        0.47046        0.82608     -113.45764     2861.30104
5496.50000     2514.73513        0.73050        -999.25       72.74778        0.41242        0.47441        0.83362     -109.39820     2867.58788
5497.00000     2593.32058        0.73050        -999.25       69.27063        0.40499        0.48532        0.89652     -103.91189     2874.26764
5497.50000     2664.04747        0.67798        -999.25       66.13439        0.39647        0.49647        0.95543     -102.99474     2880.94740
5498.00000     2750.49146        0.54610        -999.25       70.44775        0.38339        0.49109        0.99082     -105.85228     2885.26960
5498.50000     2813.35982        0.41461        -999.25       76.20773        0.37070        0.47497        0.99082     -109.25923     2881.34033
5499.00000     2876.22817        0.36643        -999.25       79.46575        0.35844        0.45942        0.93822     -112.66618     2877.41106
5499.50000     2946.95507        0.44304        -999.25       82.72377        0.34661        0.44415        0.87240     -115.67392     2873.87471
5500.00000     2978.38924        0.50464        -999.25       85.33381        0.34198        0.43219        0.84124     -116.71559     2870.73130
5500.50000     3041.25760        0.51767        -999.25       85.00192        0.33582        0.41393        0.81860     -116.36761     2905.30889
5501.00000     2962.67216        0.51214        -999.25       81.66410        0.33582        0.43055        0.86450     -114.43464     2901.37962
5501.50000     2797.64273        0.48568        -999.25       78.54861        0.35587        0.44605        0.91297     -112.21315     2897.45035
5502.00000     2522.59368        0.45923        -999.25       75.02700        0.39195        0.47922        0.95543     -109.99560     2893.91400
5502.50000     2286.83735        0.36051        -999.25       71.13187        0.42634        0.51957        1.01822     -108.51719     2889.98473
5503.00000     2066.79811        0.24363        -999.25       72.27032        0.46375        0.56331        1.11514     -108.10991     2886.05546
5503.50000     1917.48577        0.12635        -999.25       73.40582        0.50444        0.60718        1.18842     -108.57220     2882.12619
5504.00000     1831.04178        0.00947        -999.25       78.59367        0.54870        0.63960        1.19927     -109.03054     2878.19691
