~Version ---------------------------------------------------
VERS. 2.0 : CWLS LOG ASCII STANDARD - VERSION 2.0
WRAP. NO  : One line per depth step
DLM . SPACE : Column Data Section Delimiter
~Well ------------------------------------------------------
STRT.F         3992 : START DEPTH
STOP.F      15175.5 : STOP DEPTH
STEP.F          0.5 : STEP
NULL.       -999.25 : NULL VALUE
COMP.                  HILCORP ENERGY CO. : COMPANY
WELL.          212648-SL3306-015-03306-10 : WELL
FLD .                       REDFISH POINT : FIELD
CNTY.                           VERMILION : COUNTY
STAT.                           LOUISIANA : STATE
CTRY.                                 USA : COUNTRY
SEC .                                     : SECTION
TWP .                                     : TOWNSHIP
RGE .                                     : RANGE
LOC . LAT 29*40'57.085"N LONG 92*2'43.95"W : LOCATION
EKB .F                       41 : ELEVATION KELLY BUSHING
EDF .F                       41 : ELEVATION DERRICK FLOOR
EGL .F                          : ELEVATION GROUND LEVEL
PDAT.                       MSL : PERMANENT DATUM
EPD .                           : ELEVATION PERMANENT DATUM
APD .                           : ABOVE PERMANENT DATUM
LMF .                        KB : LOG MEASURED FROM
DMF .                        KB : DRILLING MEASURED FROM
API .            17113217870000 : API NUMBER
UWI .                           : UWI NUMBER
DIGC.                     NthDS : DIGITIZING COMPANY
~Params ----------------------------------------------------
SRVC.               HALLIBURTON : LOGGING COMPANY
LOG .                 DIL/SONIC : LOG
DATE.                           : RUN DATE
RUN .                         1 : RUN NUMBER
TDD .F                          : TOTAL DEPTH DRILLER
TDL .F                          : TOTAL DEPTH LOGGER
BOTL.F                          : BOTTOM LOGGED INTERVAL
TOPL.F                          : TOP LOGGED INTERVAL
CSGS.IN                         : CASING SIZE
CSGD.F                          : CASING DRILLER
CSGL.F                          : CASING LOGGER
BS  .IN                         : BIT SIZE
MUD .                           : MUD TYPE
MUDD.                           : MUD DENSITY
MUDV.                           : MUD VISCOSITY
PH  .                           : MUD PH
FL  .                           : FLUID LOSS
MUDS.                           : SOURCE OF SAMPLE
RM  .OHMM                       : MUD RESISTIVITY
RMT .DEGF                       : RM TEMPERATURE
RMF .OHMM                       : MUD FILTRATE RESISTIVITY
RMFT.DEGF                       : RMF TEMPERATURE
RMC .OHMM                       : MUD CAKE RESISTIVITY
RMCT.DEGF                       : RMC TEMPERATURE
RMFS.                           : RMF SOURCE
RMCS.                           : RMC SOURCE
RMBH.OHMM                       : MUD RESISTIVITY AT BHT
BHT .DEGF                       : BOTTOM HOLE TEMPERATURE
TIMC.                           : TIME CIRCULATION STOPPED
TIML.                           : TIME LOGGER ON BOTTOM
TMAX.DEGF                       : MAXIMUM RECORDED TEMPERATURE
UNIT.                      4546 : EQUIPMENT NUMBER
BASE.                     HOUMA : BASE LOCATION
ENG .                 BOURGEOIS : RECORDED BY
WIT .                BRUNEFIELD : WITNESSED BY
#
SRVC.               HALLIBURTON : LOGGING COMPANY
LOG .                 DIL/SONIC : LOG
DATE.                1991-02-03 : RUN DATE
RUN .                         2 : RUN NUMBER
TDD .F                    15214 : TOTAL DEPTH DRILLER
TDL .F                    15178 : TOTAL DEPTH LOGGER
BOTL.F                    15174 : BOTTOM LOGGED INTERVAL
TOPL.F                    14860 : TOP LOGGED INTERVAL
CSGS.IN                         : CASING SIZE
CSGD.F                    14869 : CASING DRILLER
CSGL.F                   148756 : CASING LOGGER
BS  .IN                       6 : BIT SIZE
MUD .                     LIGNO : MUD TYPE
MUDD.                        10 : MUD DENSITY
MUDV.                        44 : MUD VISCOSITY
PH  .                        11 : MUD PH
FL  .                       5.2 : FLUID LOSS
MUDS.                  FLOWLINE : SOURCE OF SAMPLE
RM  .OHMM                   2.1 : MUD RESISTIVITY
RMT .DEGF                    68 : RM TEMPERATURE
RMF .OHMM                   1.9 : MUD FILTRATE RESISTIVITY
RMFT.DEGF                    68 : RMF TEMPERATURE
RMC .OHMM                   2.5 : MUD CAKE RESISTIVITY
RMCT.DEGF                    68 : RMC TEMPERATURE
RMFS.                      MEAS : RMF SOURCE
RMCS.                      MEAS : RMC SOURCE
RMBH.OHMM                  0.62 : MUD RESISTIVITY AT BHT
BHT .DEGF                   245 : BOTTOM HOLE TEMPERATURE
TIMC.                           : TIME CIRCULATION STOPPED
TIML.                     1630  : TIME LOGGER ON BOTTOM
TMAX.DEGF                   245 : MAXIMUM RECORDED TEMPERATURE
UNIT.                      4546 : EQUIPMENT NUMBER
BASE.                       HMA : BASE LOCATION
ENG .                 BOURGEOIS : RECORDED BY
WIT .                 BREAZEALE : WITNESSED BY
~Curve Information -----------------------------------------
DEPT.F          :DEPTH
CILD.MMHO       :
DCAL.IN         :
DT.US/F         :
GR.GAPI         :
ILD.OHMM        :
ILM.OHMM        :
SGRD.OHMM       :
SP.MV           :
TENS.LBS        :
~ASCII ------------------------------------------------------
# ...
10674.50000     5629.27555       -0.29028       92.63263       43.58634        0.18359        0.23721        0.90592     -151.17340     4321.81150
10675.00000     5301.96175       -0.30597       92.23970       44.32460        0.19407        0.24680        0.87741     -137.12189     4324.95491
10675.50000     3773.98034       -0.32206       91.65031       44.91464        0.22126        0.25824        0.84979     -124.54073     4328.09833
10676.00000     4320.02036       -0.33183       91.84677       44.91179        0.26534        0.29593        0.88917     -117.82517     4331.24175
10676.50000     3992.70657       -0.33252       93.61494       47.75479        0.32360        0.38515        0.94633     -112.45272     4334.38517
10677.00000     2898.15616       -0.33321       94.79373       54.57011        0.39628        0.46188        1.03305     -102.24705     4337.52858
10677.50000     2679.21988       -0.31416       90.86445       60.02237        0.48859        0.55391        1.12780      -92.03743     4339.88615
10678.00000     2460.20455       -0.21613       85.95286       61.50173        0.61879        0.63286        1.36411      -81.83176     4339.88615
10678.50000     2241.26826       -0.11810       78.09432       61.40106        0.74751        0.74751        1.92432      -76.49959     4339.88615
10679.00000     2022.33198       -0.23962       74.16505       58.92589        0.81112        0.82924        2.00984      -80.10812     4339.88615
10679.50000     1584.38036       -0.41563       74.36151       56.45368        0.88015        0.88472        1.96793      -84.80756     4339.88615
10680.00000     1365.44408       -0.35038       81.43420       56.94589        0.90163        0.92261        1.63303      -85.20661     4339.88615
10680.50000     1146.50780       -0.28552       88.11396       61.44600        0.92356        0.95663        1.20734      -75.47920     4346.56591
10681.00000     1110.09790       -0.22421       89.29275       66.74651        0.94610        0.99552        1.15560      -65.75574     4352.85275
10681.50000     1073.68800       -0.16567       88.89982       71.74464        0.97370        1.03693        1.17930      -59.13109     4359.53251
10682.00000     1037.27811       -0.12964       87.32811       78.07972        1.00210        1.08894        1.22001      -60.71591     4366.21227
10682.50000     1000.86821       -0.10822       85.36347       80.52252        1.01700        1.12786        1.24979      -63.09124     4372.49911
10683.00000      964.45831       -0.10456       85.55994       78.66692        0.95700        1.09664        1.23076      -62.89741     4379.17887
10683.50000     1272.70629       -0.10525       87.13165       78.81229        0.85538        1.06619        1.18306      -57.96050     4379.17887
10684.00000     1580.95428       -0.10594       88.89982       79.72842        0.73704        0.99820        1.13710      -57.56904     4379.17887
10684.50000     1745.64199       -0.10663       91.45385       79.62182        0.57745        0.85464        1.09303      -61.70326     4379.17887
10685.00000     1889.20226       -0.17484       92.43616       79.80573        0.45242        0.70112        1.21884      -71.05091     4379.17887
10685.50000     2197.45024       -0.28846       92.43616       73.46495        0.40558        0.57512        1.21312      -82.04282     4379.17887
10686.00000     2505.69822       -0.40208       91.45385       65.49374        0.37027        0.48420        1.20743      -99.61179     4379.17887
10686.50000     2813.94621       -0.51570       88.50689       57.52550        0.35056        0.45221        1.04541     -111.26379     4379.17887
10687.00000     2646.47145       -0.58984       87.32811       53.31911        0.35051        0.43204        1.03418     -111.47707     4376.82131
10687.50000     2478.99670       -0.60593       87.72104       52.25796        0.36234        0.45207        1.26298     -106.17257     4370.14154
10688.00000     2311.44290       -0.62162       89.88214       56.00511        0.38726        0.49009        1.54241      -94.12105     4363.85471
10688.50000     2143.96815       -0.45923       90.66799       63.14948        0.46743        0.54402        1.56576      -83.23950     4357.56787
10689.00000     1809.01865       -0.25222       90.66799       70.29682        0.56424        0.60444        1.51413      -77.02986     4351.28104
10689.50000     1641.54390       -0.04482       90.66799       77.44415        0.67450        0.68988        1.37343      -70.69770     4344.99420
10690.00000     1474.06915        0.16219       91.06092       82.44229        0.77589        0.81895        1.28129      -65.60589     4339.88615
10690.50000     1306.51535        0.20533       91.65031       85.07185        0.89252        0.92205        1.21794      -56.88243     4339.88615
10691.00000     1139.04059        0.23584       93.22202       84.32846        0.96566        0.98097        1.18067      -49.51865     4339.88615
10691.50000      971.56584        0.21659       94.20434       85.55585        0.98807        1.01106        1.16228      -45.07581     4339.88615
10692.00000      970.49128        0.19695       93.02555       88.22099        0.99566        1.02674        1.17004      -42.65669     4339.88615
10692.50000      969.33767        0.17770       92.04324       88.92960        0.99551        1.03238        1.18323      -40.93321     4339.88615
10693.00000      968.26312        0.15806       92.23970       88.33387        0.99535        1.02800        1.19287      -40.49827     4339.88615
10693.50000      967.18856        0.15737       92.63263       89.61759        0.99519        1.02355        1.18770      -40.92499     4339.88615
10694.00000      966.03495        0.15668       93.41848       91.68094        0.99503        1.02255        1.18266      -41.35566     4339.88615
10694.50000      964.96039        0.10505       94.59726       91.84410        0.99488        1.01424        1.15590      -40.10649     4352.45982
10695.00000      963.88583        0.04987       94.40080       93.00627        0.99472        1.00061        1.12975      -38.43440     4365.42642
10695.50000      962.73222        0.11513       93.41848       95.67141        0.99456        0.98717        1.12547      -37.26033     4378.00009
10696.00000      961.65766        0.18038       94.20434       96.08358        0.99440        0.97817        1.13557      -38.05464     4390.57376
10696.50000      960.58310        0.09400       95.57958       93.11631        0.99741        0.98641        1.14575      -38.69084     4403.14743
10697.00000      959.42949       -0.02988       96.16897       92.96525        1.00536        0.99463        1.15604      -38.69464     4416.11403
10697.50000      958.35493       -0.15416       96.95483       92.81418        1.01327        1.00301        1.15617      -38.36246     4407.07670
10698.00000      957.28037       -0.18644       95.97251       90.92596        1.02125        1.00285        1.14938      -36.69432     4393.32425
10698.50000      956.12676       -0.15712       93.61494       89.03478        1.01047        1.00087        1.19057      -35.02618     4379.17887
10699.00000      955.05220       -0.12780       91.65031       89.44696        0.99971        0.99165        1.22452      -34.85607     4365.03349
10699.50000      967.33709       -0.09848       90.86445       90.43126        0.98825        0.98047        1.22433      -35.68199     4351.28104
10700.00000      979.54292       -0.04026       90.66799       90.71127        0.98238        0.96793        1.19926      -36.03592     4339.88615
10700.50000     1009.16167       -0.01094       91.25738       94.73115        0.96989        0.94913        1.14578      -34.39149     4404.32621
10701.00000     1021.36750        0.01838       94.79373       96.98422        0.95756        0.93425        1.09468      -35.29252     4390.57376
10701.50000     1033.65239       -0.04312       97.15129       98.06043        0.94684        0.92506        1.09451      -36.19750     4378.78594
