~Version ---------------------------------------------------
VERS. 2.0 : CWLS LOG ASCII STANDARD - VERSION 2.0
WRAP. NO  : One line per depth step
DLM . SPACE : Column Data Section Delimiter
~Well ------------------------------------------------------
STRT.F         3992 : START DEPTH
STOP.F      15175.5 : STOP DEPTH
STEP.F          0.5 : STEP
NULL.       -999.25 : NULL VALUE
COMP.                  HILCORP ENERGY CO. : COMPANY
WELL.          212648-SL3306-015-03306-10 : WELL
FLD .                       REDFISH POINT : FIELD
CNTY.                           VERMILION : COUNTY
STAT.                           LOUISIANA : STATE
CTRY.                                 USA : COUNTRY
SEC .                                     : SECTION
TWP .                                     : TOWNSHIP
RGE .                                     : RANGE
LOC . LAT 29*40'57.085"N LONG 92*2'43.95"W : LOCATION
EKB .F                       41 : ELEVATION KELLY BUSHING
EDF .F                       41 : ELEVATION DERRICK FLOOR
EGL .F                          : ELEVATION GROUND LEVEL
PDAT.                       MSL : PERMANENT DATUM
EPD .                           : ELEVATION PERMANENT DATUM
APD .                           : ABOVE PERMANENT DATUM
LMF .                        KB : LOG MEASURED FROM
DMF .                        KB : DRILLING MEASURED FROM
API .            17113217870000 : API NUMBER
UWI .                           : UWI NUMBER
DIGC.                     NthDS : DIGITIZING COMPANY
~Params ----------------------------------------------------
SRVC.               HALLIBURTON : LOGGING COMPANY
LOG .                 DIL/SONIC : LOG
DATE.                           : RUN DATE
RUN .                         1 : RUN NUMBER
TDD .F                          : TOTAL DEPTH DRILLER
TDL .F                          : TOTAL DEPTH LOGGER
BOTL.F                          : BOTTOM LOGGED INTERVAL
TOPL.F                          : TOP LOGGED INTERVAL
CSGS.IN                         : CASING SIZE
CSGD.F                          : CASING DRILLER
CSGL.F                          : CASING LOGGER
BS  .IN                         : BIT SIZE
MUD .                           : MUD TYPE
MUDD.                           : MUD DENSITY
MUDV.                           : MUD VISCOSITY
PH  .                           : MUD PH
FL  .                           : FLUID LOSS
MUDS.                           : SOURCE OF SAMPLE
RM  .OHMM                       : MUD RESISTIVITY
RMT .DEGF                       : RM TEMPERATURE
RMF .OHMM                       : MUD FILTRATE RESISTIVITY
RMFT.DEGF                       : RMF TEMPERATURE
RMC .OHMM                       : MUD CAKE RESISTIVITY
RMCT.DEGF                       : RMC TEMPERATURE
RMFS.                           : RMF SOURCE
RMCS.                           : RMC SOURCE
RMBH.OHMM                       : MUD RESISTIVITY AT BHT
BHT .DEGF                       : BOTTOM HOLE TEMPERATURE
TIMC.                           : TIME CIRCULATION STOPPED
TIML.                           : TIME LOGGER ON BOTTOM
TMAX.DEGF                       : MAXIMUM RECORDED TEMPERATURE
UNIT.                      4546 : EQUIPMENT NUMBER
BASE.                     HOUMA : BASE LOCATION
ENG .                 BOURGEOIS : RECORDED BY
WIT .                BRUNEFIELD : WITNESSED BY
#
SRVC.               HALLIBURTON : LOGGING COMPANY
LOG .                 DIL/SONIC : LOG
DATE.                1991-02-03 : RUN DATE
RUN .                         2 : RUN NUMBER
TDD .F                    15214 : TOTAL DEPTH DRILLER
TDL .F                    15178 : TOTAL DEPTH LOGGER
BOTL.F                    15174 : BOTTOM LOGGED INTERVAL
TOPL.F                    14860 : TOP LOGGED INTERVAL
CSGS.IN                         : CASING SIZE
CSGD.F                    14869 : CASING DRILLER
CSGL.F                   148756 : CASING LOGGER
BS  .IN                       6 : BIT SIZE
MUD .                     LIGNO : MUD TYPE
MUDD.                        10 : MUD DENSITY
MUDV.                        44 : MUD VISCOSITY
PH  .                        11 : MUD PH
FL  .                       5.2 : FLUID LOSS
MUDS.                  FLOWLINE : SOURCE OF SAMPLE
RM  .OHMM                   2.1 : MUD RESISTIVITY
RMT .DEGF                    68 : RM TEMPERATURE
RMF .OHMM                   1.9 : MUD FILTRATE RESISTIVITY
RMFT.DEGF                    68 : RMF TEMPERATURE
RMC .OHMM                   2.5 : MUD CAKE RESISTIVITY
RMCT.DEGF                    68 : RMC TEMPERATURE
RMFS.                      MEAS : RMF SOURCE
RMCS.                      MEAS : RMC SOURCE
RMBH.OHMM                  0.62 : MUD RESISTIVITY AT BHT
BHT .DEGF                   245 : BOTTOM HOLE TEMPERATURE
TIMC.                           : TIME CIRCULATION STOPPED
TIML.                     1630  : TIME LOGGER ON BOTTOM
TMAX.DEGF                   245 : MAXIMUM RECORDED TEMPERATURE
UNIT.                      4546 : EQUIPMENT NUMBER
BASE.                       HMA : BASE LOCATION
ENG .                 BOURGEOIS : RECORDED BY
WIT .                 BREAZEALE : WITNESSED BY
~Curve Information -----------------------------------------
DEPT.F          :DEPTH
CILD.MMHO       :
DCAL.IN         :
DT.US/F         :
GR.GAPI         :
ILD.OHMM        :
ILM.OHMM        :
SGRD.OHMM       :
SP.MV           :
TENS.LBS        :
~ASCII ------------------------------------------------------
# ...
14387.00000      825.06006        2.71786       90.39727       93.87276        1.23749        1.11514        1.37039      -25.34521     5535.03308
14387.50000      794.46718        2.65232       88.47360       93.84613        1.31509        1.16700        1.39973      -25.09669     5521.72584
14388.00000      763.79525        2.58637       85.73387       90.23666        1.41252        1.22128        1.45316      -24.85211     5508.80999
14388.50000      733.20238        2.20296       84.00197       84.81359        1.44250        1.27808        1.50863      -25.83831     5500.98220
14389.00000      702.53045        1.81994       82.94131       81.75442        1.47311        1.32145        1.56607      -26.50892     5500.98220
14389.50000      671.93757        1.43652       81.96283       76.10945        1.49171        1.35515        1.59844      -26.70616     5500.98220
14390.00000      667.98500        1.61145       82.70060       76.41714        1.49171        1.35552        1.61304      -26.82450     5500.98220
14390.50000      664.03243        2.15794       84.36401       78.03253        1.49171        1.34729        1.59191      -26.82450     5500.98220
14391.00000      660.07986        2.70483       85.28182       76.13312        1.49171        1.33911        1.54809      -27.10458     5500.98220
14391.50000      656.12730        2.90227       85.63994       75.29584        1.48333        1.33218        1.50534      -27.81069     5500.98220
14392.00000      652.17473        3.09970       85.76322       74.33430        1.48833        1.32542        1.52656      -28.51681     5500.98220
14392.50000      648.22216        3.07996       85.71430       71.55915        1.51399        1.35244        1.54809      -29.58584     5500.98220
14393.00000      632.41189        3.06021       85.05677       70.66862        1.55642        1.38870        1.57779      -30.89945     5503.33054
14393.50000      616.60161        2.94175       83.65951       70.19821        1.60426        1.46151        1.62009      -32.21700     5509.98416
14394.00000      600.79134        2.82329       81.39728       69.65975        1.67582        1.53827        1.66368      -33.53061     5516.24639
14394.50000      584.98107        2.48924       79.13505       68.29288        1.75058        1.61891        1.82834      -36.26039     5522.50862
14395.00000      569.17079        2.15518       76.87086       63.60945        1.82867        1.66671        2.00948      -38.99412     5528.77085
14395.50000      553.36052        1.93721       76.15853       62.44673        1.91025        1.68193        2.13958      -41.53456     5535.03308
14396.00000      524.34867        1.89299       76.02742       61.28401        1.99546        1.70394        2.15383      -43.78702     5538.94697
14396.50000      495.41587        1.91944       76.28769       60.28105        2.03466        1.75297        2.09588      -46.03949     5533.85891
14397.00000      466.40402        1.99210       77.49513       61.13608        2.04505        1.85547        2.05773      -49.90142     5528.37946
14397.50000      463.79533        2.06476       78.63603       63.82543        2.03577        2.00145        2.09302      -52.07104     5522.90001
14398.00000      461.10758        2.13741       78.47360       65.97632        2.02654        2.04635        2.14953      -50.09866     5517.42056
14398.50000      458.49888        2.12951       78.57145       65.58282        2.01735        2.02544        2.22186      -48.80083     5512.33250
14399.00000      455.89019        2.12556       78.68886       65.82839        2.02286        2.00455        2.26633      -48.52075     5506.85304
14399.50000      453.20244        2.17176       78.37575       66.78992        2.03818        1.98388        2.26633      -46.11049     5501.37359
14400.00000      450.59375        2.27048       78.50687       66.60649        2.05512        1.96360        2.25175      -44.05132     5496.28553
14400.50000      455.89019        2.40868       78.89826       68.54140        2.09664        2.01827        2.25749      -42.96651     5411.35405
14401.00000      453.20244        2.46791       79.15853       69.70413        2.11964        2.07050        2.27149      -41.60162     5406.26598
14401.50000      450.59375        2.46791       79.15853       69.32839        2.14289        2.12427        2.40431      -40.23673     5400.78653
14402.00000      447.98505        2.46791       78.02741       68.50886        2.16640        2.12775        2.54489      -40.23673     5395.30708
14402.50000      445.29731        2.46791       76.61450       70.41418        2.19815        2.09778        2.58430      -41.02568     5389.82763
14403.00000      442.68861        2.48608       76.61450       71.51773        2.26263        2.06824        2.59749      -42.01187     5384.73957
14403.50000      432.49099        2.51648       76.61450       74.07099        2.32900        2.05811        2.50085      -42.99807     5383.56540
14404.00000      422.37241        2.54689       77.07047       76.62720        2.41724        2.13492        2.48205      -43.16375     5383.56540
14404.50000      412.17479        2.63139       78.24464       74.98223        2.50882        2.30792        2.57094      -43.32548     5383.56540
14405.00000      402.05621        2.68351       79.54992       73.07691        2.51545        2.39101        2.80696      -43.51089     5383.56540
14405.50000      391.85858        2.71392       78.86499       70.11833        2.50017        2.45133        3.06492      -43.70812     5383.56540
14406.00000      381.74001        2.74432       77.98436       67.15975        2.48499        2.40978        3.19757      -43.78702     5383.56540
14406.50000      371.54238        2.64560       77.98436       66.86389        2.53059        2.36916        3.11550      -43.78702     5383.56540
14407.00000      375.49495        2.59427       77.51469       68.38164        2.59277        2.32900        2.92898      -43.92903     5383.56540
14407.50000      379.44752        2.76170       77.20158       69.96152        2.65648        2.33791        2.75387      -44.28801     5383.56540
14408.00000      383.40009        2.98124       78.66929       71.53844        2.63436        2.34665        2.63723      -44.65093     5383.56540
14408.50000      387.35266        2.86594       78.68103       72.78105        2.59112        2.39058        2.71830      -45.01779     5383.56540
14409.00000      391.30523        2.75103       76.50491       69.26921        2.52760        2.45959        2.80186      -45.38860     5383.56540
14409.50000      395.25779        2.72655       75.14679       66.73667        2.49336        2.47822        2.86549      -45.75941     5383.56540
14410.00000      391.30523        2.76209       74.26616       65.68046        2.52186        2.38255        2.81616      -45.26631     5383.56540
14410.50000      387.35266        2.77828       73.54796       64.69525        2.57820        2.28703        2.67734      -45.85803     5383.56540
14411.00000      383.40009        2.76406       75.83172       66.71596        2.64299        2.31844        2.60222      -48.07893     5383.56540
14411.50000      379.44752        2.74985       78.21332       68.42010        2.63316        2.39885        2.61408      -48.12627     5383.56540
14412.00000      386.72025        2.71786       78.37575       65.85206        2.57398        2.48205        2.76190      -48.91522     5383.56540
14412.50000      393.91392        2.67403       76.41880       63.28105        2.51613        2.46608        3.14767      -54.83238     5383.56540
14413.00000      401.18665        2.60809       74.46186       60.71300        2.46698        2.39340        3.23089      -56.01581     5383.56540
14413.50000      408.45937        2.53623       72.89630       58.87573        2.43002        2.28184        3.19002      -50.93889     5383.56540
14414.00000      415.65305        2.56663       73.18984       61.39052        2.39340        2.17212        2.94232      -43.78702     5383.56540
