~Version ---------------------------------------------------
VERS. 2.0 : CWLS LOG ASCII STANDARD - VERSION 2.0
WRAP. NO  : One line per depth step
DLM . SPACE : Column Data Section Delimiter
~Well ------------------------------------------------------
STRT.F         3992 : START DEPTH
STOP.F      15175.5 : STOP DEPTH
STEP.F          0.5 : STEP
NULL.       -999.25 : NULL VALUE
COMP.                  HILCORP ENERGY CO. : COMPANY
WELL.          212648-SL3306-015-03306-10 : WELL
FLD .                       REDFISH POINT : FIELD
CNTY.                           VERMILION : COUNTY
STAT.                           LOUISIANA : STATE
CTRY.                                 USA : COUNTRY
SEC .                                     : SECTION
TWP .                                     : TOWNSHIP
RGE .                                     : RANGE
LOC . LAT 29*40'57.085"N LONG 92*2'43.95"W : LOCATION
EKB .F                       41 : ELEVATION KELLY BUSHING
EDF .F                       41 : ELEVATION DERRICK FLOOR
EGL .F                          : ELEVATION GROUND LEVEL
PDAT.                       MSL : PERMANENT DATUM
EPD .                           : ELEVATION PERMANENT DATUM
APD .                           : ABOVE PERMANENT DATUM
LMF .                        KB : LOG MEASURED FROM
DMF .                        KB : DRILLING MEASURED FROM
API .            17113217870000 : API NUMBER
UWI .                           : UWI NUMBER
DIGC.                     NthDS : DIGITIZING COMPANY
~Params ----------------------------------------------------
SRVC.               HALLIBURTON : LOGGING COMPANY
LOG .                 DIL/SONIC : LOG
DATE.                           : RUN DATE
RUN .                         1 : RUN NUMBER
TDD .F                          : TOTAL DEPTH DRILLER
TDL .F                          : TOTAL DEPTH LOGGER
BOTL.F                          : BOTTOM LOGGED INTERVAL
TOPL.F                          : TOP LOGGED INTERVAL
CSGS.IN                         : CASING SIZE
CSGD.F                          : CASING DRILLER
CSGL.F                          : CASING LOGGER
BS  .IN                         : BIT SIZE
MUD .                           : MUD TYPE
MUDD.                           : MUD DENSITY
MUDV.                           : MUD VISCOSITY
PH  .                           : MUD PH
FL  .                           : FLUID LOSS
MUDS.                           : SOURCE OF SAMPLE
RM  .OHMM                       : MUD RESISTIVITY
RMT .DEGF                       : RM TEMPERATURE
RMF .OHMM                       : MUD FILTRATE RESISTIVITY
RMFT.DEGF                       : RMF TEMPERATURE
RMC .OHMM                       : MUD CAKE RESISTIVITY
RMCT.DEGF                       : RMC TEMPERATURE
RMFS.                           : RMF SOURCE
RMCS.                           : RMC SOURCE
RMBH.OHMM                       : MUD RESISTIVITY AT BHT
BHT .DEGF                       : BOTTOM HOLE TEMPERATURE
TIMC.                           : TIME CIRCULATION STOPPED
TIML.                           : TIME LOGGER ON BOTTOM
TMAX.DEGF                       : MAXIMUM RECORDED TEMPERATURE
UNIT.                      4546 : EQUIPMENT NUMBER
BASE.                     HOUMA : BASE LOCATION
ENG .                 BOURGEOIS : RECORDED BY
WIT .                BRUNEFIELD : WITNESSED BY
#
SRVC.               HALLIBURTON : LOGGING COMPANY
LOG .                 DIL/SONIC : LOG
DATE.                1991-02-03 : RUN DATE
RUN .                         2 : RUN NUMBER
TDD .F                    15214 : TOTAL DEPTH DRILLER
TDL .F                    15178 : TOTAL DEPTH LOGGER
BOTL.F                    15174 : BOTTOM LOGGED INTERVAL
TOPL.F                    14860 : TOP LOGGED INTERVAL
CSGS.IN                         : CASING SIZE
CSGD.F                    14869 : CASING DRILLER
CSGL.F                   148756 : CASING LOGGER
BS  .IN                       6 : BIT SIZE
MUD .                     LIGNO : MUD TYPE
MUDD.                        10 : MUD DENSITY
MUDV.                        44 : MUD VISCOSITY
PH  .                        11 : MUD PH
FL  .                       5.2 : FLUID LOSS
MUDS.                  FLOWLINE : SOURCE OF SAMPLE
RM  .OHMM                   2.1 : MUD RESISTIVITY
RMT .DEGF                    68 : RM TEMPERATURE
RMF .OHMM                   1.9 : MUD FILTRATE RESISTIVITY
RMFT.DEGF                    68 : RMF TEMPERATURE
RMC .OHMM                   2.5 : MUD CAKE RESISTIVITY
RMCT.DEGF                    68 : RMC TEMPERATURE
RMFS.                      MEAS : RMF SOURCE
RMCS.                      MEAS : RMC SOURCE
RMBH.OHMM                  0.62 : MUD RESISTIVITY AT BHT
BHT .DEGF                   245 : BOTTOM HOLE TEMPERATURE
TIMC.                           : TIME CIRCULATION STOPPED
TIML.                     1630  : TIME LOGGER ON BOTTOM
TMAX.DEGF                   245 : MAXIMUM RECORDED TEMPERATURE
UNIT.                      4546 : EQUIPMENT NUMBER
BASE.                       HMA : BASE LOCATION
ENG .                 BOURGEOIS : RECORDED BY
WIT .                 BREAZEALE : WITNESSED BY
~Curve Information -----------------------------------------
DEPT.F          :DEPTH
CILD.MMHO       :
DCAL.IN         :
DT.US/F         :
GR.GAPI         :
ILD.OHMM        :
ILM.OHMM        :
SGRD.OHMM       :
SP.MV           :
TENS.LBS        :
~ASCII ------------------------------------------------------
# ...
13644.50000      784.19051        3.81046       81.70256       65.20708        1.23917        1.35972        1.75696      -71.00595     5227.79245
13645.00000      785.77153        3.68489       82.48534       65.79880        1.22762        1.37039        1.85969      -77.14401     5231.31495
13645.50000      787.35256        3.55933       82.87673       66.40235        1.21972        1.38077        1.97938      -81.83040     5238.75135
13646.00000      788.93359        3.50247       82.28964       67.06211        1.21177        1.39338        2.12446      -80.73770     5245.79636
13646.50000      790.51461        3.46298       81.50687       66.86389        1.22796        1.40931        2.18539      -80.86788     5253.23275
13647.00000      786.00869        3.48470       80.52839       65.38460        1.25049        1.42542        2.11771      -85.32153     5260.27776
13647.50000      781.50276        3.52181       80.52839       67.15975        1.27344        1.44223        2.00948      -85.99608     5266.93138
13648.00000      776.99683        3.55854       80.52839       68.84910        1.29681        1.46098        1.90677      -80.47340     5271.23666
13648.50000      772.41185        3.56446       80.52839       66.94969        1.30153        1.48009        1.89364      -76.72587     5275.54195
13649.00000      767.90592        3.54906       81.89826       66.99703        1.30153        1.49946        1.90366      -79.68445     5279.84723
13649.50000      763.40000        3.53405       81.70256       67.53549        1.30153        1.51909        1.91390      -79.56610     5284.15251
13650.00000      763.63715        3.39032       81.11548       68.95560        1.30153        1.51909        1.92419      -77.39648     5287.28363
13650.50000      768.38023        3.21816       80.72409       70.96448        1.28507        1.51909        2.03874      -77.37281     5369.86678
13651.00000      773.12331        3.07443       80.33270       72.97040        1.25813        1.50083        2.15129      -79.19135     5374.17206
13651.50000      777.86640        2.93109       79.74561       72.78105        1.23165        1.47070        2.27666      -83.72784     5378.47734
13652.00000      782.60948        2.85725       79.74561       70.21596        1.23805        1.44132        2.37174      -89.89352     5382.78262
13652.50000      766.79920        2.81737       79.74561       67.65383        1.26651        1.41252        2.37174      -89.89746     5369.47539
13653.00000      750.98893        2.80197       80.13700       65.08874        1.29563        1.44276        2.20535      -88.36295     5351.47148
13653.50000      735.17866        2.78697       80.91978       64.87868        1.33109        1.47378        2.01368      -92.05920     5333.85896
13654.00000      719.36839        2.79605       80.72409       65.77809        1.37651        1.50534        2.01827      -91.57399     5315.85505
13654.50000      703.55811        2.81105       78.18006       67.42306        1.42335        1.53995        2.13628      -84.81265     5298.24253
13655.00000      681.42373        2.84106       76.75344       66.86389        1.47191        1.57535        2.19735      -85.20713     5280.23862
13655.50000      659.28935        2.93109       77.45403       65.75442        1.56010        1.62186        2.12659      -87.83829     5266.93138
13656.00000      637.15497        3.02073       77.78867       64.64495        1.68101        1.71279        2.00145      -80.33139     5270.84527
13656.50000      615.02059        2.96821       78.57145       63.53549        1.81146        1.80883        1.97740      -70.11049     5274.75917
13657.00000      592.88620        2.91530       81.50687       64.73371        1.87241        1.90383        2.02102      -61.46354     5279.06445
13657.50000      570.75182        2.86278       80.78867       68.04732        1.91546        1.97740        2.20997      -59.12035     5282.97834
13658.00000      548.61744        2.52951       77.78867       68.17158        1.95950        2.05381        2.45445      -56.78110     5286.89224
13658.50000      526.48306        2.19664       74.36401       68.29288        2.00455        2.13298        2.67734      -54.43791     5290.80613
13659.00000      504.34868        1.86337       72.89630       67.29288        2.05064        2.15481        2.71830      -54.97439     5294.72002
13659.50000      482.21429        1.68095       72.70061       65.54732        2.08979        2.13725        2.61526      -55.51483     5299.02531
13660.00000      478.26173        1.53603       74.33074       64.76034        2.12988        2.15481        2.47079      -58.14599     5302.93920
13660.50000      474.30916        1.39111       75.96284       65.41714        2.13570        2.22732        2.60340      -62.87972     5311.15838
13661.00000      470.35659        1.19723       76.81019       65.38460        2.11868        2.28288        2.81898      -66.66670     5326.42256
13661.50000      466.40402        0.99072       75.83172       65.32543        2.10179        2.26222        2.79982      -63.11640     5341.29535
13662.00000      462.45145        0.78420       74.03720       65.91714        2.09778        2.23665        2.63316      -57.19925     5356.55954
13662.50000      458.49888        0.57808       74.14875       66.27217        2.14601        2.19076        2.37714      -56.54047     5371.43233
13663.00000      456.52260        0.36209       76.51665       66.62720        2.19535        2.14601        2.14601      -59.39254     5386.69652
13663.50000      454.54632        0.13149       78.76714       67.51478        2.20535        2.25175        2.50267      -58.38268     5401.56931
13664.00000      452.57003       -0.09872       76.90804       68.19525        2.10256        2.36292        3.20689      -57.59372     5416.83350
13664.50000      450.59375       -0.32893       74.93740       66.94969        1.98082        2.47934        4.01874      -59.84619     5413.70238
13665.00000      463.00481       -0.18401       74.37771       65.08874        1.86596        2.35841        3.98237      -67.17557     5398.43820
13665.50000      475.41588        0.05488       76.61450       65.08874        1.78920        2.10141        3.09292      -71.00595     5383.56540
13666.00000      487.82694        0.29417       84.14874       66.86389        1.73474        1.87241        2.09207      -70.08682     5368.69261
13666.50000      500.31706        0.53307       91.16048       68.14495        1.68040        1.82203        1.76016      -68.72587     5353.42842
13667.00000      512.72812        0.53307       92.27007       70.20412        1.58253        1.92857        1.78920      -71.13613     5347.16619
13667.50000      525.13918        0.37512       88.84542       70.62424        1.42866        2.04134        2.10907      -74.75348     5354.21120
13668.00000      537.55025        0.11688       81.75148       67.94969        1.27599        2.05736        2.69149      -82.84027     5361.25621
13668.50000      613.20240       -0.23218       74.65755       65.38460        1.13922        2.00710        3.21916      -92.70220     5368.30122
13669.00000      688.85456       -0.58164       75.37575       63.41123        1.05670        1.89588        3.39656      -98.00002     5375.34623
13669.50000      764.50672       -0.67404       77.22311       61.18342        0.98016        1.70673        3.35055     -100.09864     5381.99985
13670.00000      840.23792       -0.70247       79.81019       57.43786        0.90916        1.53645        3.33021     -105.07300     5381.21707
13670.50000      915.89008       -0.73051       81.11548       51.73372        0.84331        1.39630        3.43289     -115.29391     5378.47734
13671.00000      991.54223       -0.73051       81.18788       49.68046        0.78222        1.31773        3.53841     -122.84814     5375.73762
13671.50000     1067.19439       -0.73051       80.87869       48.54437        0.75230        1.24369        3.59876     -119.72389     5372.99789
