~Version ---------------------------------------------------
VERS. 2.0 : CWLS LOG ASCII STANDARD - VERSION 2.0
WRAP. NO  : One line per depth step
DLM . SPACE : Column Data Section Delimiter
~Well ------------------------------------------------------
STRT.F         5380 : START DEPTH
STOP.F      13830.0 : STOP DEPTH
STEP.F          0.5 : STEP
NULL.       -999.25 : NULL VALUE
COMP.                  HILCORP ENERGY CO. : COMPANY
WELL.          212648-SL3306-015-03306-10 : WELL
FLD .                       REDFISH POINT : FIELD
CNTY.                           VERMILION : COUNTY
STAT.                           LOUISIANA : STATE
CTRY.                                 USA : COUNTRY
SEC .                                     : SECTION
TWP .                                     : TOWNSHIP
RGE .                                     : RANGE
LOC . LAT 29*40'57.085"N LONG 92*2'43.95"W : LOCATION
EKB .F                       41 : ELEVATION KELLY BUSHING
EDF .F                       41 : ELEVATION DERRICK FLOOR
EGL .F                          : ELEVATION GROUND LEVEL
PDAT.                       MSL : PERMANENT DATUM
EPD .                           : ELEVATION PERMANENT DATUM
APD .                           : ABOVE PERMANENT DATUM
LMF .                        KB : LOG MEASURED FROM
DMF .                        KB : DRILLING MEASURED FROM
API .            17113217870000 : API NUMBER
UWI .                           : UWI NUMBER
DIGC.                     NthDS : DIGITIZING COMPANY
~Params ----------------------------------------------------
SRVC.               WEATHERFORD : LOGGING COMPANY
LOG .               IND/DEN/NEU : LOG
DATE.                2012-02-05 : RUN DATE
RUN .                         1 : RUN NUMBER
TDD .F                    13805 : TOTAL DEPTH DRILLER
TDL .F                    13822 : TOTAL DEPTH LOGGER
BOTL.F                    13822 : BOTTOM LOGGED INTERVAL
TOPL.F                     5398 : TOP LOGGED INTERVAL
CSGS.IN                         : CASING SIZE
CSGD.F                     5389 : CASING DRILLER
CSGL.F                     5389 : CASING LOGGER
BS  .IN                     8.5 : BIT SIZE
MUD .                 OIL BASED : MUD TYPE
MUDD.                        12 : MUD DENSITY
MUDV.                        72 : MUD VISCOSITY
PH  .                           : MUD PH
FL  .                       2.8 : FLUID LOSS
MUDS.                           : SOURCE OF SAMPLE
RM  .OHMM                       : MUD RESISTIVITY
RMT .DEGF                       : RM TEMPERATURE
RMF .OHMM                       : MUD FILTRATE RESISTIVITY
RMFT.DEGF                       : RMF TEMPERATURE
RMC .OHMM                       : MUD CAKE RESISTIVITY
RMCT.DEGF                       : RMC TEMPERATURE
RMFS.                           : RMF SOURCE
RMCS.                           : RMC SOURCE
RMBH.OHMM                       : MUD RESISTIVITY AT BHT
BHT .DEGF                   237 : BOTTOM HOLE TEMPERATURE
TIMC.                           : TIME CIRCULATION STOPPED
TIML.                           : TIME LOGGER ON BOTTOM
TMAX.DEGF                   237 : MAXIMUM RECORDED TEMPERATURE
UNIT.                     13028 : EQUIPMENT NUMBER
BASE.                      BRSD : BASE LOCATION
ENG .                 F. GUIDRY : RECORDED BY
WIT .             AXXIS LIBERTY : WITNESSED BY
~Curve Information -----------------------------------------
DEPT.F          :DEPTH
AI2R20.OHMM     :
AI2R40.OHMM     :
AI2R85.OHMM     :
DCAL.IN         :
DRHO.G/CC       :
GR.GAPI         :
NPHI.%          :
TENS.LBF        :
~ASCII ------------------------------------------------------
# ...
13781.00000        1.56818        1.53978        1.50322       -0.11905        0.06220       90.23666       36.21302     3594.20215
13781.50000        1.51411        1.50034        1.46084       -0.11905        0.05980       89.05323       36.92308     3593.82047
13782.00000        1.48615        1.46190        1.42628       -0.11905        0.05870       89.94081       37.39646     3593.43879
13782.50000        1.48370        1.44768        1.42810       -0.11905        0.06163       91.71595       37.86983     3593.05711
13783.00000        1.50514        1.46873        1.45325       -0.11905        0.06634       97.04140       37.86983     3592.59909
13783.50000        1.52703        1.49009        1.47870       -0.11905        0.06732       97.33725       36.33137     3592.21741
13784.00000        1.54923        1.51176        1.50473       -0.11905        0.06685       96.15382       36.33137     3591.83572
13784.50000        1.56274        1.52049        1.51010       -0.11905        0.06051       94.67453       36.21302     3593.04449
13785.00000        1.56274        1.51190        1.48452       -0.11905        0.05419       97.04140       36.09468     3595.04849
13785.50000        1.55704        1.49091        1.45923       -0.11905        0.05039       98.22483       36.33137     3597.45011
13786.00000        1.54570        1.46592        1.44345       -0.11905        0.05039       99.70412       36.92308     3599.45411
13786.50000        1.53627        1.47196        1.45365       -0.11905        0.05039       98.52069       37.39646     3601.45810
13787.00000        1.54952        1.47816        1.46391       -0.11905        0.05039       97.04140       38.10651     3603.85972
13787.50000        1.56846        1.48425        1.46927       -0.11905        0.05126       96.15382       38.93492     3605.86372
13788.00000        1.58764        1.49050        1.47344       -0.11905        0.05346       97.04140       39.40829     3608.26533
13788.50000        1.57507        1.50418        1.47775       -0.11905        0.05565       97.63311       38.10651     3610.26933
13789.00000        1.57033        1.52299        1.49391       -0.11905        0.05783       98.22483       36.56805     3612.99222
13789.50000        1.58967        1.54217        1.51854       -0.11905        0.05880       97.04140       35.50296     3614.99621
13790.00000        1.60911        1.56146        1.54344       -0.11905        0.05945       95.26625       35.38462     3617.39783
13790.50000        1.62091        1.57709        1.54853       -0.11905        0.06024       93.19524       35.50296     3619.40183
13791.00000        1.59885        1.55136        1.53304       -0.11905        0.05949       92.30767       35.73965     3621.40582
13791.50000        1.56274        1.50941        1.45790       -0.11905        0.05872       91.71595       35.97634     3623.80744
13792.00000        1.54853        1.46860        1.40686       -0.11905        0.05652       91.95264       36.21302     3625.81144
13792.50000        1.56560        1.46752        1.43937       -0.11905        0.05215       94.31950       36.21302     3628.21305
13793.00000        1.61795        1.49295        1.47937       -0.11905        0.05014        -999.25       35.73965     3630.21705
13793.50000        1.63579        1.49295        1.46431       -0.11905        0.04970        -999.25       35.26628     3632.61866
13794.00000        1.60617        1.46017        1.41757       -0.11905        0.04927        -999.25       33.25444     3634.62266
13794.50000        1.53444        1.40712        1.37246       -0.11905        0.04886        -999.25       33.60947     3636.62666
13795.00000        1.46592        1.35613        1.32877       -0.11905        0.04842        -999.25       34.31953     3639.02827
13795.50000        1.40944        1.30686        1.28648       -0.11905        0.05039        -999.25       36.68640     3641.35355
13796.00000        1.39025        1.27618        1.26549       -0.11905        0.05236        -999.25       39.64498     3643.75516
13796.50000        1.37333        1.27140        1.24987       -0.11905        0.06122        -999.25       40.47338     3645.75916
13797.00000        1.36433        1.26654        1.24565       -0.11905        0.07008        -999.25       40.71006     3648.16077
13797.50000        1.36757        1.27140        1.24895       -0.12103        0.07008        -999.25       39.76332     3650.16477
13798.00000        1.37384        1.27618        1.25227       -0.12302        0.06726        -999.25       39.17160     3652.16877
13798.50000        1.38885        1.28108        1.25674       -0.12500        0.06024        -999.25       39.05326     3654.57038
13799.00000        1.40622        1.28601        1.26561       -0.12699        0.05039        -999.25       38.57989     3656.57438
13799.50000        1.43464        1.29651        1.27455       -0.12897        0.04900        -999.25       38.34320     3658.97599
13800.00000        1.47075        1.32974        1.29332       -0.13095        0.05138        -999.25       38.81657     3658.00947
13800.50000        1.54692        1.43769        1.38938       -0.13334        0.05728        -999.25       39.64498     3657.62778
13801.00000        1.58684        1.52650        1.48824       -0.13532        0.05939        -999.25       40.11835     3657.24610
13801.50000        1.68316        1.59939        1.55630       -0.13730        0.05787        -999.25       40.11835     3656.78808
13802.00000        1.68161        1.58887        1.60145       -0.13929        0.05079        -999.25       40.11835     3656.40640
13802.50000        1.61456        1.55488        1.55089       -0.14127        0.04842        -999.25       40.00000     3656.02472
13803.00000        1.59164        1.51577        1.50194       -0.14365        0.04842        -999.25       39.64498     3655.64304
13803.50000        1.56374        1.47021        1.45319       -0.14564        0.05205        -999.25       39.52663     3655.26136
13804.00000        1.52036        1.43322        1.41378       -0.14762        0.05640        -999.25       39.64498     3654.87967
13804.50000        1.49370        1.39717        1.38176       -0.14961        0.06002        -999.25        -999.25     3654.49799
13805.00000        1.48824        1.38849        1.37544       -0.15159        0.06077        -999.25        -999.25     3654.11631
13805.50000        1.54380        1.41807        1.39359       -0.15357        0.05648        -999.25        -999.25     3653.73463
13806.00000        1.68609        1.53534        1.51577       -0.15595        0.05594        -999.25        -999.25     3653.35295
13806.50000        1.84132        1.66231        1.65274       -0.15794        0.06000        -999.25        -999.25     3652.97126
13807.00000        1.96818        1.77667        1.77131       -0.17738        0.06405        -999.25        -999.25     3652.58958
13807.50000        1.92008        1.79040        1.77131       -0.20873        0.06876        -999.25        -999.25     3652.13156
13808.00000        1.98212        1.80407        1.77131       -0.24008        0.07205        -999.25        -999.25     3651.74988
13808.50000        2.08134        1.91480        1.84876       -0.27778        0.07459        -999.25        -999.25     3651.36820
13809.00000        2.18553        2.03233        2.01915       -0.28254        0.07533        -999.25        -999.25     3650.98652
13809.50000        2.06443        1.99086        2.04560       -0.28730        0.07205        -999.25        -999.25     3650.60484
13810.00000        1.86732        1.75917        2.02230       -0.29207        0.06876        -999.25        -999.25     3650.22315
13810.50000        1.71775        1.58684        1.99396       -0.29683        0.06882        -999.25        -999.25     3649.84147
13811.00000        1.79698        1.92360        2.00459       -0.30159        0.06990        -999.25        -999.25     3649.45979
