~Version ---------------------------------------------------
VERS. 2.0 : CWLS LOG ASCII STANDARD - VERSION 2.0
WRAP. NO  : One line per depth step
DLM . SPACE : Column Data Section Delimiter
~Well ------------------------------------------------------
STRT.F      13770.5 : START DEPTH
STOP.F      16230.0 : STOP DEPTH
STEP.F          0.5 : STEP
NULL.       -999.25 : NULL VALUE
COMP.                  HILCORP ENERGY CO. : COMPANY
WELL.          212648-SL3306-015-03306-10 : WELL
FLD .                       REDFISH POINT : FIELD
CNTY.                           VERMILION : COUNTY
STAT.                           LOUISIANA : STATE
CTRY.                                 USA : COUNTRY
SEC .                                     : SECTION
TWP .                                     : TOWNSHIP
RGE .                                     : RANGE
LOC . LAT 29*40'57.085"N LONG 92*2'43.95"W : LOCATION
EKB .F                       41 : ELEVATION KELLY BUSHING
EDF .F                       41 : ELEVATION DERRICK FLOOR
EGL .F                          : ELEVATION GROUND LEVEL
PDAT.                       MSL : PERMANENT DATUM
EPD .                           : ELEVATION PERMANENT DATUM
APD .                           : ABOVE PERMANENT DATUM
LMF .                        KB : LOG MEASURED FROM
DMF .                        KB : DRILLING MEASURED FROM
API .            17113217870000 : API NUMBER
UWI .                           : UWI NUMBER
DIGC.                     NthDS : DIGITIZING COMPANY
~Params ----------------------------------------------------
SRVC.               WEATHERFORD : LOGGING COMPANY
LOG .                AIT/DSN/SD : LOG
DATE.                2012-02-23 : RUN DATE
RUN .                         1 : RUN NUMBER
TDD .F                    16230 : TOTAL DEPTH DRILLER
TDL .F                    16230 : TOTAL DEPTH LOGGER
BOTL.F                    16220 : BOTTOM LOGGED INTERVAL
TOPL.F                    10000 : TOP LOGGED INTERVAL
CSGS.IN                   7.625 : CASING SIZE
CSGD.F                    13602 : CASING DRILLER
CSGL.F                    13605 : CASING LOGGER
BS  .IN                   6.750 : BIT SIZE
MUD .                       OBM : MUD TYPE
MUDD.                        12 : MUD DENSITY
MUDV.                        56 : MUD VISCOSITY
PH  .                           : MUD PH
FL  .                           : FLUID LOSS
MUDS.                           : SOURCE OF SAMPLE
RM  .OHMM                       : MUD RESISTIVITY
RMT .DEGF                       : RM TEMPERATURE
RMF .OHMM                       : MUD FILTRATE RESISTIVITY
RMFT.DEGF                       : RMF TEMPERATURE
RMC .OHMM                       : MUD CAKE RESISTIVITY
RMCT.DEGF                       : RMC TEMPERATURE
RMFS.                           : RMF SOURCE
RMCS.                           : RMC SOURCE
RMBH.OHMM                       : MUD RESISTIVITY AT BHT
BHT .DEGF                       : BOTTOM HOLE TEMPERATURE
TIMC.                           : TIME CIRCULATION STOPPED
TIML.           0453 2012-02-23 : TIME LOGGER ON BOTTOM
TMAX.DEGF                   272 : MAXIMUM RECORDED TEMPERATURE
UNIT.                      1214 : EQUIPMENT NUMBER
BASE.                NEW IBERIA : BASE LOCATION
ENG .               P. SPOELKER : RECORDED BY
WIT .                 F. GUIDRY : WITNESSED BY
~Curve Information -----------------------------------------
DEPT.F          :DEPTH
AI1R10.OHMM     :
AI1R30.OHMM     :
AI1R60.OHMM     :
DCAL.IN         :
DPHI.%          :
NPHI.%          :
TENS.LBS        :
~ASCII ------------------------------------------------------
# ...
16185.50000        2.21271        2.13374        2.04772       -0.96560        5.48041       29.48041     6723.68686
16186.00000        2.09193        2.04450        1.95502       -0.97240        3.21001       29.14321     6690.79215
16186.50000        2.03941        2.17981        2.09910       -0.97920        0.36001       29.65681     6657.89744
16187.00000        2.24861        2.32386        2.25381       -0.98640       -1.80000       29.69161     6644.73956
16187.50000        2.35349        2.33744        2.27433       -0.99320       -0.36000       29.80321     6644.73956
16188.00000        2.27854        2.26153        2.20190       -1.00000        2.88001       30.07681     6644.73956
16188.50000        2.20597        2.18789        2.13217       -1.00680        4.20001       30.08041     6644.73956
16189.00000        2.13572        2.11684        2.06503       -1.01360        5.91481       29.67961     6648.68692
16189.50000        2.12980        2.07536        2.00000       -1.02080        6.84001       30.28561     6657.89744
16190.00000        2.22030        2.07536        2.00000       -1.02760        7.14001       31.56001     6667.10796
16190.50000        2.17901        2.05246        2.00000       -1.03600        6.24001       30.42001     6676.97637
16191.00000        1.95339        1.94168        1.91635       -1.03520        5.81161       29.28001     6686.18689
16191.50000        1.80423        1.83688        1.81695       -1.02320        5.58841       29.42401     6695.39741
16192.00000        1.87707        1.77346        1.74903       -1.01080        5.55961       31.34401     6704.60793
16192.50000        1.95303        1.85738        1.78993       -0.99880        5.76001       32.80561     6697.37109
16193.00000        1.95429        1.80423        1.83180       -0.98680        6.06001       32.35561     6664.47638
16193.50000        1.70906        1.56532        1.59794       -0.97440        6.51001       32.69161     6625.66063
16194.00000        1.42048        1.35805        1.33935       -0.96240        6.99961       32.98681     6578.95014
16194.50000        1.29023        1.30102        1.28013       -0.95760        7.50001       32.95561     6532.23965
16195.00000        1.33885        1.33144        1.33551       -0.95480        7.73401       32.92441     6484.87127
16195.50000        1.38930        1.36258        1.37067       -0.95200        7.57081       32.89321     6467.10812
16196.00000        1.40741        1.36890        1.31748       -0.94920        7.47001       32.78161     6565.79225
16196.50000        1.38289        1.36890        1.30705       -0.94640        7.62001       32.61841     6689.47636
16197.00000        1.38892        1.36814        1.30705       -0.94360        7.59001       32.58361     6915.13408
16197.50000        1.39510        1.36447        1.30705       -0.94080        7.44001        -999.25     7140.13389
16198.00000        1.40117        1.36069        1.30705       -0.93800        6.75481        -999.25     7365.13371
16198.50000        1.40741        1.35705        1.30705       -0.93520        6.54001        -999.25     7493.42308
16199.00000        1.38802        1.35079        1.30705       -0.93240        6.60001        -999.25     7478.29151
16199.50000        1.36890        1.34381        1.30705       -0.92960        6.60001        -999.25     7462.50205
16200.00000        1.35004        1.33687        1.30705       -0.92680        6.53161        -999.25     7446.71259
16200.50000        1.33786        1.34381        1.33799       -0.96320        6.00001        -999.25     7345.39688
16201.00000        1.37042        1.37524        1.36422       -0.96040        6.05401        -999.25     7286.84430
16201.50000        1.40377        1.40741        1.39110       -0.93520        6.12001        -999.25     7228.94961
16202.00000        1.43793        1.44032        1.41066       -0.90480        7.32001        -999.25     7171.05492
16202.50000        1.47292        1.47401        1.41891       -0.87400        8.06161        -999.25     7113.16023
16203.00000        1.49958        1.47401        1.42522       -0.84320        8.09641        -999.25     7055.26554
16203.50000        1.48963        1.47401        1.43129       -0.80600        8.13841        -999.25     6985.52876
16204.00000        1.47988        1.47401        1.43368       -0.82000        8.33161        -999.25     6973.68666
16204.50000        1.47006        1.47401        1.43368       -0.84480        8.76001        -999.25     6973.68666
16205.00000        1.46044        1.47401        1.43368       -0.87000        9.27481        -999.25     6973.68666
16205.50000        1.46287        1.47401        1.42971       -0.89480        8.96041        -999.25     7006.58137
16206.00000        1.46531        1.47401        1.42311       -0.92000        8.71681        -999.25     7019.73925
16206.50000        1.46775        1.47401        1.41720       -0.95000        8.66161        -999.25     6901.31830
16207.00000        1.47006        1.47101        1.41171       -0.92000        8.59681        -999.25     6855.26570
16207.50000        1.47251        1.46341        1.42601       -0.92280        -999.25        -999.25     6888.16041
16208.00000        1.54376        1.52053        1.52250       -0.92720        -999.25        -999.25     6884.87094
16208.50000        1.77346        1.62641        1.62551       -0.93160        -999.25        -999.25     6826.31836
16209.00000        1.94348        1.69756        1.64700       -0.93600        -999.25        -999.25     6768.42367
16209.50000        1.93487        1.70795        1.64700       -0.94120        -999.25        -999.25     6710.52898
16210.00000        1.92630        1.71857        1.65723       -0.94560        -999.25        -999.25     6710.52898
16210.50000        1.91759        1.73726        1.67433       -0.95040        -999.25        -999.25     6710.52898
16211.00000        1.90910        1.77477        1.69505       -0.95480        -999.25        -999.25     6710.52898
16211.50000        1.90047        1.80656        1.71968       -0.95920        -999.25        -999.25     6698.68688
16212.00000        1.89205        1.85738        1.77346       -0.96480        -999.25        -999.25     6638.81851
16212.50000        1.88298        1.90963        1.82892       -0.97200        -999.25        -999.25     6573.68698
16213.00000        1.87412        1.93505        1.88629       -0.97800        -999.25        -999.25     6547.37121
16213.50000        1.86513        1.92381        1.86685       -0.98440        -999.25        -999.25     6521.05545
16214.00000        1.85618        1.88856        1.79740       -0.99040        -999.25        -999.25     6494.73968
16214.50000        1.84728        1.85395        1.77625       -0.99640        -999.25        -999.25     6468.42391
16215.00000        1.84728        1.85618        1.82470       -0.99720        -999.25        -999.25     6444.08182
16215.50000        1.88228        1.88298        1.87464       -0.98800        -999.25        -999.25     6425.66079
16216.00000        1.91813        1.91016        1.89959       -0.98080        -999.25        -999.25     6409.87133
16216.50000        1.96208        1.94348        1.92987       -0.97320        -999.25        -999.25     6394.08187
16217.00000        1.99926        1.97154        1.93380       -0.96600        -999.25        -999.25     6388.81871
16217.50000        2.03733        2.00000        1.90557       -0.96160        -999.25        -999.25     6423.02921
16218.00000        1.99741        1.95737        -999.25       -0.97000        -999.25        -999.25     6457.89760
16218.50000        1.95809        1.91547        -999.25       -0.98000        -999.25        -999.25     6499.34494
16219.00000        1.93308        1.87464        -999.25       -0.98840        -999.25        -999.25     6489.47652
16219.50000        1.96172        1.91299        -999.25       -0.99680        -999.25        -999.25     6450.00287
