~Version ---------------------------------------------------
VERS. 2.0 : CWLS LOG ASCII STANDARD - VERSION 2.0
WRAP. NO  : One line per depth step
DLM . SPACE : Column Data Section Delimiter
~Well ------------------------------------------------------
STRT.F      13770.5 : START DEPTH
STOP.F      16230.0 : STOP DEPTH
STEP.F          0.5 : STEP
NULL.       -999.25 : NULL VALUE
COMP.                  HILCORP ENERGY CO. : COMPANY
WELL.          212648-SL3306-015-03306-10 : WELL
FLD .                       REDFISH POINT : FIELD
CNTY.                           VERMILION : COUNTY
STAT.                           LOUISIANA : STATE
CTRY.                                 USA : COUNTRY
SEC .                                     : SECTION
TWP .                                     : TOWNSHIP
RGE .                                     : RANGE
LOC . LAT 29*40'57.085"N LONG 92*2'43.95"W : LOCATION
EKB .F                       41 : ELEVATION KELLY BUSHING
EDF .F                       41 : ELEVATION DERRICK FLOOR
EGL .F                          : ELEVATION GROUND LEVEL
PDAT.                       MSL : PERMANENT DATUM
EPD .                           : ELEVATION PERMANENT DATUM
APD .                           : ABOVE PERMANENT DATUM
LMF .                        KB : LOG MEASURED FROM
DMF .                        KB : DRILLING MEASURED FROM
API .            17113217870000 : API NUMBER
UWI .                           : UWI NUMBER
DIGC.                     NthDS : DIGITIZING COMPANY
~Params ----------------------------------------------------
SRVC.               WEATHERFORD : LOGGING COMPANY
LOG .                AIT/DSN/SD : LOG
DATE.                2012-02-23 : RUN DATE
RUN .                         1 : RUN NUMBER
TDD .F                    16230 : TOTAL DEPTH DRILLER
TDL .F                    16230 : TOTAL DEPTH LOGGER
BOTL.F                    16220 : BOTTOM LOGGED INTERVAL
TOPL.F                    10000 : TOP LOGGED INTERVAL
CSGS.IN                   7.625 : CASING SIZE
CSGD.F                    13602 : CASING DRILLER
CSGL.F                    13605 : CASING LOGGER
BS  .IN                   6.750 : BIT SIZE
MUD .                       OBM : MUD TYPE
MUDD.                        12 : MUD DENSITY
MUDV.                        56 : MUD VISCOSITY
PH  .                           : MUD PH
FL  .                           : FLUID LOSS
MUDS.                           : SOURCE OF SAMPLE
RM  .OHMM                       : MUD RESISTIVITY
RMT .DEGF                       : RM TEMPERATURE
RMF .OHMM                       : MUD FILTRATE RESISTIVITY
RMFT.DEGF                       : RMF TEMPERATURE
RMC .OHMM                       : MUD CAKE RESISTIVITY
RMCT.DEGF                       : RMC TEMPERATURE
RMFS.                           : RMF SOURCE
RMCS.                           : RMC SOURCE
RMBH.OHMM                       : MUD RESISTIVITY AT BHT
BHT .DEGF                       : BOTTOM HOLE TEMPERATURE
TIMC.                           : TIME CIRCULATION STOPPED
TIML.           0453 2012-02-23 : TIME LOGGER ON BOTTOM
TMAX.DEGF                   272 : MAXIMUM RECORDED TEMPERATURE
UNIT.                      1214 : EQUIPMENT NUMBER
BASE.                NEW IBERIA : BASE LOCATION
ENG .               P. SPOELKER : RECORDED BY
WIT .                 F. GUIDRY : WITNESSED BY
~Curve Information -----------------------------------------
DEPT.F          :DEPTH
AI1R10.OHMM     :
AI1R30.OHMM     :
AI1R60.OHMM     :
DCAL.IN         :
DPHI.%          :
NPHI.%          :
TENS.LBS        :
~ASCII ------------------------------------------------------
# ...
15875.00000        1.50375        1.43952        1.42904       -0.17240       11.98639       35.26274     7586.18616
15875.50000        1.50083        1.44446        1.40741       -0.16000       11.19914       34.81989     7521.71253
15876.00000        1.49819        1.44566        1.38417       -0.14760       11.10069       34.32064     7457.23890
15876.50000        1.49570        1.44232        1.39059       -0.13480       11.53024       34.02180     7392.76527
15877.00000        1.49321        1.43899        1.39252       -0.12240       11.67060       34.16695     7328.29164
15877.50000        1.49073        1.43567        1.38751       -0.03880       11.61655       34.88090     7266.44958
15878.00000        1.48825        1.43912        1.38264       -0.03760       11.58530       35.34525     7205.92331
15878.50000        1.50528        1.45290        1.39871       -0.03320       11.18685       34.62663     7145.39705
15879.00000        1.52757        1.46680        1.42048       -0.02880       10.31921       36.42778     7084.21289
15879.50000        1.55020        1.48084        1.44259       -0.02480        9.97716       37.52213     7023.68662
15880.00000        1.57330        1.49501        1.45990       -0.02040       10.23031       35.79049     6963.16035
15880.50000        1.58719        1.50932        1.45761       -0.01600       10.62026       34.27124     6890.79199
15881.00000        1.58719        1.52376        1.45518       -0.01200       11.00301       34.93239     6832.23941
15881.50000        1.58719        1.52489        1.45276       -0.00760       11.46279       35.61034     6782.89734
15882.00000        1.58719        1.51701        1.45035       -0.00360       11.84554       34.49790     6733.55527
15882.50000        1.56474        1.50932        1.44793        0.00080       11.88390       34.27585     6684.21321
15883.00000        1.53721        1.50152        1.43103        0.00520       11.22385       34.27700     6642.76587
15883.50000        1.51954        1.46857        1.39962        0.01040       10.29140       33.81495     6631.58167
15884.00000        1.52955        1.44165        1.39445        0.01440        9.79936       33.22331     6620.39747
15884.50000        1.46721        1.41524        1.37588        0.01880       10.12331       33.47046     6609.87116
15885.00000        1.40741        1.38930        1.33034        0.02280       10.44726       34.56121     6598.68696
15885.50000        1.40741        1.37359        1.30535        0.02720       10.88281       37.36316     6587.50276
15886.00000        1.41471        1.39716        1.35805        0.03160       11.33756       38.84390     6582.23961
15886.50000        1.45209        1.42114        1.41301        0.03560       11.20551       40.16528     6600.00275
15887.00000        1.49032        1.44553        1.43182        0.04000       11.60626       38.96644     6617.10800
15887.50000        1.52955        1.45451        1.39445       -0.13520       12.80741       39.56759     6634.21325
15888.00000        1.48963        1.43952        1.35805       -0.31000       13.66536       39.02874     6651.97639
15888.50000        1.50055        1.44539        1.37524       -0.48520       14.00972       38.34589     6669.08164
15889.00000        1.54576        1.46517        1.42931       -0.52000       13.26927       38.18265     6686.18689
15889.50000        1.59248        1.48523        1.47060       -0.52000       12.34282       37.41220     6703.29214
15890.00000        1.62176        1.50709        1.45370       -0.52000       11.65301       38.35895     6721.05528
15890.50000        1.64700        1.60832        1.43700       -0.52000       11.25456       39.48450     6741.45001
15891.00000        2.01243        2.06713        1.66907       -0.51160       11.15611       40.17565     6759.21315
15891.50000        2.26698        1.93630        2.01858       -0.49720       11.69726       39.86480     6776.31840
15892.00000        1.77051        1.62807        1.61681       -0.48280       12.39801       38.48596     6734.87106
15892.50000        1.50583        1.40910        1.38674       -0.50680       13.53916       37.97951     6694.08162
15893.00000        1.52743        1.38853        1.36007       -0.54000       13.63991       38.26026     6652.63429
15893.50000        1.54919        1.41341        1.37906       -0.59560       14.09346       37.61342     6611.84485
15894.00000        1.51926        1.42588        1.38392       -0.68440       14.63462       38.23857     6578.95014
15894.50000        1.45680        1.38763        1.33255       -0.69000       14.14377       38.77852     6578.95014
15895.00000        1.41668        1.35042        1.28309       -0.65240       13.39492       39.49990     6578.95014
15895.50000        1.40741        1.31420        1.27517       -0.61520       13.28207       40.78625     6588.16066
15896.00000        1.37524        1.30705        1.26741       -0.60240       15.99522       38.78700     6599.34486
15896.50000        1.34381        1.30705        1.25958       -0.60640       22.82796       37.40456     6610.52906
15897.00000        1.36258        1.30705        1.28025       -0.61080       28.12973       38.32971     6622.37115
15897.50000        1.38162        1.31080        1.30138       -0.61480       29.07048       39.11086     6633.55536
15898.00000        1.40091        1.32997        1.32273       -0.61880       28.98403       39.83201     6644.73956
15898.50000        1.42048        1.34929        1.33144       -0.62280       28.21718       37.43317     6657.23955
15899.00000        1.40545        1.36890        1.33144       -0.62680       27.78634       38.75431     6669.73954
15899.50000        1.39046        1.36586        1.33144       -0.63120       27.59549       40.07546     6682.89742
15900.00000        1.38609        1.36284        1.33144       -0.63520       27.48001       39.96000     6695.39741
15900.50000        1.39949        1.35931        1.32948       -0.68000       27.33361       38.76001     6776.31840
15901.00000        1.41079        1.35630        1.32628       -0.67160       26.96641       38.04001     6762.50262
15901.50000        1.42219        1.36334        1.32310       -0.66280       26.60041       38.05561     6748.68684
15902.00000        1.43368        1.37029        1.31980       -0.65440       26.23321       39.33001     6734.87106
15902.50000        1.43368        1.37741        1.32298       -0.64600       26.19481       39.26401     6721.71318
15903.00000        1.43368        1.38443        1.32763       -0.63760       26.23681       40.03200     6710.52898
15903.50000        1.43368        1.39162        1.32849       -0.62880       26.28001       39.96000     6710.52898
15904.00000        1.42166        1.37906        1.31420       -0.62040       26.52001       37.16041     6710.52898
15904.50000        1.40975        1.35379        1.29993       -0.61200       26.76001       38.04001     6710.52898
15905.00000        1.39794        1.34555        1.28595       -0.60360       26.76001       39.84000     6710.52898
15905.50000        1.38622        1.34829        1.30705       -0.60360       26.76001       38.84041     6710.52898
15906.00000        1.38225        1.35117        1.33761       -0.61000       26.76001       36.96001     6710.52898
15906.50000        1.38315        1.35404        1.34555       -0.61640       26.97841       36.60001     6710.52898
15907.00000        1.38417        1.35592        1.31919       -0.62240       27.25081       37.92001     6710.52898
15907.50000        1.38507        1.35429        1.32383       -0.63000       27.18001       36.12001     6710.52898
15908.00000        1.38609        1.35267        1.32862       -0.63640       26.76001       38.05321     6724.34476
15908.50000        1.38725        1.35067        1.32530       -0.64000       26.34841       38.92801     6752.63421
15909.00000        1.38828        1.34904        1.31517       -0.64000       26.48041       37.80001     6776.31840
