~Version ---------------------------------------------------
VERS. 2.0 : CWLS LOG ASCII STANDARD - VERSION 2.0
WRAP. NO  : One line per depth step
DLM . SPACE : Column Data Section Delimiter
~Well ------------------------------------------------------
STRT.F      13770.5 : START DEPTH
STOP.F      16230.0 : STOP DEPTH
STEP.F          0.5 : STEP
NULL.       -999.25 : NULL VALUE
COMP.                  HILCORP ENERGY CO. : COMPANY
WELL.          212648-SL3306-015-03306-10 : WELL
FLD .                       REDFISH POINT : FIELD
CNTY.                           VERMILION : COUNTY
STAT.                           LOUISIANA : STATE
CTRY.                                 USA : COUNTRY
SEC .                                     : SECTION
TWP .                                     : TOWNSHIP
RGE .                                     : RANGE
LOC . LAT 29*40'57.085"N LONG 92*2'43.95"W : LOCATION
EKB .F                       41 : ELEVATION KELLY BUSHING
EDF .F                       41 : ELEVATION DERRICK FLOOR
EGL .F                          : ELEVATION GROUND LEVEL
PDAT.                       MSL : PERMANENT DATUM
EPD .                           : ELEVATION PERMANENT DATUM
APD .                           : ABOVE PERMANENT DATUM
LMF .                        KB : LOG MEASURED FROM
DMF .                        KB : DRILLING MEASURED FROM
API .            17113217870000 : API NUMBER
UWI .                           : UWI NUMBER
DIGC.                     NthDS : DIGITIZING COMPANY
~Params ----------------------------------------------------
SRVC.               WEATHERFORD : LOGGING COMPANY
LOG .                AIT/DSN/SD : LOG
DATE.                2012-02-23 : RUN DATE
RUN .                         1 : RUN NUMBER
TDD .F                    16230 : TOTAL DEPTH DRILLER
TDL .F                    16230 : TOTAL DEPTH LOGGER
BOTL.F                    16220 : BOTTOM LOGGED INTERVAL
TOPL.F                    10000 : TOP LOGGED INTERVAL
CSGS.IN                   7.625 : CASING SIZE
CSGD.F                    13602 : CASING DRILLER
CSGL.F                    13605 : CASING LOGGER
BS  .IN                   6.750 : BIT SIZE
MUD .                       OBM : MUD TYPE
MUDD.                        12 : MUD DENSITY
MUDV.                        56 : MUD VISCOSITY
PH  .                           : MUD PH
FL  .                           : FLUID LOSS
MUDS.                           : SOURCE OF SAMPLE
RM  .OHMM                       : MUD RESISTIVITY
RMT .DEGF                       : RM TEMPERATURE
RMF .OHMM                       : MUD FILTRATE RESISTIVITY
RMFT.DEGF                       : RMF TEMPERATURE
RMC .OHMM                       : MUD CAKE RESISTIVITY
RMCT.DEGF                       : RMC TEMPERATURE
RMFS.                           : RMF SOURCE
RMCS.                           : RMC SOURCE
RMBH.OHMM                       : MUD RESISTIVITY AT BHT
BHT .DEGF                       : BOTTOM HOLE TEMPERATURE
TIMC.                           : TIME CIRCULATION STOPPED
TIML.           0453 2012-02-23 : TIME LOGGER ON BOTTOM
TMAX.DEGF                   272 : MAXIMUM RECORDED TEMPERATURE
UNIT.                      1214 : EQUIPMENT NUMBER
BASE.                NEW IBERIA : BASE LOCATION
ENG .               P. SPOELKER : RECORDED BY
WIT .                 F. GUIDRY : WITNESSED BY
~Curve Information -----------------------------------------
DEPT.F          :DEPTH
AI1R10.OHMM     :
AI1R30.OHMM     :
AI1R60.OHMM     :
DCAL.IN         :
DPHI.%          :
NPHI.%          :
TENS.LBS        :
~ASCII ------------------------------------------------------
# ...
15702.50000        1.87846        1.78828        1.74096        0.12840        6.60587       35.32564     6588.16066
15703.00000        1.89784        1.78448        1.73646        0.06840        6.98862       34.17720     6619.73958
15703.50000        1.89398        1.78052        1.73197        0.07000        7.37137       33.63835     6644.73956
15704.00000        1.85549        1.77658        1.72765        0.07160        7.54532       33.90230     6644.73956
15704.50000        1.85532        1.77838        1.73293        0.07320        7.66648       33.43785     6644.73956
15705.00000        1.88594        1.80823        1.75713        0.07480        7.69163       33.88180     6644.73956
15705.50000        1.91175        1.83349        1.77346        0.07640        7.58621       34.93295     6644.73956
15706.00000        1.95918        1.85910        1.77346        0.07840        7.05456       33.61411     6644.73956
15706.50000        2.04092        1.90293        1.82486        0.08000        6.78812       34.45526     6644.73956
15707.00000        2.12626        1.97555        1.89118        0.07720        6.92367       33.85641     6644.73956
15707.50000        2.21497        2.05075        1.96008        0.07480        6.67282       31.76957     6644.73956
15708.00000        2.30737        2.12901        2.03131        0.07200        6.16637       29.31073     6644.73956
15708.50000        2.35262        2.17921        2.08171        0.06960        5.65993       28.81988     6644.73956
15709.00000        2.20047        2.10747        2.07920        0.06680        5.42108       31.05303     6644.73956
15709.50000        2.07613        2.02437        1.98893        0.06440        5.42223       35.51840     6644.73956
15710.00000        2.01448        1.95773        1.91671        0.06160        6.02338       35.76315     6644.73956
15710.50000        1.95465        1.89328        1.84711        0.05880        6.68453       33.86471     6644.73956
15711.00000        1.89661        1.83095        1.78003        0.04000        6.78528       35.84585     6644.73956
15711.50000        1.84029        1.81343        1.74580        0.12000        6.06644       36.30660     6644.73956
15712.00000        1.86599        1.82486        1.75811        0.18680        6.38822       34.63616     6644.73956
15712.50000        1.89205        1.83638        1.77051        0.25120        6.98937       35.47731     6644.73956
15713.00000        1.88124        1.84796        1.78300        0.30680        7.23052       36.19006     6644.73956
15713.50000        1.88454        1.85738        1.79540        0.36240        7.50647       35.85161     6644.73956
15714.00000        1.90346        1.85738        1.81058        0.41760        7.95282       35.72557     6627.63431
15714.50000        1.87256        1.85738        1.82335        0.43160        8.55397       36.46112     6609.87116
15715.00000        1.84233        1.82554        1.80757        0.41720        9.74192       35.19530     6592.76592
15715.50000        1.81242        1.79408        1.79192        0.40280       11.07627       35.91645     6592.10802
15716.00000        1.83349        1.76332        1.77658        0.37600       10.15703       33.93761     6657.89744
15716.50000        1.86772        1.80356        1.80857        0.34600        8.82498       31.23876     6703.95004
15717.00000        1.91848        1.86340        1.85326        0.31000        8.23573       30.03992     6671.05533
15717.50000        1.97464        1.92523        1.89924        0.28000        7.21689       28.84107     6638.16062
15718.00000        2.03263        1.93559        1.90822        0.29240        6.36987       29.15062     6605.26590
15718.50000        1.96535        1.85481        1.85172        0.30520        6.28942       31.72337     6578.95014
15719.00000        1.85738        1.78993        1.80589        0.31760        6.20778       32.99532     6578.95014
15719.50000        1.82638        1.77166        1.76120        0.28000        6.12733       34.26727     6578.95014
15720.00000        1.79590        1.75356        1.71761        0.23000        6.04688       35.53802     6578.95014
15720.50000        1.78993        1.73566        1.71539        0.18000        6.74763       34.96797     6578.95014
15721.00000        1.78993        1.73806        1.72334        0.13000        7.15678       33.16913     6578.95014
15721.50000        1.81964        1.77149        1.75065        0.04000        7.20473       33.14651     6578.95014
15722.00000        1.87031        1.80556        1.78333        0.04000        7.25149       31.82766     6590.13434
15722.50000        1.92239        1.84029        1.81661        0.04000        7.61264       31.25282     6603.29222
15723.00000        1.98673        1.89784        1.85738        0.04000        6.86379       32.06997     6619.73958
15723.50000        2.04205        1.94726        1.89205        0.04000        6.36694       31.41232     6633.55536
15724.00000        2.09891        1.99797        1.92737        0.04000        6.65609       30.47628     6648.02903
15724.50000        2.12744        2.02325        1.96335        0.04000        7.73747       29.54023     6663.81849
15725.00000        2.11195        2.03112        2.00000        0.04000        7.52863       29.45858     6678.95006
15725.50000        2.09678        2.02681        1.94780        0.04000        6.47978       30.81933     6694.73952
15726.00000        2.08151        1.97555        1.89713        0.04000        5.94093       32.22088     6710.52898
15726.50000        2.03188        1.92541        1.84762        0.04000        7.04248       31.52243     6684.21321
15727.00000        1.96117        1.87655        1.79939        0.04000        7.38324       32.60958     6657.89744
15727.50000        1.87967        1.81964        1.74322        0.04000        5.82439       34.14433     6626.31852
15728.00000        1.85515        1.77346        1.73742        0.04000        4.14555       34.04971     6600.00275
15728.50000        1.89275        1.80239        1.75827        0.04000        5.32270       34.23087     6582.89750
15729.00000        1.93130        1.83180        1.77954        0.04000        6.76384       33.60802     6600.66065
15729.50000        1.97044        1.86168        1.80106        0.04000        7.83419       32.92877     6619.08168
15730.00000        2.01057        1.89205        1.82267        0.04000        8.35014       32.83032     6637.50272
15730.50000        1.97427        1.87863        1.83468        0.04000        8.26153       33.61147     6624.34484
15731.00000        1.92026        1.86530        1.80656        0.04000        8.12948       34.39262     6590.13434
15731.50000        1.86772        1.84796        1.77888        0.04000        7.95903       32.76538     6556.58173
15732.00000        1.86168        1.82031        1.74628        0.04000        7.78978       32.76293     6515.13440
15732.50000        1.86599        1.80957        1.75389        0.04000        7.66014       33.09288     6481.58179
15733.00000        1.87031        1.81729        1.77018        0.03720        7.54129       33.31723     6447.37130
15733.50000        1.87464        1.81628        1.78663        0.03400        7.19804       34.45358     6473.68706
15734.00000        1.83468        1.78118        1.76691        0.03160        7.14279       34.62177     6500.00283
15734.50000        1.79540        1.74693        1.73855        0.02880        7.01674       34.76092     6526.31860
15735.00000        1.75713        1.71317        1.71064        0.02600        5.76990       35.56247     6552.63437
15735.50000        1.78448        1.70700        1.68318        0.02360        4.88305       36.54762     6578.95014
15736.00000        1.81208        1.74193        1.71190        0.02080        5.38220       38.27437     6621.71326
15736.50000        1.83638        1.78481        1.76446        0.01800        6.67575       38.09072     6673.02901
