~Version ---------------------------------------------------
VERS. 2.0 : CWLS LOG ASCII STANDARD - VERSION 2.0
WRAP. NO  : One line per depth step
DLM . SPACE : Column Data Section Delimiter
~Well ------------------------------------------------------
STRT.F      13770.5 : START DEPTH
STOP.F      16230.0 : STOP DEPTH
STEP.F          0.5 : STEP
NULL.       -999.25 : NULL VALUE
COMP.                  HILCORP ENERGY CO. : COMPANY
WELL.          212648-SL3306-015-03306-10 : WELL
FLD .                       REDFISH POINT : FIELD
CNTY.                           VERMILION : COUNTY
STAT.                           LOUISIANA : STATE
CTRY.                                 USA : COUNTRY
SEC .                                     : SECTION
TWP .                                     : TOWNSHIP
RGE .                                     : RANGE
LOC . LAT 29*40'57.085"N LONG 92*2'43.95"W : LOCATION
EKB .F                       41 : ELEVATION KELLY BUSHING
EDF .F                       41 : ELEVATION DERRICK FLOOR
EGL .F                          : ELEVATION GROUND LEVEL
PDAT.                       MSL : PERMANENT DATUM
EPD .                           : ELEVATION PERMANENT DATUM
APD .                           : ABOVE PERMANENT DATUM
LMF .                        KB : LOG MEASURED FROM
DMF .                        KB : DRILLING MEASURED FROM
API .            17113217870000 : API NUMBER
UWI .                           : UWI NUMBER
DIGC.                     NthDS : DIGITIZING COMPANY
~Params ----------------------------------------------------
SRVC.               WEATHERFORD : LOGGING COMPANY
LOG .                AIT/DSN/SD : LOG
DATE.                2012-02-23 : RUN DATE
RUN .                         1 : RUN NUMBER
TDD .F                    16230 : TOTAL DEPTH DRILLER
TDL .F                    16230 : TOTAL DEPTH LOGGER
BOTL.F                    16220 : BOTTOM LOGGED INTERVAL
TOPL.F                    10000 : TOP LOGGED INTERVAL
CSGS.IN                   7.625 : CASING SIZE
CSGD.F                    13602 : CASING DRILLER
CSGL.F                    13605 : CASING LOGGER
BS  .IN                   6.750 : BIT SIZE
MUD .                       OBM : MUD TYPE
MUDD.                        12 : MUD DENSITY
MUDV.                        56 : MUD VISCOSITY
PH  .                           : MUD PH
FL  .                           : FLUID LOSS
MUDS.                           : SOURCE OF SAMPLE
RM  .OHMM                       : MUD RESISTIVITY
RMT .DEGF                       : RM TEMPERATURE
RMF .OHMM                       : MUD FILTRATE RESISTIVITY
RMFT.DEGF                       : RMF TEMPERATURE
RMC .OHMM                       : MUD CAKE RESISTIVITY
RMCT.DEGF                       : RMC TEMPERATURE
RMFS.                           : RMF SOURCE
RMCS.                           : RMC SOURCE
RMBH.OHMM                       : MUD RESISTIVITY AT BHT
BHT .DEGF                       : BOTTOM HOLE TEMPERATURE
TIMC.                           : TIME CIRCULATION STOPPED
TIML.           0453 2012-02-23 : TIME LOGGER ON BOTTOM
TMAX.DEGF                   272 : MAXIMUM RECORDED TEMPERATURE
UNIT.                      1214 : EQUIPMENT NUMBER
BASE.                NEW IBERIA : BASE LOCATION
ENG .               P. SPOELKER : RECORDED BY
WIT .                 F. GUIDRY : WITNESSED BY
~Curve Information -----------------------------------------
DEPT.F          :DEPTH
AI1R10.OHMM     :
AI1R30.OHMM     :
AI1R60.OHMM     :
DCAL.IN         :
DPHI.%          :
NPHI.%          :
TENS.LBS        :
~ASCII ------------------------------------------------------
# ...
14426.00000        2.53889        2.26593        2.22729        0.02160        8.38284       25.45514     6101.31894
14426.50000        2.48408        2.29886        2.25548        0.02040        9.70564       24.73316     6080.26633
14427.00000        2.38416        2.33614        2.27643        0.01920       11.13405       25.21117     6059.21372
14427.50000        2.64824        2.46418        2.36527        0.01840       12.56365       25.05438     6037.50321
14428.00000        2.94185        2.73890        2.61176        0.01720       11.07727       25.42318     6016.45059
14428.50000        2.68871        2.54171        2.47400        0.01600        7.92530       26.86119     5995.39798
14429.00000        2.40364        2.35894        2.25548        0.01480        5.82332       28.29919     6003.95060
14429.50000        2.38968        2.26070        2.23761        0.01360        5.70133       29.50439     6032.89795
14430.00000        2.34480        2.27391        2.23183        0.01280        6.23934       30.35920     6061.18740
14430.50000        2.28065        2.22647        2.17357        0.01160        5.81735       30.05721     6090.13474
14431.00000        2.28339        2.23059        2.23183        0.01040        4.57897       29.75522     6118.42419
14431.50000        2.33097        2.25131        2.22605        0.00920        3.61698       31.85322     6184.21361
14432.00000        2.28910        2.22009        2.17780        0.00840        3.27060       34.31122     6250.00303
14432.50000        2.22647        2.17639        2.13059        0.00720        3.33581       32.64724     6250.00303
14433.00000        2.18708        2.13374        2.08440        0.00600        3.41542       30.98446     6250.00303
14433.50000        2.41679        2.39742        2.31893        0.00480        3.43023       28.78528     6250.00303
14434.00000        2.75924        2.64188        2.59107        0.00360        3.34304       26.40490     6246.71356
14434.50000        3.15021        2.91127        2.82743        0.00240        3.28945       24.43972     6232.23989
14435.00000        3.13683        3.10308        3.00064        0.00120        3.63066       22.37975     6217.10832
14435.50000        2.97660        2.89516        2.84868        0.00040        4.86226       22.17736     6201.97676
14436.00000        2.79855        2.70117        2.70692        0.00000        5.73506       23.57576     6187.50309
14436.50000        2.63140        2.52018        2.57364        0.00000        5.73308       25.23336     6210.52938
14437.00000        2.59107        2.52999        2.49698        0.00000        5.73109       27.93136     6243.42409
14437.50000        2.63140        2.53960        2.49698        0.00000        5.41350       29.00936     6276.31880
14438.00000        2.71997        2.63188        2.62605        0.00000        4.88711       27.58298     6309.21351
14438.50000        2.82403        2.78616        2.76204        0.00000        4.35952       25.40500     6315.79245
14439.00000        2.93207        2.94920        2.87382        0.00000        3.95554       23.20343     6315.79245
14439.50000        2.93560        2.87435        2.83449        0.00000        3.73515       24.44103     6315.79245
14440.00000        2.90186        2.81959        2.80477        0.00000        3.76436       26.53903     6315.79245
14440.50000        2.91881        2.83843        2.84211        0.00000        4.79196       28.63703     6315.79245
14441.00000        2.78719        2.70542        2.69867        0.00000        6.59476       29.88783     6315.79245
14441.50000        2.62726        2.54359        2.51389        0.00000        7.46517       30.15344     6315.79245
14442.00000        2.44737        2.36221        2.30887        0.00000        6.97118       29.99065     6315.79245
14442.50000        2.39144        2.40809        2.30951        0.00000        6.06920       29.46906     6315.79245
14443.00000        2.46646        2.45508        2.35132        0.00000        5.28721       30.06707     6315.79245
14443.50000        2.54359        2.46600        2.39388        0.00000        4.86483       29.52508     6315.79245
14444.00000        2.57364        2.45259        2.42530        0.00000        5.98243       28.98310     6315.79245
14444.50000        2.53069        2.43924        2.40853        0.00000        6.75684       29.12751     6313.16088
14445.00000        2.49883        2.43113        2.39189        0.00000        6.89885       28.59272     6309.21351
14445.50000        2.50855        2.44376        2.37536        0.00000        6.32086       29.04553     6305.92404
14446.00000        2.51831        2.45622        2.36112        0.00000        4.94488       29.73473     6301.97668
14446.50000        2.49122        2.46897        2.35523        0.00000        3.29290       28.73315     6298.02931
14447.00000        2.45554        2.44263        2.34958        0.00000        4.15130       28.31836     6294.08195
14447.50000        2.42037        2.39100        2.34393        0.00000        5.39851       28.78197     6290.13458
14448.00000        2.43608        2.34047        2.35001        0.00000        6.64691       28.48718     6286.18722
14448.50000        2.48684        2.41366        2.37448        0.00000        5.70173       28.10119     6282.23985
14449.00000        2.57507        2.48937        2.39897        0.00000        5.09734       28.13640     6278.29249
14449.50000        2.58198        2.56722        2.42373        0.00000        4.72095       27.86802     6274.34512
14450.00000        2.52741        2.47652        2.39299        0.00000        4.59432       27.05139     6270.39775
14450.50000        2.48317        2.42530        2.31893       -0.12000        4.28753       26.21781     6200.00307
14451.00000        2.64922        2.53092        2.51436       -0.12000        3.83555       25.97542     6196.05571
14451.50000        2.78152        2.64139        2.61514       -0.12000        3.83356       25.47303     6192.10834
14452.00000        2.73890        2.62799        2.55538       -0.12000        3.83157       24.74625     6188.16098
14452.50000        2.69693        2.58342        2.49698       -0.12000        4.19918       24.03746     6184.21361
14453.00000        2.65584        2.53983        2.45826       -0.12000        4.56558       23.80747     6209.21359
14453.50000        2.63944        2.49698        2.43203       -0.12000        4.72559       23.95548     6234.87147
14454.00000        2.63944        2.51482        2.40631       -0.12000        4.57361       24.10349     6250.00303
14454.50000        2.63944        2.53279        2.40631       -0.12000        4.42162       25.66149     6250.00303
14455.00000        2.63944        2.52905        2.40631       -0.12000        4.89923       24.69951     6250.00303
14455.50000        2.57055        2.49260        2.40631       -0.12000        4.89724       25.27352     6250.00303
14456.00000        2.51320        2.45690        2.40319       -0.12000        4.29525       25.22713     6250.00303
14456.50000        2.49606        2.42574        2.38725       -0.12000        4.29326       25.48194     6250.00303
14457.00000        2.47904        2.41121        2.37162       -0.12000        4.95847       25.73675     6250.00303
14457.50000        2.46213        2.39676        2.35589       -0.12000        5.47247       26.27955     6250.00303
14458.00000        2.44534        2.38217        2.34047       -0.12000        5.38409       27.25316     6250.00303
14458.50000        2.42866        2.36790        2.31250       -0.12000        4.69330       27.09637     6250.00303
14459.00000        2.38592        2.33161        2.28508       -0.12000        4.38651       26.65758     6254.60829
14459.50000        2.34372        2.28149        2.25777       -0.12000        4.23332       26.90159     6266.45039
14460.00000        2.29333        2.23224        2.23079       -0.12000        4.31893       27.71920     6278.29249
