~Version ---------------------------------------------------
VERS. 2.0 : CWLS LOG ASCII STANDARD - VERSION 2.0
WRAP. NO  : One line per depth step
DLM . SPACE : Column Data Section Delimiter
~Well ------------------------------------------------------
STRT.F      13770.5 : START DEPTH
STOP.F      16230.0 : STOP DEPTH
STEP.F          0.5 : STEP
NULL.       -999.25 : NULL VALUE
COMP.                  HILCORP ENERGY CO. : COMPANY
WELL.          212648-SL3306-015-03306-10 : WELL
FLD .                       REDFISH POINT : FIELD
CNTY.                           VERMILION : COUNTY
STAT.                           LOUISIANA : STATE
CTRY.                                 USA : COUNTRY
SEC .                                     : SECTION
TWP .                                     : TOWNSHIP
RGE .                                     : RANGE
LOC . LAT 29*40'57.085"N LONG 92*2'43.95"W : LOCATION
EKB .F                       41 : ELEVATION KELLY BUSHING
EDF .F                       41 : ELEVATION DERRICK FLOOR
EGL .F                          : ELEVATION GROUND LEVEL
PDAT.                       MSL : PERMANENT DATUM
EPD .                           : ELEVATION PERMANENT DATUM
APD .                           : ABOVE PERMANENT DATUM
LMF .                        KB : LOG MEASURED FROM
DMF .                        KB : DRILLING MEASURED FROM
API .            17113217870000 : API NUMBER
UWI .                           : UWI NUMBER
DIGC.                     NthDS : DIGITIZING COMPANY
~Params ----------------------------------------------------
SRVC.               WEATHERFORD : LOGGING COMPANY
LOG .                AIT/DSN/SD : LOG
DATE.                2012-02-23 : RUN DATE
RUN .                         1 : RUN NUMBER
TDD .F                    16230 : TOTAL DEPTH DRILLER
TDL .F                    16230 : TOTAL DEPTH LOGGER
BOTL.F                    16220 : BOTTOM LOGGED INTERVAL
TOPL.F                    10000 : TOP LOGGED INTERVAL
CSGS.IN                   7.625 : CASING SIZE
CSGD.F                    13602 : CASING DRILLER
CSGL.F                    13605 : CASING LOGGER
BS  .IN                   6.750 : BIT SIZE
MUD .                       OBM : MUD TYPE
MUDD.                        12 : MUD DENSITY
MUDV.                        56 : MUD VISCOSITY
PH  .                           : MUD PH
FL  .                           : FLUID LOSS
MUDS.                           : SOURCE OF SAMPLE
RM  .OHMM                       : MUD RESISTIVITY
RMT .DEGF                       : RM TEMPERATURE
RMF .OHMM                       : MUD FILTRATE RESISTIVITY
RMFT.DEGF                       : RMF TEMPERATURE
RMC .OHMM                       : MUD CAKE RESISTIVITY
RMCT.DEGF                       : RMC TEMPERATURE
RMFS.                           : RMF SOURCE
RMCS.                           : RMC SOURCE
RMBH.OHMM                       : MUD RESISTIVITY AT BHT
BHT .DEGF                       : BOTTOM HOLE TEMPERATURE
TIMC.                           : TIME CIRCULATION STOPPED
TIML.           0453 2012-02-23 : TIME LOGGER ON BOTTOM
TMAX.DEGF                   272 : MAXIMUM RECORDED TEMPERATURE
UNIT.                      1214 : EQUIPMENT NUMBER
BASE.                NEW IBERIA : BASE LOCATION
ENG .               P. SPOELKER : RECORDED BY
WIT .                 F. GUIDRY : WITNESSED BY
~Curve Information -----------------------------------------
DEPT.F          :DEPTH
AI1R10.OHMM     :
AI1R30.OHMM     :
AI1R60.OHMM     :
DCAL.IN         :
DPHI.%          :
NPHI.%          :
TENS.LBS        :
~ASCII ------------------------------------------------------
# ...
14288.00000        0.26733        0.25911        0.24970       -0.12000       25.63539       26.30739     6045.39794
14288.50000        0.32953        0.31904        0.32424       -0.10000       25.81340       25.55540     6097.37158
14289.00000        0.49752        0.43812        0.51684       -0.08000       24.26342       26.60340     6129.60840
14289.50000        0.77680        0.70864        0.77393       -0.08680       19.28146       27.92141     6147.37154
14290.00000        0.73446        0.79408        0.64527       -0.09320       15.43949       28.51941     6165.79258
14290.50000        0.49702        0.51313        0.43001       -0.10000       13.63751       29.11742     6184.21361
14291.00000        0.53548        0.46664        0.44481       -0.10680       14.75511       29.71543     6118.42419
14291.50000        0.63053        0.53301        0.51365       -0.11320       16.32152       29.79384     6052.63477
14292.00000        0.66545        0.55524        0.49500       -0.12000       16.09153       27.79146     5986.84535
14292.50000        0.61880        0.51603        0.47702       -0.12720       14.90994       26.63748     6052.63477
14293.00000        0.52116        0.47959        0.39080       -0.13440       16.38755       25.93469     6118.42419
14293.50000        0.41995        0.39414        0.32013       -0.14160       18.85754       23.99831     6184.21361
14294.00000        0.36933        0.31412        0.26227       -0.14840       21.78354       23.46353     6176.31888
14294.50000        0.37094        0.31261        0.27900       -0.15560       23.30914       23.06194     6169.08205
14295.00000        0.45463        0.36079        0.31683       -0.16120       22.54275       22.43115     6161.18732
14295.50000        0.50611        0.37335        0.32953       -0.16480       21.77757       21.74277     6153.29259
14296.00000        0.46337        0.34869        0.30043       -0.16840       21.77558       21.05558     6146.05575
14296.50000        0.39283        0.31143        0.28508       -0.17160       21.82639       21.35359     6138.16102
14297.00000        0.41142        0.30745        0.28450       -0.17520       21.89160       21.65160     6130.92418
14297.50000        0.41252        0.31496        0.27306       -0.17880       21.36401       21.58241     6123.02945
14298.00000        0.40763        0.30856        0.27099       -0.18200       21.18802       21.55402     6120.39788
14298.50000        0.42692        0.31149        0.28279       -0.18560       21.53523       21.68523     6125.66103
14299.00000        0.44712        0.32078        0.29514       -0.18880       21.88364       21.57164     6131.58208
14299.50000        0.45936        0.32822        0.29269       -0.19240       22.24125       20.99326     6136.84523
14300.00000        0.43691        0.33259        0.28661       -0.19600       22.43942       21.44463     6142.10839
14300.50000        0.40763        0.31651        0.27473       -0.16000       22.43743       22.22743     6214.47675
14301.00000        0.36146        0.30603        0.25469       -0.14480       22.45944       22.37544     6219.73990
14301.50000        0.30043        0.25102        0.23018       -0.12920       22.37345       22.52345     6225.00305
14302.00000        0.30603        0.25368        0.22347       -0.11400       21.47147       23.15146     6230.26621
14302.50000        0.37383        0.29465        0.26887       -0.09840       20.38948       23.89946     6236.18726
14303.00000        0.48512        0.34227        0.32349       -0.08320       18.90790       24.79747     6241.45041
14303.50000        0.62954        0.39754        0.36441       -0.06760       19.90551       25.91987     6246.71356
14304.00000        0.66441        0.43089        0.39283       -0.05240       23.93189       24.87749     6226.97674
14304.50000        0.60746        0.41100        0.36370       -0.04000       25.63149       23.29391     6169.73994
14305.00000        0.51603        0.35592        0.32689       -0.04000       25.59110       23.24872     6112.50315
14305.50000        0.41428        0.31625        0.29167       -0.04000       25.46312       24.22832     6055.26635
14306.00000        0.36627        0.29196        0.26024       -0.04000       25.27753       24.84553     5998.02955
14306.50000        0.35320        0.27815        0.24970       -0.04000       25.09074       24.91794     5990.13482
14307.00000        0.37421        0.30043        0.26394       -0.04000       24.89195       25.67795     5994.74008
14307.50000        0.40526        0.31175        0.28540       -0.04000       24.68956       26.60955     6000.00324
14308.00000        0.45232        0.35111        0.31972       -0.04240       23.88718       25.90797     6003.95060
14308.50000        0.53084        0.39542        0.35813       -0.04480       19.96561       26.72557     6008.55586
14309.00000        0.64426        0.44535        0.40478       -0.04760       15.47325       27.38358     6012.50323
14309.50000        0.78191        0.50159        0.45745       -0.05040       13.28127       28.14559     6017.10849
14310.00000        0.92148        0.57160        0.51703       -0.05320       14.26928       29.11919     6021.71375
14310.50000        0.96036        0.65326        0.55161       -0.05600       20.83725       26.88881     6025.66111
14311.00000        0.87619        0.65411        0.55653       -0.05880       24.13524       24.65844     6030.26637
14311.50000        0.75394        0.61231        0.52324       -0.06160       24.61925       22.94886     6034.21374
14312.00000        0.64875        0.55895        0.47981       -0.06440       24.39886       23.32126     6038.81899
14312.50000        0.55823        0.51029        0.43995       -0.06720       23.82927       23.69487     6043.42425
14313.00000        0.49194        0.46582        0.40343       -0.07040       23.82728       24.06728     6047.37162
14313.50000        0.47702        0.42523        0.37094       -0.07320       23.59969       23.93929     6051.97688
14314.00000        0.44758        0.38817        0.34132       -0.07600       23.22331       23.81010     6052.63477
14314.50000        0.39080        0.34798        0.31319       -0.07880       23.07132       23.68211     6052.63477
14315.00000        0.36971        0.31883        0.29221       -0.08120       22.94453       23.60212     6052.63477
14315.50000        0.35483        0.29648        0.27389       -0.08400       22.85734       23.71173     6052.63477
14316.00000        0.34474        0.27569        0.26151       -0.08680       22.77015       23.82254     6052.63477
14316.50000        0.33880        0.26091        0.25102       -0.08960       22.79296       23.93335     6052.63477
14317.00000        0.34195        0.25347        0.24610       -0.09240       22.77057       23.77137     6052.63477
14317.50000        0.39575        0.29113        0.26780       -0.09520       22.36899       23.82938     6052.63477
14318.00000        0.46311        0.34865        0.30162       -0.09800       23.42899       24.17659     6052.63477
14318.50000        0.54800        0.37276        0.32529       -0.10080       24.48779       24.52499     6052.63477
14319.00000        0.56082        0.37856        0.32953       -0.10360       24.85060       23.75981     6052.63477
14319.50000        0.50424        0.35157        0.30982       -0.10640       24.16942       22.99342     6052.63477
14320.00000        0.46427        0.32052        0.28685       -0.10880       23.48703       23.24343     6052.63477
14320.50000        0.42747        0.30282        0.26558       -0.11160       23.41304       23.74664     6052.63477
14321.00000        0.40436        0.29528        0.25672       -0.11440       23.82505       24.24985     6052.63477
14321.50000        0.43041        0.29733        0.26314       -0.11720       23.59746       24.75305     6052.63477
14322.00000        0.49651        0.32853        0.28225       -0.12000       23.79107       23.47547     6052.63477
