~Version ---------------------------------------------------
VERS. 2.0 : CWLS LOG ASCII STANDARD - VERSION 2.0
WRAP. NO  : One line per depth step
DLM . SPACE : Column Data Section Delimiter
~Well ------------------------------------------------------
STRT.F      13770.5 : START DEPTH
STOP.F      16230.0 : STOP DEPTH
STEP.F          0.5 : STEP
NULL.       -999.25 : NULL VALUE
COMP.                  HILCORP ENERGY CO. : COMPANY
WELL.          212648-SL3306-015-03306-10 : WELL
FLD .                       REDFISH POINT : FIELD
CNTY.                           VERMILION : COUNTY
STAT.                           LOUISIANA : STATE
CTRY.                                 USA : COUNTRY
SEC .                                     : SECTION
TWP .                                     : TOWNSHIP
RGE .                                     : RANGE
LOC . LAT 29*40'57.085"N LONG 92*2'43.95"W : LOCATION
EKB .F                       41 : ELEVATION KELLY BUSHING
EDF .F                       41 : ELEVATION DERRICK FLOOR
EGL .F                          : ELEVATION GROUND LEVEL
PDAT.                       MSL : PERMANENT DATUM
EPD .                           : ELEVATION PERMANENT DATUM
APD .                           : ABOVE PERMANENT DATUM
LMF .                        KB : LOG MEASURED FROM
DMF .                        KB : DRILLING MEASURED FROM
API .            17113217870000 : API NUMBER
UWI .                           : UWI NUMBER
DIGC.                     NthDS : DIGITIZING COMPANY
~Params ----------------------------------------------------
SRVC.               WEATHERFORD : LOGGING COMPANY
LOG .                AIT/DSN/SD : LOG
DATE.                2012-02-23 : RUN DATE
RUN .                         1 : RUN NUMBER
TDD .F                    16230 : TOTAL DEPTH DRILLER
TDL .F                    16230 : TOTAL DEPTH LOGGER
BOTL.F                    16220 : BOTTOM LOGGED INTERVAL
TOPL.F                    10000 : TOP LOGGED INTERVAL
CSGS.IN                   7.625 : CASING SIZE
CSGD.F                    13602 : CASING DRILLER
CSGL.F                    13605 : CASING LOGGER
BS  .IN                   6.750 : BIT SIZE
MUD .                       OBM : MUD TYPE
MUDD.                        12 : MUD DENSITY
MUDV.                        56 : MUD VISCOSITY
PH  .                           : MUD PH
FL  .                           : FLUID LOSS
MUDS.                           : SOURCE OF SAMPLE
RM  .OHMM                       : MUD RESISTIVITY
RMT .DEGF                       : RM TEMPERATURE
RMF .OHMM                       : MUD FILTRATE RESISTIVITY
RMFT.DEGF                       : RMF TEMPERATURE
RMC .OHMM                       : MUD CAKE RESISTIVITY
RMCT.DEGF                       : RMC TEMPERATURE
RMFS.                           : RMF SOURCE
RMCS.                           : RMC SOURCE
RMBH.OHMM                       : MUD RESISTIVITY AT BHT
BHT .DEGF                       : BOTTOM HOLE TEMPERATURE
TIMC.                           : TIME CIRCULATION STOPPED
TIML.           0453 2012-02-23 : TIME LOGGER ON BOTTOM
TMAX.DEGF                   272 : MAXIMUM RECORDED TEMPERATURE
UNIT.                      1214 : EQUIPMENT NUMBER
BASE.                NEW IBERIA : BASE LOCATION
ENG .               P. SPOELKER : RECORDED BY
WIT .                 F. GUIDRY : WITNESSED BY
~Curve Information -----------------------------------------
DEPT.F          :DEPTH
AI1R10.OHMM     :
AI1R30.OHMM     :
AI1R60.OHMM     :
DCAL.IN         :
DPHI.%          :
NPHI.%          :
TENS.LBS        :
~ASCII ------------------------------------------------------
# ...
16013.00000        1.60430        1.51547        1.48495       -0.53720       12.60001       37.95961     6605.92380
16013.50000        1.62792        1.54205        1.51267       -0.46120       10.54321       38.76001     6663.81849
16014.00000        1.63940        1.54791        1.51547       -0.31480        8.88001       40.80000     6705.92372
16014.50000        1.60193        1.52278        1.48084       -0.16800        8.04001       41.52000     6684.21321
16015.00000        1.56967        1.49792        1.44700       -0.08040        8.04001       39.62041     6662.50270
16015.50000        1.54091        1.47360        1.41393       -0.08160        8.31721       37.71961     6640.13430
16016.00000        1.52955        1.44954        1.39445       -0.08280        9.00961       37.81561     6618.42379
16016.50000        1.52955        1.42601        1.39445       -0.08400        9.70201       39.24001     6596.71328
16017.00000        1.49363        1.42482        1.36574       -0.08560        8.64001       38.40001     6578.95014
16017.50000        1.53963        1.46952        1.41393       -0.08680        6.36001       38.40001     6578.95014
16018.00000        1.60727        1.51547        1.46382       -0.08800        4.94401       37.06681     6578.95014
16018.50000        1.67774        1.56286        1.51547       -0.08920        5.98441       36.15961     6578.95014
16019.00000        1.61189        1.53806        1.49944       -0.09040        8.31001       37.45681     6578.95014
16019.50000        1.52715        1.49598        1.42153       -0.09160        9.90001       38.60521     6600.66065
16020.00000        1.44700        1.45505        1.34767       -0.09320       10.53001       37.83481     6637.50272
16020.50000        1.51547        1.42706        1.36258       -0.09440       10.45441       37.52041     6673.68690
16021.00000        1.51085        1.40260        1.38162       -0.09560       10.26001       36.72001     6710.52898
16021.50000        1.42838        1.37843        1.31919       -0.09680        9.81001       35.43961     6693.42373
16022.00000        1.46857        1.39703        1.36158       -0.09800        8.34001       34.38601     6675.66058
16022.50000        1.50960        1.44526        1.40533       -0.09920        7.10401       32.96761     6658.55534
16023.00000        1.55092        1.49501        1.45048       -0.10040        6.72001       32.76001     6646.71324
16023.50000        1.59336        1.51547        1.48536       -0.10160        6.90001       33.00001     6655.92376
16024.00000        1.57258        1.50222        1.47401       -0.10280        7.80001       34.47241     6665.13428
16024.50000        1.53664        1.46965        1.42706       -0.10400        7.87201       36.92761     6675.00269
16025.00000        1.48770        1.43793        1.38162       -0.10520        7.39201       38.01601     6684.21321
16025.50000        1.48770        1.40676        1.38162       -0.10640        7.66801       37.86001     6693.42373
16026.00000        1.48770        1.40494        1.38162       -0.10760        8.44801       36.69601     6703.29214
16026.50000        1.48770        1.42245        1.38699       -0.10880        8.64001       34.05601     6710.52898
16027.00000        1.48770        1.44032        1.39226       -0.11000        9.00001       33.72001     6710.52898
16027.50000        1.53423        1.45842        1.39794       -0.11160       10.44001       35.26321     6710.52898
16028.00000        1.56721        1.47660        1.40390       -0.11280       12.81601       36.69361     6710.52898
16028.50000        1.54020        1.48221        1.40741       -0.11400       13.59001       37.82641     6710.52898
16029.00000        1.52955        1.46857        1.40741       -0.11520       13.08001       39.18001     6710.52898
16029.50000        1.52955        1.45505        1.40741       -0.11640       12.48001       40.68000     6710.52898
16030.00000        1.52955        1.45370        1.40741       -0.11760       11.70001       39.76800     6710.52898
16030.50000        1.54020        1.47060        1.42706       -0.11880       11.13601       38.33401     6710.52898
16031.00000        1.56721        1.48770        1.46044       -0.12000       11.36041       37.62601     6710.52898
16031.50000        1.57258        1.51828        1.47401       -0.42000       11.89321       37.32001     6710.52898
16032.00000        1.59013        1.54948        1.48372       -0.72000       11.32801       37.62001     6683.55532
16032.50000        1.63486        1.58133        1.53366       -0.60000        9.21601       36.81601     6638.81851
16033.00000        1.68085        1.61383        1.58513       -0.48000        8.64001       35.82001     6594.08170
16033.50000        1.68333        1.63728        1.59735       -0.58920        8.91001       35.20321     6549.34490
16034.00000        1.64152        1.58983        1.56532       -0.68000        9.36001       36.02161     6520.39755
16034.50000        1.60060        1.54376        1.53394       -0.68000        9.84001       36.84001     6554.60805
16035.00000        1.56070        1.49903        1.50305       -0.60000        8.83201       39.24001     6589.47644
16035.50000        1.52109        1.45559        1.47251       -0.40000        8.16001       39.70200     6623.68694
16036.00000        1.47947        1.41327        1.44259       -0.45320        8.80561       40.16280     6644.73956
16036.50000        1.44700        1.37232        1.41314       -0.57000        9.45241       39.93360     6644.73956
16037.00000        1.44700        1.35630        1.39936       -0.62800        9.39481       38.66641     6644.73956
16037.50000        1.44700        1.35630        1.38956       -0.59840        8.28001       37.26001     6644.73956
16038.00000        1.44259        1.35630        1.38302       -0.56880        7.21801       35.76001     6644.73956
16038.50000        1.42048        1.36637        1.39020       -0.53920        6.15721       36.36001     6644.73956
16039.00000        1.46206        1.39187        1.40571       -0.50960        5.88001       36.96001     6644.73956
16039.50000        1.48922        1.41786        1.43447       -0.48000        7.35961       37.48801     6648.02903
16040.00000        1.49308        1.44700        1.46382       -0.54240        9.22681       37.72801     6653.95008
16040.50000        1.49695        1.48084        1.49142       -0.60520        9.60001       37.65001     6659.21323
16041.00000        1.50069        1.51547        1.51044       -0.66760        9.72001       36.30001     6665.13428
16041.50000        1.59705        1.58352        1.52955       -0.81720       10.02001       35.40001     6671.05533
16042.00000        1.72494        1.67774        1.64137       -0.92000       10.32001       32.85001     6676.31848
16042.50000        1.86306        1.78250        1.76136       -0.92000       10.11601       29.88001     6682.23953
16043.00000        2.01858        1.91440        1.89013       -0.92000        9.57601       28.98001     6688.16057
16043.50000        2.05892        2.05626        1.98159       -0.92000        9.25681       29.56801     6693.42373
16044.00000        2.24777        2.20863        2.08498       -0.92000        8.98921       29.76001     6699.34478
16044.50000        2.56722        2.37206        2.34047       -0.92000        8.33401       29.23201     6704.60793
16045.00000        2.56722        2.37689        2.31893       -0.92000        7.68001       28.57201     6710.52898
16045.50000        2.27643        2.22050        2.08981       -0.91760        8.54161       29.82001     6721.71318
16046.00000        2.02793        2.00277        1.88333       -0.91320        9.57841       30.92281     6732.23949
16046.50000        1.98159        1.80656        1.77346       -0.90920       10.02601       29.53801     6743.42369
16047.00000        2.38416        2.06579        1.94528       -0.90480        9.58921       28.15441     6754.60789
