~Version ---------------------------------------------------
VERS. 2.0 : CWLS LOG ASCII STANDARD - VERSION 2.0
WRAP. NO  : One line per depth step
DLM . SPACE : Column Data Section Delimiter
~Well ------------------------------------------------------
STRT.F         5380 : START DEPTH
STOP.F      13830.0 : STOP DEPTH
STEP.F          0.5 : STEP
NULL.       -999.25 : NULL VALUE
COMP.                  HILCORP ENERGY CO. : COMPANY
WELL.          212648-SL3306-015-03306-10 : WELL
FLD .                       REDFISH POINT : FIELD
CNTY.                           VERMILION : COUNTY
STAT.                           LOUISIANA : STATE
CTRY.                                 USA : COUNTRY
SEC .                                     : SECTION
TWP .                                     : TOWNSHIP
RGE .                                     : RANGE
LOC . LAT 29*40'57.085"N LONG 92*2'43.95"W : LOCATION
EKB .F                       41 : ELEVATION KELLY BUSHING
EDF .F                       41 : ELEVATION DERRICK FLOOR
EGL .F                          : ELEVATION GROUND LEVEL
PDAT.                       MSL : PERMANENT DATUM
EPD .                           : ELEVATION PERMANENT DATUM
APD .                           : ABOVE PERMANENT DATUM
LMF .                        KB : LOG MEASURED FROM
DMF .                        KB : DRILLING MEASURED FROM
API .            17113217870000 : API NUMBER
UWI .                           : UWI NUMBER
DIGC.                     NthDS : DIGITIZING COMPANY
~Params ----------------------------------------------------
SRVC.               WEATHERFORD : LOGGING COMPANY
LOG .               IND/DEN/NEU : LOG
DATE.                2012-02-05 : RUN DATE
RUN .                         1 : RUN NUMBER
TDD .F                    13805 : TOTAL DEPTH DRILLER
TDL .F                    13822 : TOTAL DEPTH LOGGER
BOTL.F                    13822 : BOTTOM LOGGED INTERVAL
TOPL.F                     5398 : TOP LOGGED INTERVAL
CSGS.IN                         : CASING SIZE
CSGD.F                     5389 : CASING DRILLER
CSGL.F                     5389 : CASING LOGGER
BS  .IN                     8.5 : BIT SIZE
MUD .                 OIL BASED : MUD TYPE
MUDD.                        12 : MUD DENSITY
MUDV.                        72 : MUD VISCOSITY
PH  .                           : MUD PH
FL  .                       2.8 : FLUID LOSS
MUDS.                           : SOURCE OF SAMPLE
RM  .OHMM                       : MUD RESISTIVITY
RMT .DEGF                       : RM TEMPERATURE
RMF .OHMM                       : MUD FILTRATE RESISTIVITY
RMFT.DEGF                       : RMF TEMPERATURE
RMC .OHMM                       : MUD CAKE RESISTIVITY
RMCT.DEGF                       : RMC TEMPERATURE
RMFS.                           : RMF SOURCE
RMCS.                           : RMC SOURCE
RMBH.OHMM                       : MUD RESISTIVITY AT BHT
BHT .DEGF                   237 : BOTTOM HOLE TEMPERATURE
TIMC.                           : TIME CIRCULATION STOPPED
TIML.                           : TIME LOGGER ON BOTTOM
TMAX.DEGF                   237 : MAXIMUM RECORDED TEMPERATURE
UNIT.                     13028 : EQUIPMENT NUMBER
BASE.                      BRSD : BASE LOCATION
ENG .                 F. GUIDRY : RECORDED BY
WIT .             AXXIS LIBERTY : WITNESSED BY
~Curve Information -----------------------------------------
DEPT.F          :DEPTH
AI2R20.OHMM     :
AI2R40.OHMM     :
AI2R85.OHMM     :
DCAL.IN         :
DRHO.G/CC       :
GR.GAPI         :
NPHI.%          :
TENS.LBF        :
~ASCII ------------------------------------------------------
# ...
5411.00000        0.49631        0.42054        0.40947        -999.25        -999.25       74.55619        -999.25     1488.47815
5411.50000        0.52832        0.45646        0.40649        -999.25        -999.25       73.96448        -999.25     1487.81625
5412.00000        0.57412        0.52337        0.46475        -999.25        -999.25       71.59762        -999.25     1487.15435
5412.50000        0.63246        0.58960        0.58386        -999.25        -999.25       69.52661        -999.25     1486.49245
5413.00000        0.69678        0.65648        0.63774        -999.25        -999.25       70.11833        -999.25     1485.83055
5413.50000        0.76757        0.73089        0.69659        -999.25        -999.25       71.59762        -999.25     1485.16865
5414.00000        0.84563        0.78581        0.76080        -999.25        -999.25       75.44377        -999.25     1484.50675
5414.50000        0.89142        0.79892        0.77420        -999.25        -999.25       76.62720        -999.25     1483.84485
5415.00000        0.87961        0.80280        0.77399        -999.25        -999.25       76.92306        -999.25     1483.18295
5415.50000        0.86795        0.80670        0.77378        -999.25        -999.25       75.44377        -999.25     1508.86821
5416.00000        0.85309        0.80408        0.76621        -999.25        -999.25       75.44377        -999.25     1551.71903
5416.50000        0.83684        0.78996        0.75392        1.85946        -999.25       74.26034        -999.25     1594.56986
5417.00000        0.82968        0.77615        0.74183        1.83487        -999.25       72.78105        -999.25     1646.46989
5417.50000        0.82094        0.76252        0.72993        1.80489        -999.25       71.59762        -999.25     1689.32071
5418.00000        0.80586        0.74878        0.71822        1.78030        -999.25       72.48519        -999.25     1732.17153
5418.50000        0.79395        0.73381        0.71150        1.75531        -999.25       72.48519        -999.25     1763.44558
5419.00000        0.79373        0.71908        0.70483        1.73072        -999.25       72.48519        -999.25     1776.75565
5419.50000        0.79351        0.70464        0.69823        1.70573        -999.25       71.89347        -999.25     1790.46493
5420.00000        0.78738        0.70201        0.68359        1.68114        -999.25       73.66862        -999.25     1803.77500
5420.50000        0.75829        0.69932        0.66925        1.65616        -999.25       73.96448        -999.25     1817.08508
5421.00000        0.73028        0.69404        0.65522        1.72125        -999.25       73.37276        -999.25     1830.39516
5421.50000        0.71542        0.68485        0.64142        1.78594        -999.25       73.07691        -999.25     1843.70523
5422.00000        0.70369        0.67577        0.63217        1.85103        -999.25       70.71004        -999.25     1857.41451
5422.50000        0.70350        0.67208        0.63984        1.84192        -999.25       70.71004        -999.25     1870.72458
5423.00000        0.70331        0.67190        0.64755        1.72170        -999.25       72.78105        -999.25     1886.69667
5423.50000        0.70312        0.67784        0.65699        1.57743        -999.25       74.26034        -999.25     1900.00675
5424.00000        0.70289        0.68388        0.66490        1.45721        -999.25       83.43193        -999.25     1913.31682
5424.50000        0.70270        0.68997        0.67021        1.40365        -999.25       85.50294        -999.25     1927.02610
5425.00000        0.72381        0.68257        0.66448        1.39414        -999.25       90.23666        -999.25     1940.33618
5425.50000        0.76063        0.67520        0.65880        1.38463        -999.25       92.01181        -999.25     1931.29109
5426.00000        0.78270        0.66899        0.65317        1.37512        -999.25       96.15382        -999.25     1888.71326
5426.50000        0.78063        0.66449        0.64759        1.36561        -999.25       97.33725        -999.25     1846.13544
5427.00000        0.77857        0.65785        0.64240        1.36284        -999.25      102.36684        -999.25     1803.95681
5427.50000        0.77651        0.65127        0.63738        1.36167        -999.25      101.47927        -999.25     1761.37898
5428.00000        0.75269        0.64012        0.62321        1.36049        -999.25       97.92897        -999.25     1718.80116
5428.50000        0.71587        0.61137        0.59625        1.34122        -999.25       93.78696        -999.25     1676.22333
5429.00000        0.67818        0.58391        0.57041        1.24957        -999.25       82.54436        -999.25     1625.12994
5429.50000        0.63849        0.55962        0.54573        1.15831        -999.25       81.36093        -999.25     1582.55211
5430.00000        0.60118        0.53639        0.52208        1.06706        -999.25       83.72779        -999.25     1540.37348
5430.50000        0.56963        0.51669        0.49924        0.97540        -999.25       85.20708        -999.25     1497.79565
5431.00000        0.55057        0.50854        0.49797        1.03573        -999.25       87.27809        -999.25     1455.21783
5431.50000        0.53519        0.50840        0.49670        1.13376        -999.25       85.50294        -999.25     1439.38635
5432.00000        0.54871        0.50827        0.49543        1.23179        -999.25       81.06507        -999.25     1530.93949
5432.50000        0.57023        0.51939        0.50062        1.25839        -999.25       79.88164        -999.25     1622.49263
5433.00000        0.60220        0.54651        0.53295        1.23737        -999.25       81.65678        -999.25     1713.64657
5433.50000        0.67878        0.58984        0.56733        1.21635        -999.25       83.72779        -999.25     1805.19971
5434.00000        0.76362        0.66667        0.60397        1.19113        -999.25       85.50294        -999.25     1896.75285
5434.50000        0.85790        0.75358        0.71390        1.21257        -999.25       87.27809        -999.25     1785.11355
5435.00000        0.89236        0.83570        0.82206        1.24433        -999.25       88.75737        -999.25     1651.38590
5435.50000        0.91040        0.85010        0.84106        1.27609        -999.25       86.98223        -999.25     1539.74659
5436.00000        0.88094        0.83068        0.81563        1.30824        -999.25       83.13607        -999.25     1515.53193
5436.50000        0.80659        0.75911        0.75565        1.34000        -999.25       79.28992        -999.25     1549.99957
5437.00000        0.71176        0.66674        0.65731        1.30708        -999.25       73.66862        -999.25     1584.06801
5437.50000        0.62813        0.58562        0.56290        1.27416        -999.25       65.97632        -999.25     1618.53565
5438.00000        0.55433        0.51441        0.48205        1.24123        -999.25       60.35501        -999.25     1652.60409
5438.50000        0.47707        0.44026        0.40167        1.20831        -999.25       59.17158        -999.25     1687.07173
5439.00000        0.42773        0.38669        0.34713        1.17539        -999.25       60.35501        -999.25     1721.14017
5439.50000        0.38754        0.33452        0.30000        1.08254        -999.25       60.94673        -999.25     1755.60781
5440.00000        0.35112        0.29368        0.26306        0.97121        -999.25       61.24259        -999.25     1742.17153
5440.50000        0.32219        0.26029        0.24446        0.95853        -999.25       60.65087        -999.25     1697.19851
5441.00000        0.31665        0.24912        0.22841        0.99902        -999.25       59.17158        -999.25     1643.31072
5441.50000        0.31584        0.24867        0.21815        1.03990        -999.25       53.25442        -999.25     1598.33770
