~Version ---------------------------------------------------
VERS. 2.0 : CWLS LOG ASCII STANDARD - VERSION 2.0
WRAP. NO  : One line per depth step
DLM . SPACE : Column Data Section Delimiter
~Well ------------------------------------------------------
STRT.F      13770.5 : START DEPTH
STOP.F      16230.0 : STOP DEPTH
STEP.F          0.5 : STEP
NULL.       -999.25 : NULL VALUE
COMP.                  HILCORP ENERGY CO. : COMPANY
WELL.          212648-SL3306-015-03306-10 : WELL
FLD .                       REDFISH POINT : FIELD
CNTY.                           VERMILION : COUNTY
STAT.                           LOUISIANA : STATE
CTRY.                                 USA : COUNTRY
SEC .                                     : SECTION
TWP .                                     : TOWNSHIP
RGE .                                     : RANGE
LOC . LAT 29*40'57.085"N LONG 92*2'43.95"W : LOCATION
EKB .F                       41 : ELEVATION KELLY BUSHING
EDF .F                       41 : ELEVATION DERRICK FLOOR
EGL .F                          : ELEVATION GROUND LEVEL
PDAT.                       MSL : PERMANENT DATUM
EPD .                           : ELEVATION PERMANENT DATUM
APD .                           : ABOVE PERMANENT DATUM
LMF .                        KB : LOG MEASURED FROM
DMF .                        KB : DRILLING MEASURED FROM
API .            17113217870000 : API NUMBER
UWI .                           : UWI NUMBER
DIGC.                     NthDS : DIGITIZING COMPANY
~Params ----------------------------------------------------
SRVC.               WEATHERFORD : LOGGING COMPANY
LOG .                AIT/DSN/SD : LOG
DATE.                2012-02-23 : RUN DATE
RUN .                         1 : RUN NUMBER
TDD .F                    16230 : TOTAL DEPTH DRILLER
TDL .F                    16230 : TOTAL DEPTH LOGGER
BOTL.F                    16220 : BOTTOM LOGGED INTERVAL
TOPL.F                    10000 : TOP LOGGED INTERVAL
CSGS.IN                   7.625 : CASING SIZE
CSGD.F                    13602 : CASING DRILLER
CSGL.F                    13605 : CASING LOGGER
BS  .IN                   6.750 : BIT SIZE
MUD .                       OBM : MUD TYPE
MUDD.                        12 : MUD DENSITY
MUDV.                        56 : MUD VISCOSITY
PH  .                           : MUD PH
FL  .                           : FLUID LOSS
MUDS.                           : SOURCE OF SAMPLE
RM  .OHMM                       : MUD RESISTIVITY
RMT .DEGF                       : RM TEMPERATURE
RMF .OHMM                       : MUD FILTRATE RESISTIVITY
RMFT.DEGF                       : RMF TEMPERATURE
RMC .OHMM                       : MUD CAKE RESISTIVITY
RMCT.DEGF                       : RMC TEMPERATURE
RMFS.                           : RMF SOURCE
RMCS.                           : RMC SOURCE
RMBH.OHMM                       : MUD RESISTIVITY AT BHT
BHT .DEGF                       : BOTTOM HOLE TEMPERATURE
TIMC.                           : TIME CIRCULATION STOPPED
TIML.           0453 2012-02-23 : TIME LOGGER ON BOTTOM
TMAX.DEGF                   272 : MAXIMUM RECORDED TEMPERATURE
UNIT.                      1214 : EQUIPMENT NUMBER
BASE.                NEW IBERIA : BASE LOCATION
ENG .               P. SPOELKER : RECORDED BY
WIT .                 F. GUIDRY : WITNESSED BY
~Curve Information -----------------------------------------
DEPT.F          :DEPTH
AI1R10.OHMM     :
AI1R30.OHMM     :
AI1R60.OHMM     :
DCAL.IN         :
DPHI.%          :
NPHI.%          :
TENS.LBS        :
~ASCII ------------------------------------------------------
# ...
13805.00000        0.46012        0.86426        0.71720        0.33559       18.96239       32.51664     5723.68767
13805.50000        0.36518        0.92555        1.14418        0.59198       19.56354       33.80299     5723.68767
13806.00000        0.56884        0.96436        1.48933        0.84838       20.76469       32.36415     5723.68767
13806.50000        0.96819        1.12862        1.75110        1.10437       17.04585       32.79490     5723.68767
13807.00000        1.38197        1.46677        2.23757        1.65797       10.02702       31.94645     5723.68767
13807.50000        1.93000        1.90641        2.91928        2.07076        8.04840       31.09801     5723.68767
13808.00000        2.00087        2.47759        3.51428        2.16076        8.48155       28.62476     5723.68767
13808.50000        2.02356        2.47209        3.24982        2.25835        9.57110       25.74592     5723.68767
13809.00000        1.85354        2.12736        2.57927        2.41179       12.34185       20.85108     5723.68767
13809.50000        1.79949        2.09824        2.35536        2.53938       13.16740       15.45225     5723.68767
13810.00000        2.20445        2.37021        2.50682        2.62818       12.18215       15.25300     5723.68767
13810.50000        2.70079        2.86281        2.96328        2.69058        9.11131       16.75055     5723.68767
13811.00000        3.30858        3.45811        3.50252        2.51858        4.69647       18.67170     5723.68767
13811.50000        3.35602        2.85803        2.92812        2.32777        5.41785       22.11707     5723.68767
13812.00000        2.93521        2.55334        2.33105        2.13697        7.81900       25.17822     5723.68767
13812.50000        2.79636        2.56663        2.32849        1.97161        7.83455       23.97937     5723.68767
13813.00000        2.92895        2.45701        2.13226        2.09961        6.26131       25.61492     5723.68767
13813.50000        2.48005        2.18899        1.89231        2.22720        6.50246       29.14166     5723.68767
13814.00000        2.22387        2.12300        1.86554        2.30360        7.53201       29.86281     5723.68767
13814.50000        2.56683        2.33882        2.15324        2.24560        7.87276       31.06396     5723.68767
13815.00000        2.66848        2.49106        2.29722        1.95920        8.30614       30.98832     5723.68767
13815.50000        2.37125        2.31963        2.17806        1.63040        8.90729       30.06307     5723.68767
13816.00000        2.21543        2.15980        2.06507        1.29120        7.50805       28.66742     5773.02974
13816.50000        2.14011        2.08155        2.02835        0.95424        6.26960       24.62458     5834.87179
13817.00000        2.33229        2.31660        2.19766        0.89023        5.85075       19.28575     5896.71385
13817.50000        2.63143        2.57820        2.43476        0.82623        5.70191       16.79090     5898.02964
13818.00000        3.03892        2.86959        2.69745        0.76223        5.96106       17.90685     5859.21388
13818.50000        2.54431        2.36572        2.36069        0.68943        7.22101       19.75863     5820.39812
13819.00000        2.18102        1.80941        1.83689        0.61102       10.02198       21.93778     5781.58236
13819.50000        2.02568        1.77034        1.77493        0.53222       11.40673       26.65252     5742.76660
13820.00000        2.17476        1.94706        1.92415        0.41606       11.35748       28.94087     5704.60874
13820.50000        2.35630        2.32749        2.28484        0.22686       10.95904       27.48642     5657.89825
13821.00000        2.41546        2.20211        2.18851        0.03806       10.78019       25.24718     5697.37190
13821.50000        2.43158        2.20516        2.19214       -0.15114       11.87334       23.00794     5736.84556
13822.00000        2.43833        2.37161        2.32278       -0.28675       13.59409       22.32149     5776.31921
13822.50000        2.31163        2.20718        2.24796       -0.36195       15.65947       24.95304     5815.79286
13823.00000        2.16252        2.10861        2.12682       -0.41955       15.73502       27.58578     5855.26651
13823.50000        2.25711        2.23675        2.16431       -0.48931       14.54937       28.68493     6019.74006
13824.00000        2.35562        2.37246        2.24275       -0.50732       13.60733       27.76569     6184.21361
13824.50000        1.74544        2.14656        1.91454       -0.49932       13.27488       27.96724     6174.34520
13825.00000        1.14819        0.92393        0.94869       -0.49092       13.00963       27.64342     6047.37162
13825.50000        1.36570        1.22985        1.18760       -0.48252       13.49078       27.52577     5921.05593
13826.00000        1.24484        1.06690        1.12402       -0.49533       15.30896       25.90693     5897.37174
13826.50000        1.06168        0.92546        0.99192       -0.59133       17.45331       24.73208     5874.34544
13827.00000        1.01380        0.84652        0.87534       -0.70629       18.28006       24.93364     5857.24019
13827.50000        0.94657        0.80217        0.76826       -0.80269       18.87881       24.53399     5867.76650
13828.00000        0.80790        0.73872        0.66882       -0.88270       19.13676       24.94074     5878.29281
13828.50000        0.70053        0.60698        0.58224       -0.90030       18.45271       25.54669     5889.47701
13829.00000        0.69671        0.60502        0.52841       -0.91790       19.03706       24.79784     5900.00332
13829.50000        0.82647        0.68781        0.57411       -0.94190       20.75564       24.04900     5910.52963
13830.00000        1.03461        0.79022        0.64799       -0.96751       21.57639       22.07615     5921.05593
13830.50000        1.04019        0.74467        0.70729       -0.99847       19.94795       19.79731     5933.55592
13831.00000        1.02966        0.69074        0.67539       -1.01767       12.62432       19.50206     5944.08223
13831.50000        0.90178        0.59823        0.60648       -1.03528        9.66507       19.70361     5955.26643
13832.00000        0.71850        0.49584        0.50828       -1.05288       10.86622       20.34436     5965.79274
13832.50000        0.58052        0.41097        0.42595       -1.07008       16.14736       21.81191     5976.31905
13833.00000        0.50411        0.35041        0.35695       -1.08768       18.94811       24.36569     5986.84535
13833.50000        0.49707        0.34629        0.33461       -1.03529       22.30949       25.61244     5966.45063
13834.00000        0.51110        0.36033        0.35249       -0.98249       25.27103       24.53359     5945.39802
13834.50000        0.51685        0.37495        0.37136       -0.93785       25.73538       27.75074     5925.00330
13835.00000        0.53440        0.40109        0.39120       -0.97626       25.72333       27.99189     5904.60858
13835.50000        0.64612        0.45191        0.46406       -1.01426       25.94889       25.95305     5884.21386
13836.00000        0.85775        0.58168        0.56708       -1.05266       26.83564       25.95420     5863.16124
13836.50000        1.09928        0.74873        0.71259       -1.07586       26.55359       24.53095     5882.24017
13837.00000        1.44138        0.96374        0.89543       -1.09867       24.85817       22.82211     5926.97698
13837.50000        2.49078        1.24061        1.12509       -1.12187       23.44453       21.43486     5971.71379
13838.00000        2.53750        1.45248        1.17235       -1.13587       21.30488       19.91082     6016.45059
13838.50000        1.97702        1.28773        1.14185       -1.13684       18.68164       18.35197     6050.66109
13839.00000        1.64334        1.15450        1.00154       -1.12364       12.68281       17.72073     6040.79268
