~Version ---------------------------------------------------
VERS. 2.0 : CWLS LOG ASCII STANDARD - VERSION 2.0
WRAP. NO  : One line per depth step
DLM . SPACE : Column Data Section Delimiter
~Well ------------------------------------------------------
STRT.F         5380 : START DEPTH
STOP.F      13830.0 : STOP DEPTH
STEP.F          0.5 : STEP
NULL.       -999.25 : NULL VALUE
COMP.                  HILCORP ENERGY CO. : COMPANY
WELL.          212648-SL3306-015-03306-10 : WELL
FLD .                       REDFISH POINT : FIELD
CNTY.                           VERMILION : COUNTY
STAT.                           LOUISIANA : STATE
CTRY.                                 USA : COUNTRY
SEC .                                     : SECTION
TWP .                                     : TOWNSHIP
RGE .                                     : RANGE
LOC . LAT 29*40'57.085"N LONG 92*2'43.95"W : LOCATION
EKB .F                       41 : ELEVATION KELLY BUSHING
EDF .F                       41 : ELEVATION DERRICK FLOOR
EGL .F                          : ELEVATION GROUND LEVEL
PDAT.                       MSL : PERMANENT DATUM
EPD .                           : ELEVATION PERMANENT DATUM
APD .                           : ABOVE PERMANENT DATUM
LMF .                        KB : LOG MEASURED FROM
DMF .                        KB : DRILLING MEASURED FROM
API .            17113217870000 : API NUMBER
UWI .                           : UWI NUMBER
DIGC.                     NthDS : DIGITIZING COMPANY
~Params ----------------------------------------------------
SRVC.               WEATHERFORD : LOGGING COMPANY
LOG .               IND/DEN/NEU : LOG
DATE.                2012-02-05 : RUN DATE
RUN .                         1 : RUN NUMBER
TDD .F                    13805 : TOTAL DEPTH DRILLER
TDL .F                    13822 : TOTAL DEPTH LOGGER
BOTL.F                    13822 : BOTTOM LOGGED INTERVAL
TOPL.F                     5398 : TOP LOGGED INTERVAL
CSGS.IN                         : CASING SIZE
CSGD.F                     5389 : CASING DRILLER
CSGL.F                     5389 : CASING LOGGER
BS  .IN                     8.5 : BIT SIZE
MUD .                 OIL BASED : MUD TYPE
MUDD.                        12 : MUD DENSITY
MUDV.                        72 : MUD VISCOSITY
PH  .                           : MUD PH
FL  .                       2.8 : FLUID LOSS
MUDS.                           : SOURCE OF SAMPLE
RM  .OHMM                       : MUD RESISTIVITY
RMT .DEGF                       : RM TEMPERATURE
RMF .OHMM                       : MUD FILTRATE RESISTIVITY
RMFT.DEGF                       : RMF TEMPERATURE
RMC .OHMM                       : MUD CAKE RESISTIVITY
RMCT.DEGF                       : RMC TEMPERATURE
RMFS.                           : RMF SOURCE
RMCS.                           : RMC SOURCE
RMBH.OHMM                       : MUD RESISTIVITY AT BHT
BHT .DEGF                   237 : BOTTOM HOLE TEMPERATURE
TIMC.                           : TIME CIRCULATION STOPPED
TIML.                           : TIME LOGGER ON BOTTOM
TMAX.DEGF                   237 : MAXIMUM RECORDED TEMPERATURE
UNIT.                     13028 : EQUIPMENT NUMBER
BASE.                      BRSD : BASE LOCATION
ENG .                 F. GUIDRY : RECORDED BY
WIT .             AXXIS LIBERTY : WITNESSED BY
~Curve Information -----------------------------------------
DEPT.F          :DEPTH
AI2R20.OHMM     :
AI2R40.OHMM     :
AI2R85.OHMM     :
DCAL.IN         :
DRHO.G/CC       :
GR.GAPI         :
NPHI.%          :
TENS.LBF        :
~ASCII ------------------------------------------------------
# ...
9348.00000        0.89467        0.76274        0.72715        0.02182        -999.25       47.04141        -999.25     2650.89887
9348.50000        0.95551        0.83191        0.83748        0.12976        -999.25       47.40531        -999.25     2639.76568
9349.00000        1.02049        0.91151        0.92299        0.23809        -999.25       47.86094        -999.25     2628.63248
9349.50000        1.08988        0.98575        0.95229        0.34643        -999.25       48.22484        -999.25     2617.49928
9350.00000        1.10836        1.01185        0.98252        0.45436        -999.25       47.33727        -999.25     2606.76370
9350.50000        1.11445        1.06878        1.02011        0.44008        -999.25       51.18342        -999.25     2593.24481
9351.00000        1.16655        1.12294        1.07338        0.40397        -999.25       53.84614        -999.25     2582.11162
9351.50000        1.23986        1.19678        1.13501        0.36785        -999.25       59.17158        -999.25     2571.37603
9352.00000        1.34809        1.28754        1.25078        0.33174        -999.25       62.72188        -999.25     2560.24283
9352.50000        1.46592        1.38518        1.37824        0.29563        -999.25       66.27217        -999.25     2549.10964
9353.00000        1.59404        1.49023        1.51882        0.25992        -999.25       71.00590        -999.25     2550.70009
9353.50000        1.69359        1.60324        1.59316        0.22381        -999.25       72.78105        -999.25     2560.64045
9354.00000        1.63281        1.62522        1.65081        0.18770        -999.25       73.37276        -999.25     2570.58080
9354.50000        1.53865        1.60309        1.62269        0.15516        -999.25       72.18933        -999.25     2580.52116
9355.00000        1.59287        1.66201        1.63579        0.13849        -999.25       67.45560        -999.25     2590.46151
9355.50000        1.68818        1.72293        1.71226        0.12143        -999.25       64.79288        -999.25     2600.40187
9356.00000        1.80051        1.78625        1.82535        0.10436        -999.25       59.76330        -999.25     2610.34222
9356.50000        1.80875        1.79230        1.81870        0.08730        -999.25       60.05916        -999.25     2620.28258
9357.00000        1.56274        1.49842        1.51273        0.07024        -999.25       63.01774        -999.25     2620.68019
9357.50000        1.24360        1.21163        1.20997        0.05317        -999.25       63.01774        -999.25     2613.52314
9358.00000        0.98963        0.97974        0.96781        0.03730        -999.25       63.01774        -999.25     2607.55892
9358.50000        0.78753        0.79222        0.79672        0.02579        -999.25       65.68046        -999.25     2601.19710
9359.00000        0.76624        0.73557        0.73631        0.01389        -999.25       68.04732        -999.25     2595.23288
9359.50000        0.74552        0.70704        0.68042        0.00238        -999.25       73.96448        -999.25     2589.26867
9360.00000        0.72868        0.67961        0.66003       -0.00953        -999.25       77.51477        -999.25     2583.30446
9360.50000        0.71223        0.67011        0.64019       -0.02103        -999.25       85.20708        -999.25     2577.34024
9361.00000        0.69971        0.66402        0.62860       -0.03254        -999.25       91.42010        -999.25     2571.37603
9361.50000        0.70176        0.65732        0.62225       -0.04445        -999.25       92.89939        -999.25     2565.41182
9362.00000        0.70375        0.65600        0.62607       -0.05595        -999.25       89.94081        -999.25     2559.04999
9362.50000        0.70575        0.66633        0.63246       -0.06786        -999.25       88.16566        -999.25     2553.08578
9363.00000        0.72536        0.68754        0.66003       -0.08175        -999.25       86.98223        -999.25     2547.12156
9363.50000        0.75051        0.70575        0.69366       -0.09326        -999.25       85.79880        -999.25     2547.51918
9364.00000        0.78230        0.75422        0.74477       -0.10516        -999.25       82.54436        -999.25     2552.68816
9364.50000        0.82714        0.80610        0.79964       -0.11667        -999.25       79.28992        -999.25     2558.25476
9365.00000        0.89329        0.87535        0.85848       -0.12857        -999.25       77.21892        -999.25     2563.02613
9365.50000        0.96472        0.95447        0.95255       -0.14008        -999.25       75.73963        -999.25     2568.19512
9366.00000        1.04188        1.04064        1.06556       -0.15159        -999.25       74.26034        -999.25     2572.96649
9366.50000        1.15067        1.13459        1.17371       -0.15556        -999.25       69.82247        -999.25     2577.73786
9367.00000        1.28989        1.23714        1.27945       -0.14762        -999.25       68.93489        -999.25     2582.50923
9367.50000        1.37258        1.32574        1.30173       -0.13968        -999.25       68.34318        -999.25     2573.36410
9368.00000        1.30566        1.20446        1.16123       -0.13135        -999.25       69.52661        -999.25     2554.67623
9368.50000        1.17963        1.09427        1.06468       -0.12342        -999.25       71.59762        -999.25     2535.59075
9369.00000        1.14542        1.08056        1.01714       -0.11548        -999.25       74.26034        -999.25     2516.90288
9369.50000        1.15404        1.14700        1.08105       -0.10754        -999.25       75.44377        -999.25     2498.21502
9370.00000        1.25398        1.21763        1.17995       -0.09961        -999.25       75.14791        -999.25     2479.52715
9370.50000        1.36258        1.32090        1.27945       -0.09167        -999.25       72.48519        -999.25     2460.83928
9371.00000        1.45020        1.44069        1.37371       -0.08334        -999.25       71.89347        -999.25     2442.15141
9371.50000        1.54344        1.50941        1.49295       -0.07540        -999.25       75.14791        -999.25     2419.48740
9372.00000        1.51591        1.44240        1.44464       -0.06746        -999.25       78.40235        -999.25     2400.79953
9372.50000        1.29781        1.21418        1.20997       -0.05953        -999.25       81.95264        -999.25     2388.47349
9373.00000        1.02750        1.02217        0.98512       -0.05159        -999.25       81.36093        -999.25     2403.18522
9373.50000        0.96693        0.94113        0.92493       -0.04365        -999.25       81.06507        -999.25     2417.89694
9374.00000        0.95011        0.91987        0.89992       -0.03572        -999.25       81.36093        -999.25     2432.60867
9374.50000        0.93684        0.91518        0.89500       -0.02738        -999.25       82.24850        -999.25     2446.92278
9375.00000        0.93684        0.90843        0.89500       -0.01945        -999.25       87.57394        -999.25     2461.63451
9375.50000        0.93684        0.88995        0.86549       -0.00992        -999.25       89.34909        -999.25     2476.34623
9376.00000        0.93036        0.87447        0.83702       -0.00199        -999.25       97.63311        -999.25     2491.05796
9376.50000        0.92231        0.85926        0.80942        0.00595        -999.25       99.11240        -999.25     2505.37207
9377.00000        0.91426        0.84555        0.80507        0.01389        -999.25       96.44968        -999.25     2520.08380
9377.50000        0.90636        0.83702        0.80074        0.02222        -999.25       91.12424        -999.25     2534.79552
9378.00000        0.90140        0.83055        0.79651        0.03016        -999.25       87.86980        -999.25     2549.50725
9378.50000        0.89836        0.82706        0.79629        0.03809        -999.25       93.49110        -999.25     2564.21898
