~Version ---------------------------------------------------
VERS. 2.0 : CWLS LOG ASCII STANDARD - VERSION 2.0
WRAP. NO  : One line per depth step
DLM . SPACE : Column Data Section Delimiter
~Well ------------------------------------------------------
STRT.F      13770.5 : START DEPTH
STOP.F      16230.0 : STOP DEPTH
STEP.F          0.5 : STEP
NULL.       -999.25 : NULL VALUE
COMP.                  HILCORP ENERGY CO. : COMPANY
WELL.          212648-SL3306-015-03306-10 : WELL
FLD .                       REDFISH POINT : FIELD
CNTY.                           VERMILION : COUNTY
STAT.                           LOUISIANA : STATE
CTRY.                                 USA : COUNTRY
SEC .                                     : SECTION
TWP .                                     : TOWNSHIP
RGE .                                     : RANGE
LOC . LAT 29*40'57.085"N LONG 92*2'43.95"W : LOCATION
EKB .F                       41 : ELEVATION KELLY BUSHING
EDF .F                       41 : ELEVATION DERRICK FLOOR
EGL .F                          : ELEVATION GROUND LEVEL
PDAT.                       MSL : PERMANENT DATUM
EPD .                           : ELEVATION PERMANENT DATUM
APD .                           : ABOVE PERMANENT DATUM
LMF .                        KB : LOG MEASURED FROM
DMF .                        KB : DRILLING MEASURED FROM
API .            17113217870000 : API NUMBER
UWI .                           : UWI NUMBER
DIGC.                     NthDS : DIGITIZING COMPANY
~Params ----------------------------------------------------
SRVC.               WEATHERFORD : LOGGING COMPANY
LOG .                AIT/DSN/SD : LOG
DATE.                2012-02-23 : RUN DATE
RUN .                         1 : RUN NUMBER
TDD .F                    16230 : TOTAL DEPTH DRILLER
TDL .F                    16230 : TOTAL DEPTH LOGGER
BOTL.F                    16220 : BOTTOM LOGGED INTERVAL
TOPL.F                    10000 : TOP LOGGED INTERVAL
CSGS.IN                   7.625 : CASING SIZE
CSGD.F                    13602 : CASING DRILLER
CSGL.F                    13605 : CASING LOGGER
BS  .IN                   6.750 : BIT SIZE
MUD .                       OBM : MUD TYPE
MUDD.                        12 : MUD DENSITY
MUDV.                        56 : MUD VISCOSITY
PH  .                           : MUD PH
FL  .                           : FLUID LOSS
MUDS.                           : SOURCE OF SAMPLE
RM  .OHMM                       : MUD RESISTIVITY
RMT .DEGF                       : RM TEMPERATURE
RMF .OHMM                       : MUD FILTRATE RESISTIVITY
RMFT.DEGF                       : RMF TEMPERATURE
RMC .OHMM                       : MUD CAKE RESISTIVITY
RMCT.DEGF                       : RMC TEMPERATURE
RMFS.                           : RMF SOURCE
RMCS.                           : RMC SOURCE
RMBH.OHMM                       : MUD RESISTIVITY AT BHT
BHT .DEGF                       : BOTTOM HOLE TEMPERATURE
TIMC.                           : TIME CIRCULATION STOPPED
TIML.           0453 2012-02-23 : TIME LOGGER ON BOTTOM
TMAX.DEGF                   272 : MAXIMUM RECORDED TEMPERATURE
UNIT.                      1214 : EQUIPMENT NUMBER
BASE.                NEW IBERIA : BASE LOCATION
ENG .               P. SPOELKER : RECORDED BY
WIT .                 F. GUIDRY : WITNESSED BY
~Curve Information -----------------------------------------
DEPT.F          :DEPTH
AI1R10.OHMM     :
AI1R30.OHMM     :
AI1R60.OHMM     :
DCAL.IN         :
DPHI.%          :
NPHI.%          :
TENS.LBS        :
~ASCII ------------------------------------------------------
# ...
14115.50000        2.02007        1.94043        1.89205       -0.61720        8.07303       38.97445     6250.00303
14116.00000        1.97738        1.93810        1.89205       -0.60760        7.73504       39.53525     6250.00303
14116.50000        1.93559        1.92612        1.89205       -0.60440        7.66585       38.03327     6238.16094
14117.00000        1.95737        1.91440        1.87342       -0.62960        7.56306       37.28089     6214.47675
14117.50000        1.99538        1.92381        1.85498       -0.65040        7.16507       37.52850     6194.73992
14118.00000        2.02475        1.94762        1.86203       -0.67160        5.93869       38.02091     6175.00310
14118.50000        2.07249        1.97190        1.97500       -0.66680        5.47471       39.49251     6155.26627
14119.00000        2.25715        2.10766        2.09464       -0.64440        5.84711       40.96291     6135.52944
14119.50000        2.45826        2.33571        2.22791       -0.62240        5.50073       36.88094     6115.79262
14120.00000        2.37777        2.23059        2.18971       -0.60000        5.28874       31.47898     6096.05579
14120.50000        2.11586        2.01858        1.98159       -0.54920        6.33674       24.87703     6076.31896
14121.00000        1.97829        1.85738        1.80656       -0.49440        7.00675       19.11468     6056.58214
14121.50000        1.86599        1.70906        1.66383       -0.44000        7.42476       17.91270     6140.13470
14122.00000        1.82335        1.65953        1.59602       -0.43440        8.76076       18.32230     6250.00303
14122.50000        1.80656        1.61144        1.55364       -0.42920       12.41275       19.77711     6311.84509
14123.00000        1.86306        1.65081        1.60371       -0.42360       14.54675       21.43831     6300.66089
14123.50000        1.91848        1.71396        1.65555       -0.41840       15.02475       23.14991     6290.13458
14124.00000        1.96335        1.77970        1.70906       -0.41280       16.78315       24.86271     6279.60827
14124.50000        2.01243        1.84779        1.78993       -0.40760       18.02076       27.16830     6269.08197
14125.00000        2.07536        1.91848        1.87464       -0.40200       17.89877       29.47390     6258.55566
14125.50000        2.14026        1.99188        1.96335       -0.42720       16.99678       30.73670     6256.58198
14126.00000        2.17177        2.01746        2.02475       -0.47280       14.29481       30.43472     6289.47669
14126.50000        2.06483        1.96862        1.96335       -0.51800       12.25243       30.97272     6302.63457
14127.00000        1.96335        1.92114        1.90963       -0.56360       12.95004       33.00232     6236.84515
14127.50000        1.93326        1.87464        1.86599       -0.60920       13.64885       35.24072     6190.13466
14128.00000        1.90381        1.82926        1.82335       -0.65440       13.58926       37.47912     6220.39780
14128.50000        1.87464        1.78514        1.78267       -0.70000       13.02447       37.44473     6250.00303
14129.00000        1.86306        1.74193        1.74628       -0.74560       12.45968       37.23514     6237.50304
14129.50000        1.90857        1.80322        1.79275       -0.79080       11.82050       38.64074     6225.00305
14130.00000        2.08730        1.94168        1.97391       -0.82480       11.15851       38.35075     6211.84517
14130.50000        2.32429        2.12194        2.18466       -0.85520       11.22852       34.76198     6199.34518
14131.00000        2.48684        2.28487        2.24030       -0.88200       10.87493       33.11441     6186.84519
14131.50000        2.43608        2.26803        2.29758       -0.89200       10.37255       31.74082     6193.42413
14132.00000        2.38504        2.20597        2.18850       -0.90200       10.67056       32.03043     6204.60833
14132.50000        2.33291        2.14562        2.08440       -0.91200       12.17696       33.42884     6215.79254
14133.00000        2.28191        2.14363        1.98544       -0.92000       13.71816       34.78644     6227.63463
14133.50000        2.23203        2.14165        1.91210       -0.92000       13.66457       34.78445     6240.79252
14134.00000        2.18324        2.08305        1.92488       -0.92000       11.98219       35.22286     6254.60829
14134.50000        2.23059        2.02606        1.93756       -0.89160       11.98020       35.80046     6276.31880
14135.00000        2.30396        1.99815        1.99907       -0.89720       13.77820       34.29848     6298.02931
14135.50000        2.37975        2.08305        2.14007       -0.92560       13.77621       32.41130     6296.71352
14136.00000        2.45803        2.19884        2.29079       -0.95440       12.50583       27.33454     6203.29255
14136.50000        2.92205        2.43992        2.45236       -0.88000       10.53225       25.17217     6271.71354
14137.00000        2.61514        2.40164        2.35785       -0.78000        8.01028       24.17058     6282.89774
14137.50000        1.80656        2.18223        2.11020       -0.81800        7.08789       25.64819     6228.29253
14138.00000        1.63184        1.98287        1.92026       -0.89080        8.00630       31.32576     6184.21361
14138.50000        1.68458        1.90963        1.83180       -0.89800        7.80391       35.56935     6184.21361
14139.00000        1.69333        1.86599        1.78993       -0.86200        7.71432       37.10935     6182.23993
14139.50000        1.77346        1.76871        1.73293       -0.88560        8.42033       36.23977     6170.39784
14140.00000        1.81208        1.60193        1.61681       -1.00000       11.02472       33.07819     6159.21363
14140.50000        1.56258        1.38674        1.22512       -1.11440       13.75632       27.63664     6148.02943
14141.00000        1.09523        1.17366        0.97225       -1.16000       19.35949       26.23425     6136.84523
14141.50000        0.76758        0.82423        0.72542       -1.16680       22.18709       25.69947     6125.00314
14142.00000        0.53796        0.57889        0.54130       -1.20000       24.19029       25.69028     6162.50311
14142.50000        0.43021        0.45572        0.40388       -1.10000       25.26829       26.37228     6271.71354
14143.00000        0.39857        0.42578        0.39011       -1.00000       25.50630       25.42590     6263.16092
14143.50000        0.41352        0.39776        0.39091       -1.01160       25.32391       25.18351     6175.66099
14144.00000        0.48105        0.40109        0.41390       -1.06200       25.74192       25.24872     6087.50317
14144.50000        0.55054        0.44506        0.43820       -0.97080       25.73993       25.37993     6061.84529
14145.00000        0.54598        0.43590        0.46397       -0.88000       25.43794       26.40634     6076.31896
14145.50000        0.44420        0.38856        0.40101       -0.92000       25.20436       26.57595     6091.45053
14146.00000        0.37407        0.34541        0.34660       -0.96000       24.84117       26.17436     6106.58210
14146.50000        0.35483        0.33084        0.31842       -0.96000       24.57158       25.37197     6120.39788
14147.00000        0.35717        0.33066        0.32052       -0.96000       24.51919       24.85039     6129.60840
14147.50000        0.35813        0.32126        0.30201       -0.96000       24.78960       25.84799     6138.81891
14148.00000        0.34513        0.30496        0.27790       -0.96000       24.93641       26.12560     6148.68733
14148.50000        0.33075        0.28503        0.25537       -0.91480       24.58402       25.32442     6157.89785
14149.00000        0.32463        0.26640        0.24871       -0.84000       24.77883       24.52203     6167.10836
14149.50000        0.33029        0.26290        0.24222       -0.89000       24.94844       24.65684     6176.97678
