~Version ---------------------------------------------------
VERS. 2.0 : CWLS LOG ASCII STANDARD - VERSION 2.0
WRAP. NO  : One line per depth step
DLM . SPACE : Column Data Section Delimiter
~Well ------------------------------------------------------
STRT.F      13770.5 : START DEPTH
STOP.F      16230.0 : STOP DEPTH
STEP.F          0.5 : STEP
NULL.       -999.25 : NULL VALUE
COMP.                  HILCORP ENERGY CO. : COMPANY
WELL.          212648-SL3306-015-03306-10 : WELL
FLD .                       REDFISH POINT : FIELD
CNTY.                           VERMILION : COUNTY
STAT.                           LOUISIANA : STATE
CTRY.                                 USA : COUNTRY
SEC .                                     : SECTION
TWP .                                     : TOWNSHIP
RGE .                                     : RANGE
LOC . LAT 29*40'57.085"N LONG 92*2'43.95"W : LOCATION
EKB .F                       41 : ELEVATION KELLY BUSHING
EDF .F                       41 : ELEVATION DERRICK FLOOR
EGL .F                          : ELEVATION GROUND LEVEL
PDAT.                       MSL : PERMANENT DATUM
EPD .                           : ELEVATION PERMANENT DATUM
APD .                           : ABOVE PERMANENT DATUM
LMF .                        KB : LOG MEASURED FROM
DMF .                        KB : DRILLING MEASURED FROM
API .            17113217870000 : API NUMBER
UWI .                           : UWI NUMBER
DIGC.                     NthDS : DIGITIZING COMPANY
~Params ----------------------------------------------------
SRVC.               WEATHERFORD : LOGGING COMPANY
LOG .                AIT/DSN/SD : LOG
DATE.                2012-02-23 : RUN DATE
RUN .                         1 : RUN NUMBER
TDD .F                    16230 : TOTAL DEPTH DRILLER
TDL .F                    16230 : TOTAL DEPTH LOGGER
BOTL.F                    16220 : BOTTOM LOGGED INTERVAL
TOPL.F                    10000 : TOP LOGGED INTERVAL
CSGS.IN                   7.625 : CASING SIZE
CSGD.F                    13602 : CASING DRILLER
CSGL.F                    13605 : CASING LOGGER
BS  .IN                   6.750 : BIT SIZE
MUD .                       OBM : MUD TYPE
MUDD.                        12 : MUD DENSITY
MUDV.                        56 : MUD VISCOSITY
PH  .                           : MUD PH
FL  .                           : FLUID LOSS
MUDS.                           : SOURCE OF SAMPLE
RM  .OHMM                       : MUD RESISTIVITY
RMT .DEGF                       : RM TEMPERATURE
RMF .OHMM                       : MUD FILTRATE RESISTIVITY
RMFT.DEGF                       : RMF TEMPERATURE
RMC .OHMM                       : MUD CAKE RESISTIVITY
RMCT.DEGF                       : RMC TEMPERATURE
RMFS.                           : RMF SOURCE
RMCS.                           : RMC SOURCE
RMBH.OHMM                       : MUD RESISTIVITY AT BHT
BHT .DEGF                       : BOTTOM HOLE TEMPERATURE
TIMC.                           : TIME CIRCULATION STOPPED
TIML.           0453 2012-02-23 : TIME LOGGER ON BOTTOM
TMAX.DEGF                   272 : MAXIMUM RECORDED TEMPERATURE
UNIT.                      1214 : EQUIPMENT NUMBER
BASE.                NEW IBERIA : BASE LOCATION
ENG .               P. SPOELKER : RECORDED BY
WIT .                 F. GUIDRY : WITNESSED BY
~Curve Information -----------------------------------------
DEPT.F          :DEPTH
AI1R10.OHMM     :
AI1R30.OHMM     :
AI1R60.OHMM     :
DCAL.IN         :
DPHI.%          :
NPHI.%          :
TENS.LBS        :
~ASCII ------------------------------------------------------
# ...
15081.50000        2.72626        2.08132        1.96117       -0.18322        8.40001       23.60521     6352.63453
15082.00000        2.59515        2.02793        1.92737       -0.15488        8.40001       23.30401     6321.71350
15082.50000        2.49698        1.97592        1.89433       -0.12693        8.70601       22.88401     6315.79245
15083.00000        2.54359        1.97829        1.88158       -0.09859        9.08761       22.88041     6315.79245
15083.50000        2.66741        2.08055        1.90258       -0.07064       10.00561       22.66321     6315.79245
15084.00000        2.66051        2.10435        1.87221       -0.04269       11.28001       22.41961     6315.79245
15084.50000        2.52344        2.03263        1.82824       -0.07955       11.04001       22.92001     6315.79245
15085.00000        2.59107        2.02925        1.85241       -0.16000       10.80001       22.71961     6315.79245
15085.50000        2.54783        2.02793        1.82335       -0.34845       11.90641       21.96001     6315.79245
15086.00000        2.50531        2.00463        1.78168       -0.60891       13.83961       21.84001     6315.79245
15086.50000        2.58151        2.01243        1.81024       -0.66816       14.79961       23.04001     6312.50298
15087.00000        2.69120        2.02793        1.85738       -0.59381       14.04001       22.80001     6306.58194
15087.50000        2.64751        1.97701        1.77346       -0.63427       13.74841       21.90001     6300.66089
15088.00000        2.45440        1.83400        1.68754       -0.67472       14.00521       22.35961     6294.73984
15088.50000        2.25965        1.75713        1.60193       -0.67518       14.52001       22.72801     6289.47669
15089.00000        2.28065        1.75713        1.59779       -0.67572       15.85321       22.80841     6283.55564
15089.50000        2.29546        1.75713        1.59366       -0.67617       16.92001       22.88761     6277.63459
15090.00000        2.28487        1.77674        1.58968       -0.66583       16.92001       23.12521     6271.71354
15090.50000        2.30460        1.80156        1.59823       -0.71717       16.08001       23.40001     6266.45039
15091.00000        2.45122        1.86841        1.62626       -0.79273       16.23001       23.22841     6260.52934
15091.50000        2.63407        1.94852        1.71222       -0.88759       16.38001       22.37161     6254.60829
15092.00000        2.82455        2.03564        1.84029       -0.98204       15.72001       22.29601     6251.97672
15092.50000        2.91315        2.10532        1.86893       -1.05090       14.93161       22.16041     6263.16092
15093.00000        3.00425        2.17558        1.89784       -1.08135       14.41681       22.08001     6273.68723
15093.50000        3.09820        2.24715        1.94780       -1.11180       14.16001       22.35001     6284.21353
15094.00000        3.00425        2.14621        1.97464       -1.14226       13.11001       22.80001     6295.39773
15094.50000        2.79002        1.94528        1.85309       -1.16071       12.96001       25.59961     6305.92404
15095.00000        2.64433        1.96027        1.77592       -1.16116       14.31241       26.88001     6317.10824
15095.50000        2.65658        1.97555        1.72621       -1.16162       16.27681       24.40441     6327.63455
15096.00000        2.62484        1.91600        1.67774       -1.16207       18.24001       22.15201     6338.16086
15096.50000        2.51343        1.81141        1.57258       -1.16253       17.02681       21.02401     6349.34506
15097.00000        2.38416        1.71238        1.47851       -1.12618       15.75961       21.08401     6359.87137
15097.50000        2.32967        1.61547        1.39548       -1.06503       15.08041       21.78001     6371.05557
15098.00000        2.29758        1.52320        1.33761       -1.00389       15.56041       22.20001     6381.58188
15098.50000        2.13138        1.42311        1.28215       -1.03754       17.16001       21.00001     6375.66083
15099.00000        1.99723        1.32163        1.20467       -1.07159       19.68001       20.88001     6369.73978
15099.50000        1.90012        1.25958        1.12635       -1.10525       20.28001       22.08001     6363.81873
15100.00000        1.80790        1.25958        1.13629       -0.99996       20.40001       22.70401     6357.89768
15100.50000        1.91848        1.33144        1.23251       -1.00041       20.28123       22.50123     6417.10816
15101.00000        2.16855        1.50653        1.34083       -0.86096       19.33679       21.82798     6411.18711
15101.50000        2.65486        1.73806        1.45882       -0.72141       17.01355       21.15354     6405.26607
15102.00000        2.76434        1.81494        1.58719       -0.56187       14.01470       21.06469     6399.34502
15102.50000        2.62217        1.77346        1.54576       -0.53712       14.19826       22.68584     6393.42397
15103.00000        2.54594        1.72334        1.52531       -0.58078       15.29020       22.83699     6387.50292
15103.50000        2.51087        1.66846        1.51828       -0.72683       15.25776       22.98814     6381.58188
15104.00000        2.36221        1.57987        1.39445       -0.82608       14.47411       23.07329     6373.68714
15104.50000        2.15357        1.47401        1.33922       -0.73734       13.69046       23.11404     6365.79241
15105.00000        1.96335        1.37524        1.28072       -0.71459       14.72001       23.16343     6357.89768
15105.50000        1.78993        1.31821        1.21721       -0.78984       15.85276       22.88498     6350.00295
15106.00000        1.70906        1.27223        1.16437       -0.77870       17.29414       23.73093     6342.10822
15106.50000        1.66122        1.22989        1.12468       -0.77915       17.85569       24.87688     6334.87139
15107.00000        1.63395        1.19712        1.09796       -0.80200       18.25644       25.33643     6326.97666
15107.50000        1.60193        1.15900        1.07020       -0.82286       18.25760       25.33758     6319.08193
15108.00000        1.55336        1.04816        1.01882       -0.84740       18.25875       25.25353     6326.97666
15108.50000        1.42838        0.94792        0.93029       -0.82266       18.55990       25.18989     6344.73980
15109.00000        1.29621        0.85727        0.84938       -0.82591       19.24145       25.14064     6363.16084
15109.50000        1.17790        0.77236        0.77550       -0.87116       21.14220       24.94979     6381.58188
15110.00000        1.07079        0.71622        0.70805       -1.00922       21.82855       24.19134     6425.66079
15110.50000        0.97342        0.66416        0.64647       -0.92967       22.46450       23.43290     6469.08180
15111.00000        0.89875        0.61589        0.59473       -0.78613       23.06565       22.76565     6513.16072
15111.50000        0.83505        0.57393        0.56394       -0.81058       23.53360       22.46680     6469.08180
15112.00000        0.77093        0.53548        0.53473       -0.81103       23.80115       23.53475     6425.66079
15112.50000        0.71874        0.50737        0.50704       -0.73589       23.94870       24.40950     6381.58188
15113.00000        0.69695        0.49578        0.48764       -0.64154       24.01706       24.51025     6404.60817
15113.50000        0.72811        0.49960        0.49614       -0.54720       24.11684       24.51164     6424.34500
15114.00000        0.85064        0.58394        0.54800       -0.45285       23.97279       24.11319     6443.42393
15114.50000        1.03928        0.70420        0.65933       -0.37010       22.47394       22.51354     6447.37130
15115.00000        1.25656        0.85719        0.76922       -0.28696       19.25190       21.85830     6447.37130
15115.50000        1.51912        1.01066        0.89734       -0.25430       16.40426       22.08865     6447.37130
