~Version ---------------------------------------------------
VERS. 2.0 : CWLS LOG ASCII STANDARD - VERSION 2.0
WRAP. NO  : One line per depth step
DLM . SPACE : Column Data Section Delimiter
~Well ------------------------------------------------------
STRT.F      13770.5 : START DEPTH
STOP.F      16230.0 : STOP DEPTH
STEP.F          0.5 : STEP
NULL.       -999.25 : NULL VALUE
COMP.                  HILCORP ENERGY CO. : COMPANY
WELL.          212648-SL3306-015-03306-10 : WELL
FLD .                       REDFISH POINT : FIELD
CNTY.                           VERMILION : COUNTY
STAT.                           LOUISIANA : STATE
CTRY.                                 USA : COUNTRY
SEC .                                     : SECTION
TWP .                                     : TOWNSHIP
RGE .                                     : RANGE
LOC . LAT 29*40'57.085"N LONG 92*2'43.95"W : LOCATION
EKB .F                       41 : ELEVATION KELLY BUSHING
EDF .F                       41 : ELEVATION DERRICK FLOOR
EGL .F                          : ELEVATION GROUND LEVEL
PDAT.                       MSL : PERMANENT DATUM
EPD .                           : ELEVATION PERMANENT DATUM
APD .                           : ABOVE PERMANENT DATUM
LMF .                        KB : LOG MEASURED FROM
DMF .                        KB : DRILLING MEASURED FROM
API .            17113217870000 : API NUMBER
UWI .                           : UWI NUMBER
DIGC.                     NthDS : DIGITIZING COMPANY
~Params ----------------------------------------------------
SRVC.               WEATHERFORD : LOGGING COMPANY
LOG .                AIT/DSN/SD : LOG
DATE.                2012-02-23 : RUN DATE
RUN .                         1 : RUN NUMBER
TDD .F                    16230 : TOTAL DEPTH DRILLER
TDL .F                    16230 : TOTAL DEPTH LOGGER
BOTL.F                    16220 : BOTTOM LOGGED INTERVAL
TOPL.F                    10000 : TOP LOGGED INTERVAL
CSGS.IN                   7.625 : CASING SIZE
CSGD.F                    13602 : CASING DRILLER
CSGL.F                    13605 : CASING LOGGER
BS  .IN                   6.750 : BIT SIZE
MUD .                       OBM : MUD TYPE
MUDD.                        12 : MUD DENSITY
MUDV.                        56 : MUD VISCOSITY
PH  .                           : MUD PH
FL  .                           : FLUID LOSS
MUDS.                           : SOURCE OF SAMPLE
RM  .OHMM                       : MUD RESISTIVITY
RMT .DEGF                       : RM TEMPERATURE
RMF .OHMM                       : MUD FILTRATE RESISTIVITY
RMFT.DEGF                       : RMF TEMPERATURE
RMC .OHMM                       : MUD CAKE RESISTIVITY
RMCT.DEGF                       : RMC TEMPERATURE
RMFS.                           : RMF SOURCE
RMCS.                           : RMC SOURCE
RMBH.OHMM                       : MUD RESISTIVITY AT BHT
BHT .DEGF                       : BOTTOM HOLE TEMPERATURE
TIMC.                           : TIME CIRCULATION STOPPED
TIML.           0453 2012-02-23 : TIME LOGGER ON BOTTOM
TMAX.DEGF                   272 : MAXIMUM RECORDED TEMPERATURE
UNIT.                      1214 : EQUIPMENT NUMBER
BASE.                NEW IBERIA : BASE LOCATION
ENG .               P. SPOELKER : RECORDED BY
WIT .                 F. GUIDRY : WITNESSED BY
~Curve Information -----------------------------------------
DEPT.F          :DEPTH
AI1R10.OHMM     :
AI1R30.OHMM     :
AI1R60.OHMM     :
DCAL.IN         :
DPHI.%          :
NPHI.%          :
TENS.LBS        :
~ASCII ------------------------------------------------------
# ...
14909.00000        2.87249        2.40876        2.21415       -0.32000        9.96001       28.16281     6378.29240
14909.50000        2.84211        2.49698        2.26174       -0.32000       11.12041       28.89601     6371.71346
14910.00000        3.18212        2.70267        2.51552       -0.32000       13.11961       29.04001     6365.79241
14910.50000        3.49138        2.94920        2.76434       -0.32000       15.12001       29.52001     6358.55558
14911.00000        3.45126        2.84211        2.75159       -0.29680       14.88001       30.12001     6352.63453
14911.50000        3.20842        2.55940        2.53772       -0.25800       13.40761       33.12001     6346.71348
14912.00000        2.68052        2.30460        2.24507       -0.21920       11.93401       36.22321     6340.79243
14912.50000        2.36943        2.07536        2.01243       -0.18080       10.74841       39.73680     6334.87139
14913.00000        2.29758        2.08749        1.98159       -0.14200        8.68801       39.24001     6328.95034
14913.50000        2.29758        2.13059        2.08826       -0.10320        5.49601       33.82201     6323.02929
14914.00000        2.40631        2.22317        2.20047       -0.08000        3.70321       28.09801     6317.10824
14914.50000        2.52018        2.31978        2.31893       -0.08000        3.36001       23.06401     6315.79245
14915.00000        2.63676        2.42059        2.45122       -0.08000        3.86041       21.00001     6315.79245
14915.50000        2.74727        2.52578        2.35262       -0.08000        5.24041       20.85601     6315.79245
14916.00000        2.83345        2.49698        2.25006       -0.08000        6.84001       20.31961     6315.79245
14916.50000        2.63944        2.30375        2.12233       -0.08600        7.95001       20.08441     6315.79245
14917.00000        2.44556        2.11137        1.97866       -0.09560        8.32441       20.16001     6315.79245
14917.50000        2.36221        1.96335        1.86651       -0.10520        9.28561       21.00961     6315.79245
14918.00000        2.35240        1.92257        1.80023       -0.11520       10.39441       21.86041     6315.79245
14918.50000        2.34242        1.88245        1.76218       -0.12480       11.31961       22.14841     6346.05559
14919.00000        2.32472        1.84335        1.72494       -0.13480       11.52001       22.05001     6383.55556
14919.50000        2.30524        1.80506        1.65647       -0.14440       11.72041       21.60001     6421.05553
14920.00000        2.13374        1.67929        1.56837       -0.15400       12.43201       21.63001     6458.55550
14920.50000        1.97555        1.50988        1.45370       -0.15640       14.88001       22.28041     6503.95020
14921.00000        1.96027        1.42482        1.34742       -0.14680       16.08001       22.56001     6541.45017
14921.50000        1.94528        1.38879        1.28595       -0.13600       16.29001       21.36001     6578.95014
14922.00000        1.88089        1.35354        1.25134       -0.12640       15.84001       20.16001     6547.37121
14922.50000        1.81880        1.31919        1.21778       -0.11720       15.96001       20.61001     6515.13440
14923.00000        1.83349        1.34381        1.20367       -0.10800       16.65961       20.88001     6483.55548
14923.50000        1.90963        1.36890        1.26600       -0.09880       17.36041       20.88001     6451.31866
14924.00000        2.00000        1.43368        1.33144       -0.08920       17.20801       21.36001     6419.73974
14924.50000        2.09464        1.50152        1.38635       -0.08000       15.76801       21.84001     6388.16082
14925.00000        2.19377        1.57258        1.44366       -0.08000       13.84801       21.54001     6381.58188
14925.50000        2.35349        1.66230        1.51547       -0.08000       12.06721       22.08001     6381.58188
14926.00000        2.51087        1.74096        1.62011       -0.08000       10.80001       21.30001     6381.58188
14926.50000        2.67878        1.84182        1.72016       -0.08000       11.79961       20.60041     6381.58188
14927.00000        2.80555        1.96172        1.77674       -0.08000       12.84001       21.60001     6381.58188
14927.50000        2.92476        2.02700        1.81880       -0.08000       13.46401       20.13361     6381.58188
14928.00000        2.92746        2.00166        1.79590       -0.08000       13.38001       19.00801     6381.58188
14928.50000        2.90052        1.97427        1.77346       -0.08000       12.07201       19.16521     6381.58188
14929.00000        2.87382        1.93810        1.73053       -0.08000       10.88041       18.99481     6381.58188
14929.50000        2.78796        1.89748        1.68879       -0.07520       10.89001       18.32041     6381.58188
14930.00000        2.69070        1.83773        1.64791       -0.06360       12.86401       17.88001     6381.58188
14930.50000        2.61031        1.77970        1.59823       -0.05160       13.93201       18.27961     6381.58188
14931.00000        2.63140        1.81376        1.67325       -0.04000       13.99201       18.08521     6381.58188
14931.50000        2.84211        1.92915        1.79142       -0.04000       13.95001       17.97601     6381.58188
14932.00000        3.06969        2.12587        1.92417       -0.04000       12.63961       18.29161     6381.58188
14932.50000        3.31580        2.34263        2.06674       -0.04000       10.45201       18.72001     6381.58188
14933.00000        3.66507        2.58151        2.21968       -0.04000        9.91201       18.21961     6381.58188
14933.50000        4.09520        2.80918        2.40631       -0.04000        9.01681       18.24001     6381.58188
14934.00000        4.00161        2.85739        2.52018       -0.04000        6.70321       19.11961     6381.58188
14934.50000        3.91016        2.90642        2.57507       -0.04000        4.80001       20.00041     6381.58188
14935.00000        3.82080        2.95630        2.61514       -0.04000        3.63001       20.88001     6381.58188
14935.50000        4.13515        3.28436        2.82769       -0.04000        4.02841       21.22321     6381.58188
14936.00000        4.79013        3.86915        3.35962       -0.04000        4.46641       20.72041     6381.58188
14936.50000        4.96144        4.12942        3.82539       -0.04000        4.53361       19.65361     6381.58188
14937.00000        4.34367        3.83602        3.67355       -0.04000        5.16001       20.22001     6381.58188
14937.50000        3.80317        3.61458        3.44329       -0.04000        6.15961       21.08041     6381.58188
14938.00000        3.39774        3.40592        3.17565       -0.04000        6.16801       21.48001     6381.58188
14938.50000        3.29075        3.20931        2.96616       -0.04000        6.00001       23.07961     6381.58188
14939.00000        3.18683        3.04143        2.91369       -0.04000        6.26641       23.76001     6381.58188
14939.50000        3.11400        2.94920        2.86241       -0.04000        6.44041       24.50401     6381.58188
14940.00000        3.06033        2.80451        2.72954       -0.03880        6.24001       26.70721     6381.58188
14940.50000        2.67631        2.58964        2.44556       -0.03680        4.98001       30.03961     6381.58188
14941.00000        2.34047        2.39144        2.24944       -0.03520        5.28001       32.04001     6381.58188
14941.50000        2.31357        2.20842        2.13769       -0.03360        5.58001       32.04001     6381.58188
14942.00000        2.32429        2.21251        2.16155       -0.03160        5.55841       31.64041     6381.58188
14942.50000        2.36943        2.25235        2.19661       -0.03000        5.05321       30.96001     6381.58188
14943.00000        2.40631        2.29270        2.25548       -0.02800        4.54681       29.11441     6381.58188
