~Version ---------------------------------------------------
VERS. 2.0 : CWLS LOG ASCII STANDARD - VERSION 2.0
WRAP. NO  : One line per depth step
DLM . SPACE : Column Data Section Delimiter
~Well ------------------------------------------------------
STRT.F         5380 : START DEPTH
STOP.F      13830.0 : STOP DEPTH
STEP.F          0.5 : STEP
NULL.       -999.25 : NULL VALUE
COMP.                  HILCORP ENERGY CO. : COMPANY
WELL.          212648-SL3306-015-03306-10 : WELL
FLD .                       REDFISH POINT : FIELD
CNTY.                           VERMILION : COUNTY
STAT.                           LOUISIANA : STATE
CTRY.                                 USA : COUNTRY
SEC .                                     : SECTION
TWP .                                     : TOWNSHIP
RGE .                                     : RANGE
LOC . LAT 29*40'57.085"N LONG 92*2'43.95"W : LOCATION
EKB .F                       41 : ELEVATION KELLY BUSHING
EDF .F                       41 : ELEVATION DERRICK FLOOR
EGL .F                          : ELEVATION GROUND LEVEL
PDAT.                       MSL : PERMANENT DATUM
EPD .                           : ELEVATION PERMANENT DATUM
APD .                           : ABOVE PERMANENT DATUM
LMF .                        KB : LOG MEASURED FROM
DMF .                        KB : DRILLING MEASURED FROM
API .            17113217870000 : API NUMBER
UWI .                           : UWI NUMBER
DIGC.                     NthDS : DIGITIZING COMPANY
~Params ----------------------------------------------------
SRVC.               WEATHERFORD : LOGGING COMPANY
LOG .               IND/DEN/NEU : LOG
DATE.                2012-02-05 : RUN DATE
RUN .                         1 : RUN NUMBER
TDD .F                    13805 : TOTAL DEPTH DRILLER
TDL .F                    13822 : TOTAL DEPTH LOGGER
BOTL.F                    13822 : BOTTOM LOGGED INTERVAL
TOPL.F                     5398 : TOP LOGGED INTERVAL
CSGS.IN                         : CASING SIZE
CSGD.F                     5389 : CASING DRILLER
CSGL.F                     5389 : CASING LOGGER
BS  .IN                     8.5 : BIT SIZE
MUD .                 OIL BASED : MUD TYPE
MUDD.                        12 : MUD DENSITY
MUDV.                        72 : MUD VISCOSITY
PH  .                           : MUD PH
FL  .                       2.8 : FLUID LOSS
MUDS.                           : SOURCE OF SAMPLE
RM  .OHMM                       : MUD RESISTIVITY
RMT .DEGF                       : RM TEMPERATURE
RMF .OHMM                       : MUD FILTRATE RESISTIVITY
RMFT.DEGF                       : RMF TEMPERATURE
RMC .OHMM                       : MUD CAKE RESISTIVITY
RMCT.DEGF                       : RMC TEMPERATURE
RMFS.                           : RMF SOURCE
RMCS.                           : RMC SOURCE
RMBH.OHMM                       : MUD RESISTIVITY AT BHT
BHT .DEGF                   237 : BOTTOM HOLE TEMPERATURE
TIMC.                           : TIME CIRCULATION STOPPED
TIML.                           : TIME LOGGER ON BOTTOM
TMAX.DEGF                   237 : MAXIMUM RECORDED TEMPERATURE
UNIT.                     13028 : EQUIPMENT NUMBER
BASE.                      BRSD : BASE LOCATION
ENG .                 F. GUIDRY : RECORDED BY
WIT .             AXXIS LIBERTY : WITNESSED BY
~Curve Information -----------------------------------------
DEPT.F          :DEPTH
AI2R20.OHMM     :
AI2R40.OHMM     :
AI2R85.OHMM     :
DCAL.IN         :
DRHO.G/CC       :
GR.GAPI         :
NPHI.%          :
TENS.LBF        :
~ASCII ------------------------------------------------------
# ...
8232.00000        0.93615        0.82059        0.78876        0.54166        -999.25       62.42602        -999.25     2239.76577
8232.50000        0.87263        0.79716        0.76233        0.52658        -999.25       63.31359        -999.25     2220.68029
8233.00000        0.81342        0.77327        0.73202        0.49047        -999.25       63.90531        -999.25     2201.59481
8233.50000        0.74327        0.70917        0.66883        0.44722        -999.25       66.27217        -999.25     2178.53318
8234.00000        0.72443        0.65979        0.62032        0.41111        -999.25       70.11833        -999.25     2159.44770
8234.50000        0.71503        0.61389        0.57538        0.36190        -999.25       73.96448        -999.25     2140.36222
8235.00000        0.70575        0.58194        0.55932        0.30436        -999.25       80.47335        -999.25     2121.27674
8235.50000        0.66069        0.56735        0.55009        0.24643        -999.25       85.50294        -999.25     2102.19126
8236.00000        0.62402        0.54519        0.53045        0.18849        -999.25       85.20708        -999.25     2082.70816
8236.50000        0.61065        0.51885        0.50482        0.13055        -999.25       81.36093        -999.25     2069.18928
8237.00000        0.59757        0.49872        0.48324        0.12658        -999.25       76.03548        -999.25     2076.34633
8237.50000        0.58477        0.49872        0.47328        0.13611        -999.25       74.85205        -999.25     2083.90100
8238.00000        0.58098        0.50178        0.46356        0.14563        -999.25       79.58578        -999.25     2091.45567
8238.50000        0.59057        0.51728        0.48082        0.15476        -999.25       84.61536        -999.25     2099.01034
8239.00000        0.60030        0.53326        0.49872        0.17262        -999.25       84.02365        -999.25     2106.16740
8239.50000        0.62567        0.54979        0.52385        0.19603        -999.25       78.69821        -999.25     2113.72207
8240.00000        0.66311        0.56678        0.55029        0.21944        -999.25       80.76921        -999.25     2121.27674
8240.50000        0.68485        0.58407        0.57198        0.25397        -999.25       84.91122        -999.25     2128.43379
8241.00000        0.68042        0.60146        0.58519        0.33333        -999.25       86.68637        -999.25     2135.98846
8241.50000        0.69246        0.61936        0.59691        0.41270        -999.25       87.57394        -999.25     2143.54313
8242.00000        0.70723        0.63090        0.61071        0.46587        -999.25       84.02365        -999.25     2150.70019
8242.50000        0.71660        0.63616        0.60976        0.44008        -999.25       81.36093        -999.25     2158.25486
8243.00000        0.72390        0.63984        0.60052        0.41389        -999.25       79.28992        -999.25     2165.80953
8243.50000        0.72802        0.64253        0.59441        0.38809        -999.25       77.51477        -999.25     2172.96659
8244.00000        0.73135        0.64324        0.60014        0.36230        -999.25       79.58578        -999.25     2180.52126
8244.50000        0.73202        0.64095        0.60598        0.35039        -999.25       80.76921        -999.25     2188.07593
8245.00000        0.73202        0.63873        0.61182        0.34246        -999.25       86.09465        -999.25     2195.23298
8245.50000        0.71876        0.63205        0.61188        0.33412        -999.25       89.94081        -999.25     2202.78765
8246.00000        0.70253        0.62442        0.60338        0.32579        -999.25       90.82838        -999.25     2210.34232
8246.50000        0.68397        0.61687        0.59495        0.31746        -999.25       89.05323        -999.25     2217.89699
8247.00000        0.66202        0.60792        0.57760        0.37024        -999.25       86.98223        -999.25     2225.05405
8247.50000        0.67460        0.59599        0.55855        0.42341        -999.25       85.20708        -999.25     2208.75187
8248.00000        0.68742        0.58253        0.54013        0.47619        -999.25       85.20708        -999.25     2186.08786
8248.50000        0.70048        0.57987        0.53654        0.44325        -999.25       86.68637        -999.25     2163.42384
8249.00000        0.70253        0.58739        0.54102        0.40992        -999.25       88.16566        -999.25     2140.75983
8249.50000        0.69722        0.59970        0.56393        0.37698        -999.25       89.34909        -999.25     2118.09582
8250.00000        0.69189        0.61071        0.58787        0.34405        -999.25       88.75737        -999.25     2095.43181
8250.50000        0.70048        0.62768        0.61149        0.39365        -999.25       86.09465        -999.25     2068.39405
8251.00000        0.70620        0.63246        0.62231        0.38571        -999.25       86.39051        -999.25     2045.73004
8251.50000        0.71196        0.63535        0.62442        0.37778        -999.25       87.57394        -999.25     2028.23501
8252.00000        0.71784        0.63826        0.62061        0.36984        -999.25       93.49110        -999.25     2029.03024
8252.50000        0.72371        0.63826        0.61687        0.36190        -999.25       98.81654        -999.25     2030.22308
8253.00000        0.72961        0.63826        0.61959        0.35357        -999.25      105.32542        -999.25     2031.41592
8253.50000        0.72901        0.64200        0.62670        0.34444        -999.25      112.13015        -999.25     2032.21115
8254.00000        0.72404        0.64831        0.63390        0.33531        -999.25      106.80471        -999.25     2033.40400
8254.50000        0.71909        0.65474        0.64148        0.32658        -999.25       98.81654        -999.25     2034.59684
8255.00000        0.71418        0.66810        0.64950        0.31746        -999.25       97.04140        -999.25     2035.78968
8255.50000        0.71797        0.68353        0.65600        0.32857        -999.25       93.19524        -999.25     2036.58491
8256.00000        0.72768        0.69933        0.65600        0.33968        -999.25       94.08282        -999.25     2037.77775
8256.50000        0.73752        0.71131        0.69113        0.35039        -999.25       92.89939        -999.25     2038.97059
8257.00000        0.74552        0.71680        0.70963        0.36151        -999.25       87.57394        -999.25     2040.16344
8257.50000        0.74552        0.70704        0.69297        0.37262        -999.25       83.13607        -999.25     2041.35628
8258.00000        0.74253        0.69569        0.66202        0.38373        -999.25       85.20708        -999.25     2042.15151
8258.50000        0.72463        0.67423        0.64506        0.39682        -999.25       88.16566        -999.25     2043.34435
8259.00000        0.71008        0.66914        0.63890        0.41349        -999.25       94.08282        -999.25     2044.53719
8259.50000        0.69576        0.66402        0.63274        0.42976        -999.25      101.18341        -999.25     2045.73004
8260.00000        0.70086        0.66202        0.62670        0.44643        -999.25       97.33725        -999.25     2046.52526
8260.50000        0.71086        0.66390        0.64118        0.46309        -999.25       92.60353        -999.25     2047.71811
8261.00000        0.72100        0.67331        0.65600        0.47936        -999.25       91.42010        -999.25     2048.91095
8261.50000        0.73135        0.68278        0.67300        0.49603        -999.25       95.26625        -999.25     2049.70618
8262.00000        0.74178        0.69423        0.69170        0.51270        -999.25       99.70412        -999.25     2050.89902
8262.50000        0.75236        0.70704        0.70144        0.51230        -999.25      102.07098        -999.25     2052.09186
