~Version ---------------------------------------------------
VERS. 2.0 : CWLS LOG ASCII STANDARD - VERSION 2.0
WRAP. NO  : One line per depth step
DLM . SPACE : Column Data Section Delimiter
~Well ------------------------------------------------------
STRT.F         5380 : START DEPTH
STOP.F      13830.0 : STOP DEPTH
STEP.F          0.5 : STEP
NULL.       -999.25 : NULL VALUE
COMP.                  HILCORP ENERGY CO. : COMPANY
WELL.          212648-SL3306-015-03306-10 : WELL
FLD .                       REDFISH POINT : FIELD
CNTY.                           VERMILION : COUNTY
STAT.                           LOUISIANA : STATE
CTRY.                                 USA : COUNTRY
SEC .                                     : SECTION
TWP .                                     : TOWNSHIP
RGE .                                     : RANGE
LOC . LAT 29*40'57.085"N LONG 92*2'43.95"W : LOCATION
EKB .F                       41 : ELEVATION KELLY BUSHING
EDF .F                       41 : ELEVATION DERRICK FLOOR
EGL .F                          : ELEVATION GROUND LEVEL
PDAT.                       MSL : PERMANENT DATUM
EPD .                           : ELEVATION PERMANENT DATUM
APD .                           : ABOVE PERMANENT DATUM
LMF .                        KB : LOG MEASURED FROM
DMF .                        KB : DRILLING MEASURED FROM
API .            17113217870000 : API NUMBER
UWI .                           : UWI NUMBER
DIGC.                     NthDS : DIGITIZING COMPANY
~Params ----------------------------------------------------
SRVC.               WEATHERFORD : LOGGING COMPANY
LOG .               IND/DEN/NEU : LOG
DATE.                2012-02-05 : RUN DATE
RUN .                         1 : RUN NUMBER
TDD .F                    13805 : TOTAL DEPTH DRILLER
TDL .F                    13822 : TOTAL DEPTH LOGGER
BOTL.F                    13822 : BOTTOM LOGGED INTERVAL
TOPL.F                     5398 : TOP LOGGED INTERVAL
CSGS.IN                         : CASING SIZE
CSGD.F                     5389 : CASING DRILLER
CSGL.F                     5389 : CASING LOGGER
BS  .IN                     8.5 : BIT SIZE
MUD .                 OIL BASED : MUD TYPE
MUDD.                        12 : MUD DENSITY
MUDV.                        72 : MUD VISCOSITY
PH  .                           : MUD PH
FL  .                       2.8 : FLUID LOSS
MUDS.                           : SOURCE OF SAMPLE
RM  .OHMM                       : MUD RESISTIVITY
RMT .DEGF                       : RM TEMPERATURE
RMF .OHMM                       : MUD FILTRATE RESISTIVITY
RMFT.DEGF                       : RMF TEMPERATURE
RMC .OHMM                       : MUD CAKE RESISTIVITY
RMCT.DEGF                       : RMC TEMPERATURE
RMFS.                           : RMF SOURCE
RMCS.                           : RMC SOURCE
RMBH.OHMM                       : MUD RESISTIVITY AT BHT
BHT .DEGF                   237 : BOTTOM HOLE TEMPERATURE
TIMC.                           : TIME CIRCULATION STOPPED
TIML.                           : TIME LOGGER ON BOTTOM
TMAX.DEGF                   237 : MAXIMUM RECORDED TEMPERATURE
UNIT.                     13028 : EQUIPMENT NUMBER
BASE.                      BRSD : BASE LOCATION
ENG .                 F. GUIDRY : RECORDED BY
WIT .             AXXIS LIBERTY : WITNESSED BY
~Curve Information -----------------------------------------
DEPT.F          :DEPTH
AI2R20.OHMM     :
AI2R40.OHMM     :
AI2R85.OHMM     :
DCAL.IN         :
DRHO.G/CC       :
GR.GAPI         :
NPHI.%          :
TENS.LBF        :
~ASCII ------------------------------------------------------
# ...
9906.00000        0.94173        0.69933        0.63692        0.48492        -999.25       62.72188        -999.25     2589.66629
9906.50000        0.88800        0.69933        0.61457        0.48571        -999.25       61.24259        -999.25     2587.28060
9907.00000        0.84509        0.69933        0.59872        0.50873        -999.25       61.24259        -999.25     2584.89491
9907.50000        0.83442        0.69933        0.58327        0.53214        -999.25       63.01774        -999.25     2589.66629
9908.00000        0.82389        0.69933        0.57046        0.55555        -999.25       63.90531        -999.25     2594.43766
9908.50000        0.81357        0.69933        0.57302        0.55555        -999.25       65.38460        -999.25     2599.60664
9909.00000        0.83481        0.74436        0.64707        0.55555        -999.25       64.49703        -999.25     2604.37801
9909.50000        0.87879        0.88686        0.79476        0.55555        -999.25       60.94673        -999.25     2609.54700
9910.00000        1.19350        1.05664        0.97616        0.55555        -999.25       59.76330        -999.25     2614.71598
9910.50000        1.63834        1.30376        1.26654        0.58849        -999.25       55.32543        -999.25     2619.48735
9911.00000        1.72798        1.35019        1.18806        0.62182        -999.25       54.43786        -999.25     2624.65634
9911.50000        1.54853        1.03183        0.91778        0.65476        -999.25       53.84614        -999.25     2629.42771
9912.00000        0.81127        0.78962        0.70375        0.70555        -999.25       54.14200        -999.25     2634.59669
9912.50000        0.71105        0.60421        0.53959        0.78254        -999.25       57.39644        -999.25     2639.76568
9913.00000        0.70807        0.59419        0.47471        0.85992        -999.25       60.94673        -999.25     2644.53705
9913.50000        0.71353        0.59872        0.51220        0.93690        -999.25       64.20117        -999.25     2649.70603
9914.00000        0.75374        0.66003        0.59577        1.00079        -999.25       64.79288        -999.25     2654.47740
9914.50000        0.80045        0.72755        0.69297        1.06111        -999.25       64.49703        -999.25     2660.83923
9915.00000        0.86818        0.80206        0.74368        1.12143        -999.25       66.27217        -999.25     2665.61060
9915.50000        0.95124        0.84842        0.79804        1.18174        -999.25       71.00590        -999.25     2670.77959
9916.00000        1.04197        0.89754        0.84571        1.23928        -999.25       72.48519        -999.25     2675.55096
9916.50000        1.07269        0.95342        0.89337        1.28412        -999.25       69.23075        -999.25     2680.71994
9917.00000        1.10432        1.01928        0.94916        1.32936        -999.25       62.13016        -999.25     2685.88893
9917.50000        1.12983        1.08968        1.00982        1.37460        -999.25       58.57987        -999.25     2690.66030
9918.00000        1.15594        1.11008        1.07446        1.41944        -999.25       56.21300        -999.25     2695.82928
9918.50000        1.18265        1.12130        1.10765        1.35714        -999.25       56.21300        -999.25     2700.60065
9919.00000        1.19776        1.13501        1.13159        1.26785        -999.25       58.28401        -999.25     2703.38395
9919.50000        1.20997        1.13501        1.11445        1.17857        -999.25       59.76330        -999.25     2702.58872
9920.00000        1.17564        1.10099        1.07977        1.08928        -999.25       65.97632        -999.25     2701.79349
9920.50000        1.10351        1.02282        1.00927        1.00516        -999.25       71.00590        -999.25     2700.99827
9921.00000        1.04684        0.95604        0.95412        0.93928        -999.25       70.41418        -999.25     2699.80542
9921.50000        0.97465        0.89361        0.86422        0.87301        -999.25       68.63904        -999.25     2699.01019
9922.00000        0.90322        0.83519        0.78273        0.80674        -999.25       59.17158        -999.25     2698.21497
9922.50000        0.86517        0.80206        0.77327        0.74087        -999.25       52.66271        -999.25     2697.02212
9923.00000        0.87080        0.83442        0.78609        0.67460        -999.25       51.47928        -999.25     2696.22690
9923.50000        1.16740        0.96640        0.90157        0.60833        -999.25       50.59170        -999.25     2695.43167
9924.00000        1.56517        1.35513        1.32332        0.59524        -999.25       49.11241        -999.25     2694.63644
9924.50000        1.79640        1.77600        1.67910        0.79365        -999.25       48.52070        -999.25     2693.84121
9925.00000        1.82535        1.62522        1.71226        0.99206        -999.25       48.22484        -999.25     2693.04598
9925.50000        1.65579        1.45444        1.54641        1.19047        -999.25       49.11241        -999.25     2691.85314
9926.00000        1.50212        1.30173        1.39649        1.38889        -999.25       48.22484        -999.25     2691.05791
9926.50000        1.36258        1.26457        1.27431        1.32024        -999.25       48.81656        -999.25     2690.26268
9927.00000        1.44504        1.31873        1.30173        1.25158        -999.25       50.59170        -999.25     2689.46745
9927.50000        1.44504        1.37509        1.31584        1.18293        -999.25       55.02957        -999.25     2688.67223
9928.00000        1.38316        1.31368        1.26238        1.11428        -999.25       59.46744        -999.25     2687.87700
9928.50000        1.29959        1.24975        1.20677        1.04563        -999.25       65.97632        -999.25     2686.68415
9929.00000        1.22108        1.18557        1.13802        0.99206        -999.25       68.34318        -999.25     2685.88893
9929.50000        1.18958        1.12468        1.09028        0.94246        -999.25       71.89347        -999.25     2685.09370
9930.00000        1.17726        1.09427        1.04875        0.89285        -999.25       69.52661        -999.25     2683.90085
9930.50000        1.17726        1.04159        1.00100        0.83809        -999.25       66.27217        -999.25     2683.10563
9931.00000        1.17726        1.00329        0.96287        0.79484        -999.25       64.49703        -999.25     2682.31040
9931.50000        1.17146        0.98063        0.92409        0.75158        -999.25       62.42602        -999.25     2681.51517
9932.00000        1.09197        0.94397        0.88686        0.70793        -999.25       62.72188        -999.25     2680.71994
9932.50000        1.01788        0.86146        0.79237        0.66468        -999.25       63.60945        -999.25     2679.92471
9933.00000        0.89664        0.77575        0.70788        0.62143        -999.25       66.86389        -999.25     2678.73187
9933.50000        0.83442        0.69856        0.63246        0.59047        -999.25       68.63904        -999.25     2677.93664
9934.00000        0.82600        0.64902        0.60080        0.57897        -999.25       68.63904        -999.25     2677.14141
9934.50000        0.82435        0.63199        0.57681        0.56706        -999.25       66.86389        -999.25     2676.34618
9935.00000        0.82435        0.61535        0.56280        0.55555        -999.25       64.79288        -999.25     2675.55096
9935.50000        0.81417        0.59691        0.54914        0.53214        -999.25       63.01774        -999.25     2674.75573
9936.00000        0.80404        0.59637        0.52046        0.50873        -999.25       63.31359        -999.25     2673.56288
9936.50000        0.83526        0.60239        0.52409        0.48571        -999.25       63.90531        -999.25     2672.76766
