~Version ---------------------------------------------------
VERS. 2.0 : CWLS LOG ASCII STANDARD - VERSION 2.0
WRAP. NO  : One line per depth step
DLM . SPACE : Column Data Section Delimiter
~Well ------------------------------------------------------
STRT.F         5380 : START DEPTH
STOP.F      13830.0 : STOP DEPTH
STEP.F          0.5 : STEP
NULL.       -999.25 : NULL VALUE
COMP.                  HILCORP ENERGY CO. : COMPANY
WELL.          212648-SL3306-015-03306-10 : WELL
FLD .                       REDFISH POINT : FIELD
CNTY.                           VERMILION : COUNTY
STAT.                           LOUISIANA : STATE
CTRY.                                 USA : COUNTRY
SEC .                                     : SECTION
TWP .                                     : TOWNSHIP
RGE .                                     : RANGE
LOC . LAT 29*40'57.085"N LONG 92*2'43.95"W : LOCATION
EKB .F                       41 : ELEVATION KELLY BUSHING
EDF .F                       41 : ELEVATION DERRICK FLOOR
EGL .F                          : ELEVATION GROUND LEVEL
PDAT.                       MSL : PERMANENT DATUM
EPD .                           : ELEVATION PERMANENT DATUM
APD .                           : ABOVE PERMANENT DATUM
LMF .                        KB : LOG MEASURED FROM
DMF .                        KB : DRILLING MEASURED FROM
API .            17113217870000 : API NUMBER
UWI .                           : UWI NUMBER
DIGC.                     NthDS : DIGITIZING COMPANY
~Params ----------------------------------------------------
SRVC.               WEATHERFORD : LOGGING COMPANY
LOG .               IND/DEN/NEU : LOG
DATE.                2012-02-05 : RUN DATE
RUN .                         1 : RUN NUMBER
TDD .F                    13805 : TOTAL DEPTH DRILLER
TDL .F                    13822 : TOTAL DEPTH LOGGER
BOTL.F                    13822 : BOTTOM LOGGED INTERVAL
TOPL.F                     5398 : TOP LOGGED INTERVAL
CSGS.IN                         : CASING SIZE
CSGD.F                     5389 : CASING DRILLER
CSGL.F                     5389 : CASING LOGGER
BS  .IN                     8.5 : BIT SIZE
MUD .                 OIL BASED : MUD TYPE
MUDD.                        12 : MUD DENSITY
MUDV.                        72 : MUD VISCOSITY
PH  .                           : MUD PH
FL  .                       2.8 : FLUID LOSS
MUDS.                           : SOURCE OF SAMPLE
RM  .OHMM                       : MUD RESISTIVITY
RMT .DEGF                       : RM TEMPERATURE
RMF .OHMM                       : MUD FILTRATE RESISTIVITY
RMFT.DEGF                       : RMF TEMPERATURE
RMC .OHMM                       : MUD CAKE RESISTIVITY
RMCT.DEGF                       : RMC TEMPERATURE
RMFS.                           : RMF SOURCE
RMCS.                           : RMC SOURCE
RMBH.OHMM                       : MUD RESISTIVITY AT BHT
BHT .DEGF                   237 : BOTTOM HOLE TEMPERATURE
TIMC.                           : TIME CIRCULATION STOPPED
TIML.                           : TIME LOGGER ON BOTTOM
TMAX.DEGF                   237 : MAXIMUM RECORDED TEMPERATURE
UNIT.                     13028 : EQUIPMENT NUMBER
BASE.                      BRSD : BASE LOCATION
ENG .                 F. GUIDRY : RECORDED BY
WIT .             AXXIS LIBERTY : WITNESSED BY
~Curve Information -----------------------------------------
DEPT.F          :DEPTH
AI2R20.OHMM     :
AI2R40.OHMM     :
AI2R85.OHMM     :
DCAL.IN         :
DRHO.G/CC       :
GR.GAPI         :
NPHI.%          :
TENS.LBF        :
~ASCII ------------------------------------------------------
# ...
8790.00000        0.70022        0.64962        0.63078        1.07143        -999.25       98.52069        -999.25     2580.12354
8790.50000        0.70388        0.64177        0.62670        1.01111        -999.25       93.49110        -999.25     2533.20507
8791.00000        0.69481        0.63402        0.62146        0.93531        -999.25       86.98223        -999.25     2494.23887
8791.50000        0.68579        0.63246        0.61625        0.85992        -999.25       83.43193        -999.25     2467.99633
8792.00000        0.67423        0.63246        0.61004        0.76905        -999.25       84.61536        -999.25     2441.35618
8792.50000        0.66402        0.63055        0.60493        0.64801        -999.25       86.09465        -999.25     2414.71603
8793.00000        0.65402        0.62573        0.59987        0.51587        -999.25       91.71595        -999.25     2382.90689
8793.50000        0.65003        0.62100        0.59484        0.38373        -999.25      102.07098        -999.25     2356.66435
8794.00000        0.65003        0.61631        0.58986        0.27976        -999.25      106.50885        -999.25     2624.25872
8794.50000        0.65003        0.60837        0.58535        0.29047        -999.25      111.83429        -999.25     2624.25872
8795.00000        0.65003        0.59976        0.58114        0.30079        -999.25      111.24258        -999.25     2622.66827
8795.50000        0.64388        0.59127        0.57696        0.31111        -999.25      109.46743        -999.25     2615.11360
8796.00000        0.63779        0.58589        0.57281        0.32182        -999.25      102.36684        -999.25     2607.55892
8796.50000        0.63176        0.58253        0.57198        0.33214        -999.25       98.22483        -999.25     2599.60664
8797.00000        0.62573        0.58922        0.57198        0.34246        -999.25       96.74554        -999.25     2592.05197
8797.50000        0.62848        0.60421        0.58253        0.35278        -999.25       97.92897        -999.25     2584.49730
8798.00000        0.66730        0.63390        0.60976        0.34484        -999.25      100.88755        -999.25     2584.49730
8798.50000        0.70859        0.67116        0.65152        0.32420        -999.25      103.55027        -999.25     2584.49730
8799.00000        0.75236        0.71060        0.70575        0.30397        -999.25      102.36684        -999.25     2584.49730
8799.50000        0.74907        0.72205        0.70375        0.28333        -999.25       97.33725        -999.25     2499.40786
8800.00000        0.74586        0.72318        0.70176        0.26270        -999.25       97.04140        -999.25     2413.92080
8800.50000        0.73524        0.70684        0.69297        0.19841        -999.25      100.29583        -999.25     2271.97253
8801.00000        0.73202        0.71223        0.69297        0.21270        -999.25      104.43784        -999.25     2186.88308
8801.50000        0.74647        0.71765        0.69297        0.22658        -999.25      104.73370        -999.25     2223.06598
8802.00000        0.76128        0.73115        0.69297        0.23611        -999.25      104.14199        -999.25     2259.24887
8802.50000        0.77631        0.74688        0.69297        0.22619        -999.25      102.36684        -999.25     2295.43176
8803.00000        0.79164        0.76295        0.69297        0.21627        -999.25      101.18341        -999.25     2331.61466
8803.50000        0.79266        0.76624        0.69550        0.20635        -999.25       99.99998        -999.25     2367.79755
8804.00000        0.79013        0.75539        0.69978        0.20238        -999.25      100.29583        -999.25     2403.58283
8804.50000        0.78753        0.74470        0.70401        0.22222        -999.25      100.88755        -999.25     2422.66831
8805.00000        0.78330        0.73409        0.69907        0.24206        -999.25       99.40826        -999.25     2415.51126
8805.50000        0.77909        0.71876        0.68811        0.26190        -999.25       95.26625        -999.25     2408.35420
8806.00000        0.77497        0.70253        0.67732        0.27024        -999.25       91.12424        -999.25     2401.19715
8806.50000        0.77539        0.68666        0.66669        0.23254        -999.25       86.68637        -999.25     2394.04009
8807.00000        0.77894        0.68042        0.65624        0.19444        -999.25       87.27809        -999.25     2387.28065
8807.50000        0.78251        0.68042        0.65003        0.15674        -999.25       96.15382        -999.25     2396.82339
8808.00000        0.78609        0.68335        0.65003        0.11905        -999.25      102.95855        -999.25     2410.73989
8808.50000        0.78847        0.70106        0.65003        0.08651        -999.25      111.24258        -999.25     2424.65639
8809.00000        0.78962        0.71614        0.67257        0.05952        -999.25      110.94672        -999.25     2438.57288
8809.50000        0.79078        0.73035        0.70189        0.03254        -999.25      109.46743        -999.25     2452.09177
8810.00000        0.79193        0.74300        0.73249        0.00555        -999.25      109.17157        -999.25     2466.00826
8810.50000        0.79309        0.74253        0.72755        0.02381        -999.25      108.28400        -999.25     2482.70806
8811.00000        0.79432        0.73874        0.71385        0.05357        -999.25      108.57986        -999.25     2496.62456
8811.50000        0.79353        0.75126        0.71686        0.08333        -999.25      107.69228        -999.25     2508.15537
8812.00000        0.79157        0.76400        0.74552        0.11309        -999.25      107.98814        -999.25     2515.71004
8812.50000        0.78955        0.77702        0.76526        0.11905        -999.25      109.46743        -999.25     2523.26471
8813.00000        0.78753        0.79869        0.79913        0.11905        -999.25      110.35500        -999.25     2530.81938
8813.50000        0.79964        0.85683        0.84416        0.11905        -999.25      110.94672        -999.25     2538.77167
8814.00000        0.96817        0.91920        0.87719        0.11905        -999.25      111.53843        -999.25     2538.77167
8814.50000        0.89705        0.87343        0.86762        0.11905        -999.25      106.50885        -999.25     2508.55298
8815.00000        0.79114        0.76547        0.77200        0.11905        -999.25      104.73370        -999.25     2478.33430
8815.50000        0.69773        0.67079        0.65110        0.11905        -999.25       96.15382        -999.25     2448.51324
8816.00000        0.66081        0.58787        0.57723        0.11905        -999.25       99.11240        -999.25     2418.29456
8816.50000        0.63710        0.60146        0.57198        0.10952        -999.25      103.25441        -999.25     2388.07588
8817.00000        0.64707        0.61817        0.60421        0.09008        -999.25      105.32542        -999.25     2357.85720
8817.50000        0.66202        0.63246        0.60976        0.07381        -999.25      105.32542        -999.25     2417.49933
8818.00000        0.66920        0.65080        0.60976        0.05793        -999.25      108.28400        -999.25     2536.78359
8818.50000        0.67639        0.65900        0.61998        0.04166        -999.25      111.83429        -999.25     2584.49730
8819.00000        0.68372        0.65152        0.63298        0.02579        -999.25      113.31358        -999.25     2584.49730
8819.50000        0.70022        0.66609        0.65039        0.00952        -999.25      109.08577        -999.25     2596.02811
8820.00000        0.72344        0.68666        0.67116        0.00714        -999.25      104.86092        -999.25     2652.48933
8820.50000        0.74750        0.70118        0.69259        0.02460        -999.25      101.77512        -999.25     2720.87898
