~Version ---------------------------------------------------
VERS. 2.0 : CWLS LOG ASCII STANDARD - VERSION 2.0
WRAP. NO  : One line per depth step
DLM . SPACE : Column Data Section Delimiter
~Well ------------------------------------------------------
STRT.F         5380 : START DEPTH
STOP.F      13830.0 : STOP DEPTH
STEP.F          0.5 : STEP
NULL.       -999.25 : NULL VALUE
COMP.                  HILCORP ENERGY CO. : COMPANY
WELL.          212648-SL3306-015-03306-10 : WELL
FLD .                       REDFISH POINT : FIELD
CNTY.                           VERMILION : COUNTY
STAT.                           LOUISIANA : STATE
CTRY.                                 USA : COUNTRY
SEC .                                     : SECTION
TWP .                                     : TOWNSHIP
RGE .                                     : RANGE
LOC . LAT 29*40'57.085"N LONG 92*2'43.95"W : LOCATION
EKB .F                       41 : ELEVATION KELLY BUSHING
EDF .F                       41 : ELEVATION DERRICK FLOOR
EGL .F                          : ELEVATION GROUND LEVEL
PDAT.                       MSL : PERMANENT DATUM
EPD .                           : ELEVATION PERMANENT DATUM
APD .                           : ABOVE PERMANENT DATUM
LMF .                        KB : LOG MEASURED FROM
DMF .                        KB : DRILLING MEASURED FROM
API .            17113217870000 : API NUMBER
UWI .                           : UWI NUMBER
DIGC.                     NthDS : DIGITIZING COMPANY
~Params ----------------------------------------------------
SRVC.               WEATHERFORD : LOGGING COMPANY
LOG .               IND/DEN/NEU : LOG
DATE.                2012-02-05 : RUN DATE
RUN .                         1 : RUN NUMBER
TDD .F                    13805 : TOTAL DEPTH DRILLER
TDL .F                    13822 : TOTAL DEPTH LOGGER
BOTL.F                    13822 : BOTTOM LOGGED INTERVAL
TOPL.F                     5398 : TOP LOGGED INTERVAL
CSGS.IN                         : CASING SIZE
CSGD.F                     5389 : CASING DRILLER
CSGL.F                     5389 : CASING LOGGER
BS  .IN                     8.5 : BIT SIZE
MUD .                 OIL BASED : MUD TYPE
MUDD.                        12 : MUD DENSITY
MUDV.                        72 : MUD VISCOSITY
PH  .                           : MUD PH
FL  .                       2.8 : FLUID LOSS
MUDS.                           : SOURCE OF SAMPLE
RM  .OHMM                       : MUD RESISTIVITY
RMT .DEGF                       : RM TEMPERATURE
RMF .OHMM                       : MUD FILTRATE RESISTIVITY
RMFT.DEGF                       : RMF TEMPERATURE
RMC .OHMM                       : MUD CAKE RESISTIVITY
RMCT.DEGF                       : RMC TEMPERATURE
RMFS.                           : RMF SOURCE
RMCS.                           : RMC SOURCE
RMBH.OHMM                       : MUD RESISTIVITY AT BHT
BHT .DEGF                   237 : BOTTOM HOLE TEMPERATURE
TIMC.                           : TIME CIRCULATION STOPPED
TIML.                           : TIME LOGGER ON BOTTOM
TMAX.DEGF                   237 : MAXIMUM RECORDED TEMPERATURE
UNIT.                     13028 : EQUIPMENT NUMBER
BASE.                      BRSD : BASE LOCATION
ENG .                 F. GUIDRY : RECORDED BY
WIT .             AXXIS LIBERTY : WITNESSED BY
~Curve Information -----------------------------------------
DEPT.F          :DEPTH
AI2R20.OHMM     :
AI2R40.OHMM     :
AI2R85.OHMM     :
DCAL.IN         :
DRHO.G/CC       :
GR.GAPI         :
NPHI.%          :
TENS.LBF        :
~ASCII ------------------------------------------------------
# ...
11554.50000        1.33327        1.21152        1.19984       -0.11905        0.06844      104.70116       43.66864     3151.48338
11555.00000        1.31885        1.19198        1.17887       -0.11905        0.06417      102.13607       42.36687     3150.69442
11555.50000        1.30459        1.16272        1.15246       -0.11905        0.05925       99.99998       42.48521     3149.51099
11556.00000        1.26272        1.13169        1.11782       -0.11905        0.05433       99.11240       43.55030     3148.32756
11556.50000        1.21551        1.10160        1.08432       -0.11905        0.05848      101.50293       46.62722     3147.14413
11557.00000        1.17995        1.07220        1.05307       -0.11865        0.06614      103.89051       47.57397     3145.96070
11557.50000        1.15996        1.04732        1.02460       -0.11786        0.07380      104.94376       46.74557     3144.77726
11558.00000        1.17007        1.04923        1.02572       -0.11707        0.07866      103.99406       45.91716     3143.59383
11558.50000        1.18806        1.08333        1.07161       -0.11627        0.07240      103.04435       42.36687     3142.01592
11559.00000        1.24201        1.12345        1.11956       -0.11548        0.06614      103.44080       41.18344     3141.22697
11559.50000        1.29154        1.17253        1.16964       -0.11468        0.06831      104.14199       40.11835     3140.04354
11560.00000        1.34318        1.22387        1.22197       -0.11389        0.07047      101.18341       39.52663     3138.86011
11560.50000        1.38088        1.25789        1.23353       -0.11310        0.07262       98.22483       38.57989     3137.67667
11561.00000        1.39063        1.23646        1.22108       -0.11230        0.07478       96.15382       38.46154     3136.49324
11561.50000        1.40045        1.26272        1.24360       -0.11151        0.07695       95.26625       38.34320     3135.30981
11562.00000        1.41034        1.30173        1.28202       -0.11072        0.07911       93.78696       37.27811     3134.12638
11562.50000        1.42030        1.32574        1.31368       -0.10992        0.08126       92.60353       36.56805     3132.94295
11563.00000        1.47937        1.32115        1.31368       -0.10913        0.08386       92.60353       36.09468     3131.75952
11563.50000        1.48846        1.30997        1.30471       -0.10834        0.08276       93.49110       36.44971     3130.57608
11564.00000        1.43937        1.29876        1.27478       -0.10754        0.08167       94.08282       39.52663     3129.39265
11564.50000        1.37509        1.28437        1.26654       -0.10675        0.08057       92.89939       40.47338     3128.20922
11565.00000        1.31368        1.25708        1.22858       -0.10595        0.07852       93.19524       42.48521     3127.02579
11565.50000        1.29225        1.23026        1.19165       -0.10516        0.07506       94.97039       43.66864     3126.23684
11566.00000        1.28050        1.20413        1.18135       -0.10437        0.07157      100.29583       43.90533     3125.05340
11566.50000        1.26885        1.19897        1.18806       -0.10357        0.06811      103.25441       43.90533     3123.86997
11567.00000        1.32054        1.26318        1.22746       -0.10278        0.06614      101.18341       42.84024     3122.29206
11567.50000        1.45444        1.37509        1.32090       -0.10199        0.06921       97.04140       41.77515     3121.10863
11568.00000        1.71226        1.52982        1.46057       -0.10119        0.07228       97.92897       39.64498     3119.92520
11568.50000        1.69762        1.56274        1.53094       -0.10040        0.07537      102.07098       38.46154     3118.74177
11569.00000        1.68325        1.55008        1.50969       -0.09961        0.07459      105.32542       38.46154     3117.95281
11569.50000        1.66886        1.53444        1.47937       -0.09881        0.07317      105.32542       38.69823     3116.76938
11570.00000        1.65731        1.51452        1.47937       -0.09802        0.07211      103.84613       39.05326     3143.98831
11570.50000        1.64433        1.50666        1.47937       -0.09722        0.07246      101.77512       38.57989     3178.30783
11571.00000        1.63087        1.50666        1.47937       -0.09643        0.07280      100.88755       37.86983     3212.23287
11571.50000        1.60617        1.50666        1.47937       -0.09564        0.07313       99.70412       37.51480     3246.55239
11572.00000        1.58185        1.50666        1.47937       -0.09484        0.07346       99.11240       38.57989     3271.00998
11572.50000        1.56217        1.50666        1.47937       -0.09405        0.07382       99.99998       39.64498     3254.44193
11573.00000        1.55903        1.50666        1.47937       -0.09326        0.07222       98.81654       40.00000     3237.87389
11573.50000        1.55590        1.50666        1.47937       -0.09246        0.06776       96.15382       39.40829     3221.70032
11574.00000        1.55278        1.50666        1.47937       -0.09167        0.06482       94.97039       38.46154     3205.13228
11574.50000        1.54980        1.49023        1.46391       -0.09088        0.06811       95.26625       39.76332     3188.56424
11575.00000        1.57377        1.46994        1.43832       -0.09008        0.07140       96.74554       40.47338     3172.39067
11575.50000        1.61692        1.45258        1.41331       -0.08929        0.07549       94.97039       41.53847     3161.34531
11576.00000        1.66110        1.52745        1.49637       -0.08849        0.07919       92.89939       41.53847     3188.16976
11576.50000        1.70664        1.60617        1.56631       -0.08770        0.07992       90.53252       41.30178     3214.99421
11577.00000        1.74384        1.63087        1.61176       -0.08691        0.07935       90.53252       41.18344     3241.81866
11577.50000        1.74384        1.65579        1.62625       -0.08611        0.07795       90.53252       40.47338     3268.64311
11578.00000        1.74384        1.65579        1.63310       -0.08532        0.07655       90.53252       39.52663     3259.17566
11578.50000        1.74384        1.63908        1.62240       -0.08453        0.07472       88.46152       37.51480     3239.84628
11579.00000        1.77957        1.65292        1.60031       -0.08373        0.07262       89.94081       36.44971     3220.91137
11579.50000        1.87232        1.67910        1.62938       -0.08294        0.07049       91.12424       36.21302     3201.97646
11580.00000        1.88261        1.71226        1.68510       -0.08254        0.06955       92.89939       36.33137     3183.04156
11580.50000        1.82786        1.71226        1.68341       -0.08135        0.06890       93.78696       36.56805     3164.10665
11581.00000        1.79230        1.69158        1.66095       -0.08056        0.06825       95.26625       36.68640     3145.17174
11581.50000        1.79230        1.67099        1.63579       -0.07976        0.06909       96.74554       36.56805     3126.23684
11582.00000        1.79230        1.65081        1.63579       -0.07976        0.07008       99.99998       36.56805     3107.30193
11582.50000        1.82052        1.66596        1.65383       -0.08016        0.07254      101.18341       36.56805     3088.36702
11583.00000        1.88967        1.76161        1.75984       -0.08095        0.07315       97.63311       36.33137     3084.02777
11583.50000        2.05014        1.94006        1.92171       -0.08175        0.07094       89.94081       34.79291     3105.72402
11584.00000        2.22444        2.07445        2.09349       -0.08215        0.06876       77.36685       31.47930     3117.55834
11584.50000        2.30535        2.03688        2.03354       -0.08294        0.06657       71.30176       26.27220     3120.31968
