~Version ---------------------------------------------------
VERS. 2.0 : CWLS LOG ASCII STANDARD - VERSION 2.0
WRAP. NO  : One line per depth step
DLM . SPACE : Column Data Section Delimiter
~Well ------------------------------------------------------
STRT.F      13770.5 : START DEPTH
STOP.F      16230.0 : STOP DEPTH
STEP.F          0.5 : STEP
NULL.       -999.25 : NULL VALUE
COMP.                  HILCORP ENERGY CO. : COMPANY
WELL.          212648-SL3306-015-03306-10 : WELL
FLD .                       REDFISH POINT : FIELD
CNTY.                           VERMILION : COUNTY
STAT.                           LOUISIANA : STATE
CTRY.                                 USA : COUNTRY
SEC .                                     : SECTION
TWP .                                     : TOWNSHIP
RGE .                                     : RANGE
LOC . LAT 29*40'57.085"N LONG 92*2'43.95"W : LOCATION
EKB .F                       41 : ELEVATION KELLY BUSHING
EDF .F                       41 : ELEVATION DERRICK FLOOR
EGL .F                          : ELEVATION GROUND LEVEL
PDAT.                       MSL : PERMANENT DATUM
EPD .                           : ELEVATION PERMANENT DATUM
APD .                           : ABOVE PERMANENT DATUM
LMF .                        KB : LOG MEASURED FROM
DMF .                        KB : DRILLING MEASURED FROM
API .            17113217870000 : API NUMBER
UWI .                           : UWI NUMBER
DIGC.                     NthDS : DIGITIZING COMPANY
~Params ----------------------------------------------------
SRVC.               WEATHERFORD : LOGGING COMPANY
LOG .                AIT/DSN/SD : LOG
DATE.                2012-02-23 : RUN DATE
RUN .                         1 : RUN NUMBER
TDD .F                    16230 : TOTAL DEPTH DRILLER
TDL .F                    16230 : TOTAL DEPTH LOGGER
BOTL.F                    16220 : BOTTOM LOGGED INTERVAL
TOPL.F                    10000 : TOP LOGGED INTERVAL
CSGS.IN                   7.625 : CASING SIZE
CSGD.F                    13602 : CASING DRILLER
CSGL.F                    13605 : CASING LOGGER
BS  .IN                   6.750 : BIT SIZE
MUD .                       OBM : MUD TYPE
MUDD.                        12 : MUD DENSITY
MUDV.                        56 : MUD VISCOSITY
PH  .                           : MUD PH
FL  .                           : FLUID LOSS
MUDS.                           : SOURCE OF SAMPLE
RM  .OHMM                       : MUD RESISTIVITY
RMT .DEGF                       : RM TEMPERATURE
RMF .OHMM                       : MUD FILTRATE RESISTIVITY
RMFT.DEGF                       : RMF TEMPERATURE
RMC .OHMM                       : MUD CAKE RESISTIVITY
RMCT.DEGF                       : RMC TEMPERATURE
RMFS.                           : RMF SOURCE
RMCS.                           : RMC SOURCE
RMBH.OHMM                       : MUD RESISTIVITY AT BHT
BHT .DEGF                       : BOTTOM HOLE TEMPERATURE
TIMC.                           : TIME CIRCULATION STOPPED
TIML.           0453 2012-02-23 : TIME LOGGER ON BOTTOM
TMAX.DEGF                   272 : MAXIMUM RECORDED TEMPERATURE
UNIT.                      1214 : EQUIPMENT NUMBER
BASE.                NEW IBERIA : BASE LOCATION
ENG .               P. SPOELKER : RECORDED BY
WIT .                 F. GUIDRY : WITNESSED BY
~Curve Information -----------------------------------------
DEPT.F          :DEPTH
AI1R10.OHMM     :
AI1R30.OHMM     :
AI1R60.OHMM     :
DCAL.IN         :
DPHI.%          :
NPHI.%          :
TENS.LBS        :
~ASCII ------------------------------------------------------
# ...
15392.00000        1.86858        1.82217        1.76365       -0.56000       10.78476       39.37733     6328.29244
15392.50000        1.86841        1.81661        1.73133       -0.69320       11.59711       40.64568     6344.08191
15393.00000        1.85275        1.81108        1.69960       -0.80280       12.41066       41.02003     6359.87137
15393.50000        1.84830        1.81242        1.74531       -0.81600       13.06101       38.66078     6375.00293
15394.00000        1.88891        1.84233        1.81259       -0.82920       13.06216       36.01234     6390.79239
15394.50000        1.93058        1.87256        1.84676       -0.87240       13.30331       34.87709     6406.58186
15395.00000        1.97300        1.90346        1.85738       -1.03480       13.98486       36.01104     6422.37132
15395.50000        1.95249        1.89310        1.81494       -1.19760       14.14561       38.00899     6440.79235
15396.00000        1.91671        1.87256        1.77346       -1.36000       13.64636       39.64694     6469.08180
15396.50000        1.88158        1.85241        1.76936       -1.35120       12.34792       39.78849     6505.92388
15397.00000        1.93630        1.86772        1.78993       -1.34280       12.09467       38.67485     6513.16072
15397.50000        2.02681        1.93810        1.87464       -1.33400       11.79245       36.35040     6513.16072
15398.00000        2.16695        2.01113        1.96335       -1.32520       11.53921       35.95196     6504.60809
15398.50000        2.23472        2.04167        2.00000       -1.30840       11.28716       35.52951     6493.42389
15399.00000        2.16355        2.00574        1.93810       -1.28000       11.03391       35.01706     6482.23969
15399.50000        2.01858        1.97026        1.86772       -1.25160       10.57306       37.17821     6471.71338
15400.00000        2.03263        2.03188        1.88158       -1.22280       10.11730       38.64004     6460.52918
15400.50000        2.15855        2.11978        1.94888       -1.17440        9.72126       38.19120     6513.16072
15401.00000        2.28698        2.23018        2.08556       -1.01080        9.70081       38.04235     6513.16072
15401.50000        2.47400        2.42126        2.24881       -0.88680        9.86516       33.09351     6513.16072
15402.00000        2.72198        2.62872        2.42507       -0.92000        9.64431       28.14467     6513.16072
15402.50000        3.00898        2.85369        2.61514       -0.95320        8.81747       23.64584     6513.16072
15403.00000        3.32593        3.04903        2.89061       -0.94560        7.87542       19.44700     6513.16072
15403.50000        3.06798        2.69867        2.84211       -0.92720        9.60817       16.04856     6513.16072
15404.00000        2.46486        2.23162        2.24715       -0.90920       12.58531       17.01931     6513.16072
15404.50000        1.98031        1.90822        1.79607       -0.89080       15.70646       18.77005     6513.16072
15405.00000        1.68442        1.63184        1.57258       -0.88600       17.68161       20.27360     6513.16072
15405.50000        1.79939        1.70906        1.65555       -0.90480       18.43276       20.88338     6513.16072
15406.00000        1.73566        1.71761        1.69725       -0.92000       18.97414       21.39213     6513.16072
15406.50000        1.63184        1.62251        1.56532       -0.86120       20.57489       22.53568     6513.16072
15407.00000        1.52955        1.53281        1.50946       -0.80240       21.97644       23.83643     6513.16072
15407.50000        1.57258        1.51547        1.52010       -0.74360       23.12959       24.19758     6513.16072
15408.00000        1.71048        1.62116        1.61681       -0.68000       23.22674       23.11874     6513.16072
15408.50000        1.89205        1.85498        1.74096       -0.61320       21.89949       22.01949     6513.16072
15409.00000        2.23018        2.07536        2.03733       -0.56000       19.82105       21.07385     6513.16072
15409.50000        2.50022        2.32193        2.38416       -0.56000       18.14220       20.74260     6513.16072
15410.00000        2.29461        2.29355        2.14284       -0.51720       18.40736       20.60935     6513.16072
15410.50000        2.11684        2.08498        1.92595       -0.43160       18.38451       20.77370     6500.00283
15411.00000        2.00259        1.89538        1.80239       -0.36000       17.78566       20.98005     6478.29232
15411.50000        1.96335        1.79823        1.79209       -0.34880       17.36201       21.35681     6455.92392
15412.00000        2.15357        1.93630        1.89713       -0.33760       17.64036       20.78796     6434.21341
15412.50000        2.36221        2.17357        2.02325       -0.32680       17.91872       19.40911     6412.50290
15413.00000        2.44150        2.43992        2.13138       -0.32000       17.67027       17.86707     6390.13450
15413.50000        3.08220        3.02824        2.50855       -0.32000       15.72142       15.84982     6414.47659
15414.00000        4.44567        3.85380        3.08391       -0.32000       12.61578       13.83258     6469.08180
15414.50000        6.41289        4.90442        4.03878       -0.32000       12.67333       14.31396     6524.34492
15415.00000        5.99483        4.50568        3.41380       -0.40000       18.00871       17.55511     6578.95014
15415.50000        4.70452        3.39711        2.57578       -0.46480       21.54265       20.79625     6633.55536
15416.00000        3.52382        2.43789        1.96335       -0.38760       21.75740       21.84740     6619.73958
15416.50000        2.63944        1.74951        1.55810       -0.31080       20.55856       22.29855     6588.16066
15417.00000        2.12882        1.34170        1.29981       -0.28240       21.15971       22.74970     6550.66069
15417.50000        1.77970        1.20145        1.16329       -0.28640       22.66086       22.36086     6519.73966
15418.00000        1.48770        1.07575        1.04111       -0.29040       23.80201       22.00201     6513.16072
15418.50000        1.32530        0.96330        0.93176       -0.29440       23.53676       22.00316     6513.16072
15419.00000        1.18063        0.93409        0.88228       -0.29840       23.20431       22.10751     6513.16072
15419.50000        1.09523        0.90568        0.84734       -0.30240       22.60546       22.36546     6513.16072
15420.00000        1.08886        0.89461        0.81371       -0.30640       21.82662       21.76662     6513.16072
15420.50000        1.09239        0.89461        0.80473       -0.31120       21.23977       21.16777     6513.16072
15421.00000        1.10254        0.89461        0.81145       -0.31520       20.96132       20.86892     6522.37124
15421.50000        1.13776        0.89461        0.81831       -0.31920       20.68168       20.57008     6567.76594
15422.00000        1.19160        0.89461        0.82522       -0.33240       20.77186       20.39146     6613.16064
15422.50000        1.22886        0.90459        0.83513       -0.34760       21.02261       20.54261     6658.55534
15423.00000        1.27128        0.91722        0.85719       -0.34800       21.28656       20.69376     6703.95004
15423.50000        1.33144        0.97225        0.87976       -0.28800       21.56971       21.18931     6749.34474
15424.00000        1.39445        1.03048        0.90292       -0.22800       21.85406       21.68486     6759.87104
15424.50000        1.46044        1.04458        0.95823       -0.16800       22.13721       22.17921     6718.42371
15425.00000        1.52531        1.05897        1.01694       -0.11800       22.82356       22.91836     6677.63427
15425.50000        1.58572        1.07635        1.08134       -0.10680       22.79952       23.29152     6644.73956
15426.00000        1.69725        1.16394        1.11949       -0.09720       20.34067       22.87267     6644.73956
