~Version ---------------------------------------------------
VERS. 2.0 : CWLS LOG ASCII STANDARD - VERSION 2.0
WRAP. NO  : One line per depth step
DLM . SPACE : Column Data Section Delimiter
~Well ------------------------------------------------------
STRT.F      13770.5 : START DEPTH
STOP.F      16230.0 : STOP DEPTH
STEP.F          0.5 : STEP
NULL.       -999.25 : NULL VALUE
COMP.                  HILCORP ENERGY CO. : COMPANY
WELL.          212648-SL3306-015-03306-10 : WELL
FLD .                       REDFISH POINT : FIELD
CNTY.                           VERMILION : COUNTY
STAT.                           LOUISIANA : STATE
CTRY.                                 USA : COUNTRY
SEC .                                     : SECTION
TWP .                                     : TOWNSHIP
RGE .                                     : RANGE
LOC . LAT 29*40'57.085"N LONG 92*2'43.95"W : LOCATION
EKB .F                       41 : ELEVATION KELLY BUSHING
EDF .F                       41 : ELEVATION DERRICK FLOOR
EGL .F                          : ELEVATION GROUND LEVEL
PDAT.                       MSL : PERMANENT DATUM
EPD .                           : ELEVATION PERMANENT DATUM
APD .                           : ABOVE PERMANENT DATUM
LMF .                        KB : LOG MEASURED FROM
DMF .                        KB : DRILLING MEASURED FROM
API .            17113217870000 : API NUMBER
UWI .                           : UWI NUMBER
DIGC.                     NthDS : DIGITIZING COMPANY
~Params ----------------------------------------------------
SRVC.               WEATHERFORD : LOGGING COMPANY
LOG .                AIT/DSN/SD : LOG
DATE.                2012-02-23 : RUN DATE
RUN .                         1 : RUN NUMBER
TDD .F                    16230 : TOTAL DEPTH DRILLER
TDL .F                    16230 : TOTAL DEPTH LOGGER
BOTL.F                    16220 : BOTTOM LOGGED INTERVAL
TOPL.F                    10000 : TOP LOGGED INTERVAL
CSGS.IN                   7.625 : CASING SIZE
CSGD.F                    13602 : CASING DRILLER
CSGL.F                    13605 : CASING LOGGER
BS  .IN                   6.750 : BIT SIZE
MUD .                       OBM : MUD TYPE
MUDD.                        12 : MUD DENSITY
MUDV.                        56 : MUD VISCOSITY
PH  .                           : MUD PH
FL  .                           : FLUID LOSS
MUDS.                           : SOURCE OF SAMPLE
RM  .OHMM                       : MUD RESISTIVITY
RMT .DEGF                       : RM TEMPERATURE
RMF .OHMM                       : MUD FILTRATE RESISTIVITY
RMFT.DEGF                       : RMF TEMPERATURE
RMC .OHMM                       : MUD CAKE RESISTIVITY
RMCT.DEGF                       : RMC TEMPERATURE
RMFS.                           : RMF SOURCE
RMCS.                           : RMC SOURCE
RMBH.OHMM                       : MUD RESISTIVITY AT BHT
BHT .DEGF                       : BOTTOM HOLE TEMPERATURE
TIMC.                           : TIME CIRCULATION STOPPED
TIML.           0453 2012-02-23 : TIME LOGGER ON BOTTOM
TMAX.DEGF                   272 : MAXIMUM RECORDED TEMPERATURE
UNIT.                      1214 : EQUIPMENT NUMBER
BASE.                NEW IBERIA : BASE LOCATION
ENG .               P. SPOELKER : RECORDED BY
WIT .                 F. GUIDRY : WITNESSED BY
~Curve Information -----------------------------------------
DEPT.F          :DEPTH
AI1R10.OHMM     :
AI1R30.OHMM     :
AI1R60.OHMM     :
DCAL.IN         :
DPHI.%          :
NPHI.%          :
TENS.LBS        :
~ASCII ------------------------------------------------------
# ...
15219.50000        1.98159        1.81544        1.75957        0.00118       11.01349       21.52547     6457.23971
15220.00000        1.98159        1.84454        1.77888       -0.00088       10.90184       20.77662     6463.81865
15220.50000        2.04110        1.95429        1.80656       -0.00293       10.44219       20.02777     6471.71338
15221.00000        2.11802        2.07057        1.94528       -0.00499        9.98135       19.27893     6478.95022
15221.50000        2.39897        2.22791        2.09464       -0.00704        9.32970       18.45808     6485.52916
15222.00000        2.50855        2.40631        2.25548       -0.00909        7.79125       17.61923     6492.76600
15222.50000        2.45122        2.31528        2.16195       -0.01115        7.22241       17.33239     6499.34494
15223.00000        2.40942        2.27223        2.07210       -0.01369        7.03636       17.28314     6506.58177
15223.50000        2.42552        2.24093        2.06808       -0.01574        6.85031       17.63469     6513.16072
15224.00000        2.48937        2.26488        2.12017       -0.01780        6.32586       17.98624     6476.31864
15224.50000        2.52018        2.30332        2.17357       -0.01985        5.57702       17.75699     6440.13446
15225.00000        2.49122        2.28698        2.10766       -0.02191        5.05377       17.49295     6403.29238
15225.50000        2.40631        2.25173        2.09871       -0.02396        5.42932       17.66450     6367.10820
15226.00000        2.58772        2.33917        2.20883       -0.02601        6.21047       17.83725     6330.26613
15226.50000        2.70742        2.43001        2.32451       -0.02807        7.26162       17.78200     6391.45029
15227.00000        2.78152        2.52438        2.44647       -0.03012        7.98277       17.30338     6518.42387
15227.50000        2.80295        2.51250        2.46737       -0.03218        8.70392       17.53254     6644.73956
15228.00000        2.61514        2.34350        2.37053       -0.03423        8.46508       17.92009     6584.87118
15228.50000        2.27160        2.10221        2.09949       -0.03628        7.85326       18.30644     6525.00281
15229.00000        1.97336        1.86306        1.84420       -0.03843        7.78721       19.14759     6527.63439
15229.50000        1.71412        1.65127        1.61114       -0.04048        7.80156       23.98353     6546.05543
15230.00000        1.48894        1.46341        1.40741       -0.04253        7.93712       31.62987     6564.47646
15230.50000        1.42838        1.41066        1.37257       -0.04459        8.50587       40.63100     6573.68698
15231.00000        1.46409        1.43806        1.41393       -0.04664        9.61222       40.99215     6561.18699
15231.50000        1.50806        1.45599        1.46531       -0.04870       11.71336       39.30251     6548.68700
15232.00000        1.49833        1.44472        1.44700       -0.05075       13.70651       37.61286     6536.18701
15232.50000        1.47715        1.43368        1.41393       -0.05280       15.19566       37.73041     6523.02913
15233.00000        1.47060        1.46924        1.44366       -0.03046       14.78401       39.40196     6522.37124
15233.50000        1.52250        1.50555        1.49032        0.12909       13.31757       41.40974     6569.73962
15234.00000        1.57622        1.54290        1.53849        0.28863       12.73912       40.03929     6616.45011
15234.50000        1.56070        1.54519        1.53664        0.58449       14.15987       40.10045     6663.81849
15235.00000        1.52828        1.52390        1.50152        0.83123       16.02822       40.64160     6710.52898
15235.50000        1.49916        1.50291        1.47510        1.07758       16.98937       41.03035     6680.92374
15236.00000        1.47251        1.48221        1.45424        1.28673       17.72372       42.00110     6650.66061
15236.50000        1.44619        1.46179        1.43368        1.24627       18.65847       42.97065     6621.05537
15237.00000        1.42048        1.44165        1.42430        0.86582       20.33145       42.92620     6590.79223
15237.50000        1.46152        1.46382        1.43037        0.29857       22.64739       42.62735     6561.18699
15238.00000        1.51225        1.52602        1.45774       -0.28327       23.80534       43.58850     6530.92386
15238.50000        1.58601        1.57987        1.51267       -0.43954       24.96449       44.60965     6513.16072
15239.00000        1.68489        1.63561        1.56967       -0.52759       25.74444       43.46241     6513.16072
15239.50000        1.78993        1.69333        1.61981       -0.35645       25.01240       43.72036     6513.16072
15240.00000        1.75925        1.73678        1.62431       -0.07699       23.94315       42.42911     6513.16072
15240.50000        1.74096        1.71571        1.58719        0.14735       22.36991       42.89466     6513.16072
15241.00000        1.74096        1.69505        1.55092        0.37730       19.94346       44.41021     6513.16072
15241.50000        1.74096        1.67448        1.51547        0.58164       18.29702       43.98176     6513.16072
15242.00000        1.72925        1.63728        1.50792        0.68119       17.73777       45.88611     6513.16072
15242.50000        1.71476        1.57651        1.51870        0.59754       16.53893       45.39910     6513.16072
15243.00000        1.70906        1.53394        1.52955        0.51348       16.16448       42.10025     6513.16072
15243.50000        1.75486        1.55594        1.53550        0.42823       16.14403       42.66661     6513.16072
15244.00000        1.75178        1.58264        1.54262        0.35418       16.65278       43.78255     6513.16072
15244.50000        1.74096        1.57418        1.51954        0.32692       17.16153       43.90371     6513.16072
15245.00000        1.69333        1.55810        1.48495        0.29967       16.78468       42.46486     6513.16072
15245.50000        1.61681        1.53210        1.44432        0.30192       12.70584       41.02602     6495.39757
15246.00000        1.54376        1.50653        1.40481        0.36147        8.47701       40.25437     6473.68706
15246.50000        1.53196        1.45774        1.39703        0.44782        9.16816       38.92112     6451.97656
15247.00000        1.52010        1.46721        1.43633        0.57456       10.68970       37.03948     6429.60815
15247.50000        1.52757        1.48276        1.45061        0.68291       11.39046       38.51063     6407.89764
15248.00000        1.54134        1.45801        1.42640        0.71565       10.56864       36.65178     6386.18713
15248.50000        1.52955        1.43368        1.40793        0.51520        9.11299       34.33334     6494.08178
15249.00000        1.51786        1.45035        1.41014        0.33715        8.75415       34.43409     6635.52904
15249.50000        1.52955        1.46721        1.41249        0.24749        9.50530       33.54365     6776.31840
15250.00000        1.54733        1.48427        1.41484        0.28684        9.84010       33.05166     6710.52898
15250.50000        1.57695        1.50848        1.43090        0.30398        9.10806       32.64121     6763.16051
15251.00000        1.58425        1.51547        1.43315        0.32073        8.38201       32.62796     6697.37109
15251.50000        1.57987        1.47851        1.41746        0.33787        7.68357       34.35351     6632.23957
15252.00000        1.53564        1.44259        1.39742        0.35813        7.68472       33.72466     6571.71330
15252.50000        1.44700        1.40741        1.37702        0.35768        7.30187       32.22582     6510.52914
15253.00000        1.46044        1.38584        1.35454        0.35722        6.82302       32.20177     6450.00287
15253.50000        1.42706        1.36473        1.33231        0.35677        7.06417       32.52812     6388.81871
