~Version ---------------------------------------------------
VERS. 2.0 : CWLS LOG ASCII STANDARD - VERSION 2.0
WRAP. NO  : One line per depth step
DLM . SPACE : Column Data Section Delimiter
~Well ------------------------------------------------------
STRT.F         5380 : START DEPTH
STOP.F      13830.0 : STOP DEPTH
STEP.F          0.5 : STEP
NULL.       -999.25 : NULL VALUE
COMP.                  HILCORP ENERGY CO. : COMPANY
WELL.          212648-SL3306-015-03306-10 : WELL
FLD .                       REDFISH POINT : FIELD
CNTY.                           VERMILION : COUNTY
STAT.                           LOUISIANA : STATE
CTRY.                                 USA : COUNTRY
SEC .                                     : SECTION
TWP .                                     : TOWNSHIP
RGE .                                     : RANGE
LOC . LAT 29*40'57.085"N LONG 92*2'43.95"W : LOCATION
EKB .F                       41 : ELEVATION KELLY BUSHING
EDF .F                       41 : ELEVATION DERRICK FLOOR
EGL .F                          : ELEVATION GROUND LEVEL
PDAT.                       MSL : PERMANENT DATUM
EPD .                           : ELEVATION PERMANENT DATUM
APD .                           : ABOVE PERMANENT DATUM
LMF .                        KB : LOG MEASURED FROM
DMF .                        KB : DRILLING MEASURED FROM
API .            17113217870000 : API NUMBER
UWI .                           : UWI NUMBER
DIGC.                     NthDS : DIGITIZING COMPANY
~Params ----------------------------------------------------
SRVC.               WEATHERFORD : LOGGING COMPANY
LOG .               IND/DEN/NEU : LOG
DATE.                2012-02-05 : RUN DATE
RUN .                         1 : RUN NUMBER
TDD .F                    13805 : TOTAL DEPTH DRILLER
TDL .F                    13822 : TOTAL DEPTH LOGGER
BOTL.F                    13822 : BOTTOM LOGGED INTERVAL
TOPL.F                     5398 : TOP LOGGED INTERVAL
CSGS.IN                         : CASING SIZE
CSGD.F                     5389 : CASING DRILLER
CSGL.F                     5389 : CASING LOGGER
BS  .IN                     8.5 : BIT SIZE
MUD .                 OIL BASED : MUD TYPE
MUDD.                        12 : MUD DENSITY
MUDV.                        72 : MUD VISCOSITY
PH  .                           : MUD PH
FL  .                       2.8 : FLUID LOSS
MUDS.                           : SOURCE OF SAMPLE
RM  .OHMM                       : MUD RESISTIVITY
RMT .DEGF                       : RM TEMPERATURE
RMF .OHMM                       : MUD FILTRATE RESISTIVITY
RMFT.DEGF                       : RMF TEMPERATURE
RMC .OHMM                       : MUD CAKE RESISTIVITY
RMCT.DEGF                       : RMC TEMPERATURE
RMFS.                           : RMF SOURCE
RMCS.                           : RMC SOURCE
RMBH.OHMM                       : MUD RESISTIVITY AT BHT
BHT .DEGF                   237 : BOTTOM HOLE TEMPERATURE
TIMC.                           : TIME CIRCULATION STOPPED
TIML.                           : TIME LOGGER ON BOTTOM
TMAX.DEGF                   237 : MAXIMUM RECORDED TEMPERATURE
UNIT.                     13028 : EQUIPMENT NUMBER
BASE.                      BRSD : BASE LOCATION
ENG .                 F. GUIDRY : RECORDED BY
WIT .             AXXIS LIBERTY : WITNESSED BY
~Curve Information -----------------------------------------
DEPT.F          :DEPTH
AI2R20.OHMM     :
AI2R40.OHMM     :
AI2R85.OHMM     :
DCAL.IN         :
DRHO.G/CC       :
GR.GAPI         :
NPHI.%          :
TENS.LBF        :
~ASCII ------------------------------------------------------
# ...
10456.50000        0.33545        0.26187        0.22228        0.39206        0.06417       45.32144       37.51480     2905.72407
10457.00000        0.31010        0.25596        0.20369        0.38055        0.06980       44.14214       37.63314     2894.67871
10457.50000        0.32758        0.27162        0.22729        0.36666        0.07541       42.66699       38.22486     2883.23887
10458.00000        0.34500        0.29356        0.25727        0.35278        0.07992       40.60012       38.10651     2872.19350
10458.50000        0.37228        0.31010        0.29356        0.33214        0.07992       38.23740       37.51480     2861.14814
10459.00000        0.40172        0.30504        0.28788        0.31111        0.07587       33.50782       36.92308     2850.10278
10459.50000        0.37130        0.27212        0.24904        0.29047        0.07181       29.36996       36.56805     2838.66294
10460.00000        0.28930        0.21360        0.19818        0.30119        0.06776       27.00724       36.44971     2827.61758
10460.50000        0.21191        0.17201        0.18272        0.35952        0.06982       25.53208       36.44971     2816.57222
10461.00000        0.19638        0.16110        0.16916        0.41785        0.07441       28.49478       38.22486     2805.13238
10461.50000        0.20859        0.16660        0.15916        0.47619        0.07900       30.27323       39.64498     2801.58208
10462.00000        0.23995        0.20104        0.19295        0.48452        0.07746       35.60361       43.90533     2803.15999
10462.50000        0.30053        0.25100        0.23391        0.49285        0.07439       36.19945       44.49705     2804.34342
10463.00000        0.37642        0.31335        0.28081        0.50119        0.07132       31.76573       43.43196     2806.31581
10463.50000        0.40641        0.31631        0.32418        0.50912        0.07008       24.96516       40.47338     2807.49924
10464.00000        0.33567        0.24695        0.28406        0.49325        0.07402       20.82729       37.51480     2809.07715
10464.50000        0.24603        0.19238        0.21017        0.35873        0.08386       20.23971       36.56805     2810.26058
10465.00000        0.24872        0.20104        0.19056        0.24682        0.08301       21.72312       35.85799     2811.83849
10465.50000        0.27593        0.22833        0.20610        0.13452        0.07951       22.02311       35.26628     2813.41640
10466.00000        0.31808        0.25933        0.23792        0.02262        0.07598       21.73139       35.02959     2814.59983
10466.50000        0.33668        0.28302        0.27038        0.07539        0.07598       20.84795       34.91125     2816.17774
10467.00000        0.32312        0.26428        0.25174        0.17024        0.07894       20.55622       34.91125     2817.36117
10467.50000        0.28562        0.22781        0.21058        0.26468        0.08128       21.44792       34.91125     2818.93908
10468.00000        0.24904        0.19638        0.18230        0.35912        0.07825       22.34045       36.44971     2820.51699
10468.50000        0.22626        0.18811        0.18111        0.44603        0.07524       23.52801       37.04143     2821.70042
10469.00000        0.23016        0.19947        0.18761        0.52738        0.07402       24.41971       38.34320     2823.67281
10469.50000        0.24231        0.22048        0.20332        0.60912        0.07402       25.01555       38.93492     2824.85624
10470.00000        0.31152        0.24621        0.23212        0.65357        0.07549       25.31554       38.93492     2826.43415
10470.50000        0.33567        0.26549        0.24936        0.54920        0.07844       26.20724       38.81657     2827.61758
10471.00000        0.32442        0.26238        0.24453        0.44484        0.08091       29.46580       38.81657     2829.19549
10471.50000        0.29574        0.23148        0.21127        0.31944        0.08337       30.94921       38.69823     2830.77340
10472.00000        0.27382        0.21071        0.20000        0.28968        0.08028       33.91191       38.57989     2831.95683
10472.50000        0.28667        0.21772        0.20935        0.30952        0.07581       37.17047       38.81657     2833.53474
10473.00000        0.30299        0.22181        0.21175        0.32936        0.07537       38.35802       39.88166     2834.71817
10473.50000        0.30513        0.22523        0.21419        0.34920        0.07766       42.80001       40.71006     2836.29608
10474.00000        0.30728        0.23909        0.22028        0.36905        0.07992       45.46685       41.77515     2837.87399
10474.50000        0.32041        0.25382        0.23113        0.38889        0.07663       47.83783       41.65681     2839.05742
10475.00000        0.33414        0.26549        0.25133        0.38293        0.07809       43.10826       40.35503     2840.63533
10475.50000        0.34512        0.26915        0.25261        0.35952        0.08071       35.42011       38.57989     2842.21324
10476.00000        0.33668        0.24350        0.24565        0.33611        0.08333       31.28225       37.27811     2843.39667
10476.50000        0.26793        0.21607        0.21031        0.31270        0.08124       30.99052       36.44971     2844.97458
10477.00000        0.23662        0.19459        0.18129        0.28928        0.07795       36.61676       36.68640     2846.15801
10477.50000        0.24431        0.21031        0.18387        0.26627        0.07467       44.60902       38.10651     2847.34144
10478.00000        0.28562        0.24677        0.21780        0.24285        0.07238       49.64272       38.93492     2848.91935
10478.50000        0.35761        0.28824        0.26549        0.26071        0.07409       51.71785       39.88166     2850.10278
10479.00000        0.38022        0.31081        0.29203        0.29484        0.07581       46.39655       39.28995     2851.68069
10479.50000        0.38155        0.28719        0.27444        0.32301        0.07752       38.70841       37.39646     2852.86412
10480.00000        0.37742        0.26092        0.23522        0.35158        0.07923       29.49069       36.21302     2854.04755
10480.50000        0.35242        0.25225        0.23254        0.39484        0.07992       26.88240       36.09468     2855.62546
10481.00000        0.36112        0.27038        0.25287        0.44206        0.07992       28.57587       35.97634     2856.80889
10481.50000        0.39366        0.29625        0.27287        0.48928        0.07697       29.25752       36.21302     2858.38680
10482.00000        0.40051        0.31525        0.28562        0.53651        0.07205       28.52201       37.04143     2859.96471
10482.50000        0.38614        0.31295        0.26479        0.59960        0.06713       24.82793       37.75148     2861.14814
10483.00000        0.35242        0.27494        0.22615        0.67262        0.06220       21.87349       39.40829     2862.33157
10483.50000        0.28432        0.24158        0.19235        0.74563        0.06291       21.87762       40.11835     2863.90948
10484.00000        0.22812        0.21224        0.16358        0.81865        0.06360       29.57403       40.35503     2865.09291
10484.50000        0.20718        0.19638        0.15627        0.84206        0.06522       41.11657       40.23669     2866.67082
10485.00000        0.20582        0.19638        0.16508        0.85317        0.07047       48.22127       39.88166     2867.85425
10485.50000        0.25041        0.22655        0.18876        0.86428        0.07573       53.55165       40.35503     2869.03769
10486.00000        0.34957        0.30855        0.28738        0.86706        0.07902       49.11793       40.82841     2870.61560
10486.50000        0.43405        0.37915        0.33711        0.85158        0.07447       44.98006       41.18344     2871.79903
