~Version ---------------------------------------------------
VERS. 2.0 : CWLS LOG ASCII STANDARD - VERSION 2.0
WRAP. NO  : One line per depth step
DLM . SPACE : Column Data Section Delimiter
~Well ------------------------------------------------------
STRT.F         5380 : START DEPTH
STOP.F      13830.0 : STOP DEPTH
STEP.F          0.5 : STEP
NULL.       -999.25 : NULL VALUE
COMP.                  HILCORP ENERGY CO. : COMPANY
WELL.          212648-SL3306-015-03306-10 : WELL
FLD .                       REDFISH POINT : FIELD
CNTY.                           VERMILION : COUNTY
STAT.                           LOUISIANA : STATE
CTRY.                                 USA : COUNTRY
SEC .                                     : SECTION
TWP .                                     : TOWNSHIP
RGE .                                     : RANGE
LOC . LAT 29*40'57.085"N LONG 92*2'43.95"W : LOCATION
EKB .F                       41 : ELEVATION KELLY BUSHING
EDF .F                       41 : ELEVATION DERRICK FLOOR
EGL .F                          : ELEVATION GROUND LEVEL
PDAT.                       MSL : PERMANENT DATUM
EPD .                           : ELEVATION PERMANENT DATUM
APD .                           : ABOVE PERMANENT DATUM
LMF .                        KB : LOG MEASURED FROM
DMF .                        KB : DRILLING MEASURED FROM
API .            17113217870000 : API NUMBER
UWI .                           : UWI NUMBER
DIGC.                     NthDS : DIGITIZING COMPANY
~Params ----------------------------------------------------
SRVC.               WEATHERFORD : LOGGING COMPANY
LOG .               IND/DEN/NEU : LOG
DATE.                2012-02-05 : RUN DATE
RUN .                         1 : RUN NUMBER
TDD .F                    13805 : TOTAL DEPTH DRILLER
TDL .F                    13822 : TOTAL DEPTH LOGGER
BOTL.F                    13822 : BOTTOM LOGGED INTERVAL
TOPL.F                     5398 : TOP LOGGED INTERVAL
CSGS.IN                         : CASING SIZE
CSGD.F                     5389 : CASING DRILLER
CSGL.F                     5389 : CASING LOGGER
BS  .IN                     8.5 : BIT SIZE
MUD .                 OIL BASED : MUD TYPE
MUDD.                        12 : MUD DENSITY
MUDV.                        72 : MUD VISCOSITY
PH  .                           : MUD PH
FL  .                       2.8 : FLUID LOSS
MUDS.                           : SOURCE OF SAMPLE
RM  .OHMM                       : MUD RESISTIVITY
RMT .DEGF                       : RM TEMPERATURE
RMF .OHMM                       : MUD FILTRATE RESISTIVITY
RMFT.DEGF                       : RMF TEMPERATURE
RMC .OHMM                       : MUD CAKE RESISTIVITY
RMCT.DEGF                       : RMC TEMPERATURE
RMFS.                           : RMF SOURCE
RMCS.                           : RMC SOURCE
RMBH.OHMM                       : MUD RESISTIVITY AT BHT
BHT .DEGF                   237 : BOTTOM HOLE TEMPERATURE
TIMC.                           : TIME CIRCULATION STOPPED
TIML.                           : TIME LOGGER ON BOTTOM
TMAX.DEGF                   237 : MAXIMUM RECORDED TEMPERATURE
UNIT.                     13028 : EQUIPMENT NUMBER
BASE.                      BRSD : BASE LOCATION
ENG .                 F. GUIDRY : RECORDED BY
WIT .             AXXIS LIBERTY : WITNESSED BY
~Curve Information -----------------------------------------
DEPT.F          :DEPTH
AI2R20.OHMM     :
AI2R40.OHMM     :
AI2R85.OHMM     :
DCAL.IN         :
DRHO.G/CC       :
GR.GAPI         :
NPHI.%          :
TENS.LBF        :
~ASCII ------------------------------------------------------
# ...
12683.00000        1.58431        1.48127        1.43740       -0.07937        0.06811       97.63311       38.10651     3392.50896
12683.50000        1.48384        1.40135        1.35873       -0.07937        0.06811       99.70412       38.81657     3385.01389
12684.00000        1.38215        1.32574        1.31044       -0.07937        0.06811      104.43784       38.81657     3377.51883
12684.50000        1.36258        1.31572        1.30257       -0.07937        0.07274      106.21299       38.10651     3369.62928
12685.00000        1.36258        1.30566        1.29462       -0.07937        0.07852      109.46743       37.86983     3360.55631
12685.50000        1.36258        1.29580        1.28601       -0.07937        0.08433      108.87571       37.98817     3353.06124
12686.00000        1.36258        1.29781        1.27431       -0.07937        0.08829      105.62128       38.57989     3358.97840
12686.50000        1.43556        1.31104        1.27583       -0.07937        0.08953       97.33725       38.46154     3364.89555
12687.00000        1.51259        1.34773        1.32332       -0.07937        0.08189       94.37868       37.54675     3370.81271
12687.50000        1.58040        1.39152        1.36732       -0.07937        0.07500       96.15382       36.14793     3376.72987
12688.00000        1.59710        1.40905        1.39089       -0.07937        0.07254       98.22483       35.06865     3382.64703
12688.50000        1.61412        1.40558        1.38987       -0.07818        0.07008       97.04140       35.83669     3389.74762
12689.00000        1.61043        1.39279        1.37233       -0.07659        0.07008       94.37868       36.69705     3395.66478
12689.50000        1.59331        1.38013        1.35501       -0.07540        0.07008       96.15382       37.20237     3401.58194
12690.00000        1.57622        1.36520        1.33791       -0.07421        0.07008       99.99998       37.47219     3407.49909
12690.50000        1.55604        1.34883        1.32272       -0.07262        0.07059      103.55027       38.12782     3413.41625
12691.00000        1.52271        1.33278        1.30769       -0.07143        0.07317      100.88755       39.36569     3419.33341
12691.50000        1.49009        1.31681        1.29284       -0.07024        0.07573       98.81654       40.43432     3425.25057
12692.00000        1.45817        1.29781        1.27816       -0.06905        0.07880       96.15382       40.82841     3431.16773
12692.50000        1.43687        1.27816        1.26573       -0.06746        0.08138       95.26625       41.11243     3438.26832
12693.00000        1.42941        1.26122        1.25089       -0.06588        0.08106       94.67453       41.53847     3444.18548
12693.50000        1.42315        1.25238        1.24201       -0.06468        0.08002       94.37868       42.72190     3450.10263
12694.00000        1.41706        1.24360        1.23793       -0.06349        0.07900       98.22483       43.90533     3456.01979
12694.50000        1.41021        1.24008        1.23387       -0.06191        0.07795       99.40826       43.86628     3461.93695
12695.00000        1.40276        1.23657        1.21941       -0.06072        0.07482      103.25441       42.48521     3467.85411
12695.50000        1.39521        1.23296        1.19809       -0.05953        0.07169      104.14199       40.92190     3471.40440
12696.00000        1.38771        1.22477        1.17726       -0.05794        0.06856      104.14199       39.35740     3471.40440
12696.50000        1.38771        1.23071        1.19394       -0.05675        0.06543      104.43784       38.69823     3471.40440
12697.00000        1.38771        1.23963        1.21086       -0.05556        0.06654      104.14199       40.17752     3471.40440
12697.50000        1.37597        1.21974        1.21185       -0.05397        0.07047      103.55027       40.54083     3468.24859
12698.00000        1.31885        1.20028        1.18893       -0.05278        0.07484      102.95855       40.84971     3463.12038
12698.50000        1.26411        1.18103        1.16655       -0.05159        0.07951       99.70412       41.49586     3458.38666
12699.00000        1.24850        1.20017        1.18806       -0.05000        0.08417       96.74554       42.03551     3453.25845
12699.50000        1.28989        1.22936        1.20997       -0.04881        0.08884       94.08282       41.98817     3448.13025
12700.00000        1.33266        1.25927        1.23229       -0.04762        0.08976       93.19524       41.27811     3443.00204
12700.50000        1.41550        1.30292        1.29734       -0.04603        0.09173       88.46152       40.65918     3476.53261
12701.00000        1.50143        1.37007        1.35402       -0.04484        0.09173       86.98223       40.23669     3471.40440
12701.50000        1.59273        1.45073        1.41331       -0.04326        0.09173       81.65678       38.87930     3466.27620
12702.00000        1.68957        1.57910        1.55391       -0.04207        0.09100       79.28992       36.96450     3461.14800
12702.50000        1.79230        1.71900        1.70866       -0.04088        0.08976       75.73963       35.05089     3456.41427
12703.00000        1.87608        1.82819        1.82652       -0.03929        0.08360       75.44377       33.13610     3451.28607
12703.50000        1.96378        1.87746        1.87146       -0.03810        0.07746       76.03548       32.42604     3446.15786
12704.00000        2.12238        1.92822        1.91768       -0.03691        0.07130       76.03548       32.86510     3441.02966
12704.50000        2.50248        2.47904        2.17142       -0.03532        0.06726       74.55619       32.69705     3435.90145
12705.00000        4.04855        3.18721        2.85622       -0.03413        0.06376       63.75738       30.96450     3432.35116
12705.50000        6.54920        4.45418        4.57253       -0.03294        0.06024       48.22484       28.84143     3434.32355
12706.00000       10.59539        8.68814        9.82874       -0.03135        0.05884       34.07396       26.71717     3435.90145
12706.50000       12.36800       11.92413       11.94266       -0.03016        0.05770       25.44378       25.32545     3437.87384
12707.00000       11.45424       10.98278       11.48883       -0.02897        0.05654       23.22485       25.18344     3439.84623
12707.50000        9.42161        8.73829        9.43539       -0.02778        0.05573       22.44378       25.65681     3441.81861
12708.00000        7.34162        6.78493        7.10275       -0.02619        0.05504       22.18934       26.13019     3443.79100
12708.50000        5.72134        5.26823        5.34630       -0.02500        0.05433       22.97928       26.55977     3445.36891
12709.00000        4.45825        4.09057        4.02421       -0.02381        0.05504       26.01775       26.81303     3447.34129
12709.50000        3.47401        3.17616        3.02906       -0.02222        0.05573       29.32544       27.33729     3449.31368
12710.00000        2.70731        2.46594        2.34829       -0.02103        0.05740       32.63017       27.82723     3451.28607
12710.50000        2.00696        1.82019        1.77130       -0.01945        0.06295       34.73372       27.91243     3452.86397
12711.00000        1.62893        1.41331        1.40045       -0.01826        0.06848       34.83727       27.45563     3454.83636
12711.50000        1.40532        1.16197        1.22108       -0.01667        0.07402       34.65384       26.60119     3456.80875
12712.00000        1.21252        1.05625        1.06468       -0.01548        0.07402       34.81360       25.68048     3458.78113
12712.50000        1.18373        1.02647        0.99417       -0.01429        0.06457       36.19230       25.90178     3460.35904
12713.00000        1.22779        1.19897        1.04302       -0.01270        0.06220       38.33135       25.88758     3462.33143
