~Version ---------------------------------------------------
VERS. 2.0 : CWLS LOG ASCII STANDARD - VERSION 2.0
WRAP. NO  : One line per depth step
DLM . SPACE : Column Data Section Delimiter
~Well ------------------------------------------------------
STRT.F         5380 : START DEPTH
STOP.F      13830.0 : STOP DEPTH
STEP.F          0.5 : STEP
NULL.       -999.25 : NULL VALUE
COMP.                  HILCORP ENERGY CO. : COMPANY
WELL.          212648-SL3306-015-03306-10 : WELL
FLD .                       REDFISH POINT : FIELD
CNTY.                           VERMILION : COUNTY
STAT.                           LOUISIANA : STATE
CTRY.                                 USA : COUNTRY
SEC .                                     : SECTION
TWP .                                     : TOWNSHIP
RGE .                                     : RANGE
LOC . LAT 29*40'57.085"N LONG 92*2'43.95"W : LOCATION
EKB .F                       41 : ELEVATION KELLY BUSHING
EDF .F                       41 : ELEVATION DERRICK FLOOR
EGL .F                          : ELEVATION GROUND LEVEL
PDAT.                       MSL : PERMANENT DATUM
EPD .                           : ELEVATION PERMANENT DATUM
APD .                           : ABOVE PERMANENT DATUM
LMF .                        KB : LOG MEASURED FROM
DMF .                        KB : DRILLING MEASURED FROM
API .            17113217870000 : API NUMBER
UWI .                           : UWI NUMBER
DIGC.                     NthDS : DIGITIZING COMPANY
~Params ----------------------------------------------------
SRVC.               WEATHERFORD : LOGGING COMPANY
LOG .               IND/DEN/NEU : LOG
DATE.                2012-02-05 : RUN DATE
RUN .                         1 : RUN NUMBER
TDD .F                    13805 : TOTAL DEPTH DRILLER
TDL .F                    13822 : TOTAL DEPTH LOGGER
BOTL.F                    13822 : BOTTOM LOGGED INTERVAL
TOPL.F                     5398 : TOP LOGGED INTERVAL
CSGS.IN                         : CASING SIZE
CSGD.F                     5389 : CASING DRILLER
CSGL.F                     5389 : CASING LOGGER
BS  .IN                     8.5 : BIT SIZE
MUD .                 OIL BASED : MUD TYPE
MUDD.                        12 : MUD DENSITY
MUDV.                        72 : MUD VISCOSITY
PH  .                           : MUD PH
FL  .                       2.8 : FLUID LOSS
MUDS.                           : SOURCE OF SAMPLE
RM  .OHMM                       : MUD RESISTIVITY
RMT .DEGF                       : RM TEMPERATURE
RMF .OHMM                       : MUD FILTRATE RESISTIVITY
RMFT.DEGF                       : RMF TEMPERATURE
RMC .OHMM                       : MUD CAKE RESISTIVITY
RMCT.DEGF                       : RMC TEMPERATURE
RMFS.                           : RMF SOURCE
RMCS.                           : RMC SOURCE
RMBH.OHMM                       : MUD RESISTIVITY AT BHT
BHT .DEGF                   237 : BOTTOM HOLE TEMPERATURE
TIMC.                           : TIME CIRCULATION STOPPED
TIML.                           : TIME LOGGER ON BOTTOM
TMAX.DEGF                   237 : MAXIMUM RECORDED TEMPERATURE
UNIT.                     13028 : EQUIPMENT NUMBER
BASE.                      BRSD : BASE LOCATION
ENG .                 F. GUIDRY : RECORDED BY
WIT .             AXXIS LIBERTY : WITNESSED BY
~Curve Information -----------------------------------------
DEPT.F          :DEPTH
AI2R20.OHMM     :
AI2R40.OHMM     :
AI2R85.OHMM     :
DCAL.IN         :
DRHO.G/CC       :
GR.GAPI         :
NPHI.%          :
TENS.LBF        :
~ASCII ------------------------------------------------------
# ...
13232.00000        2.42948        2.05652        2.00696       -0.16707        0.09606       78.69821       30.76924     3579.49116
13232.50000        2.30429        2.04677        2.00000       -0.17421        0.09252       77.51477       31.47930     3576.72982
13233.00000        2.35754        2.03688        2.00000       -0.18135        0.09055       77.21892       32.30770     3573.57400
13233.50000        2.33972        1.94592        1.94895       -0.18889        0.08695       77.81063       33.25444     3570.81266
13234.00000        2.14519        1.85902        1.86651       -0.19603        0.08344       79.58578       33.96450     3567.65685
13234.50000        2.03317        1.77600        1.78772       -0.20318        0.07992       78.99406       34.08285     3564.50103
13235.00000        1.99635        1.73145        1.71226       -0.21032        0.07992       78.69821       33.84616     3561.73969
13235.50000        1.98181        1.69669        1.69498       -0.21786        0.07992       76.03548       33.25444     3558.58387
13236.00000        1.97097        1.68571        1.67956       -0.22500        0.07992       72.48519       32.18936     3555.82253
13236.50000        1.98000        1.67466        1.67099       -0.23215        0.07992       69.82247       32.18936     3552.66671
13237.00000        1.90371        1.64885        1.63146       -0.23413        0.07949       71.00590       32.54439     3548.32746
13237.50000        1.78576        1.56560        1.54853       -0.21508        0.07907       74.23075       33.13610     3537.67658
13238.00000        1.57421        1.47128        1.45444       -0.19207        0.07864       77.63312       33.60947     3525.44778
13238.50000        1.51591        1.44266        1.39789       -0.17262        0.07821       75.88756       33.25444     3515.19138
13239.00000        1.62744        1.48452        1.46887       -0.15357        0.07795       68.93489       32.30770     3504.54049
13239.50000        1.76887        1.61530        1.57709       -0.13453        0.07795       67.15975       31.00592     3494.28408
13240.00000        1.92822        1.78218        1.77600       -0.11508        0.07795       62.72188       30.76924     3484.02768
13240.50000        2.01836        1.92242        1.91068       -0.09603        0.07795       60.65087       32.07101     3473.37679
13241.00000        2.01836        1.73732        1.75583       -0.07699        0.07795       61.83430       35.38462     3471.40440
13241.50000        1.71226        1.48262        1.47937       -0.05754        0.07795       73.37276       36.56805     3471.40440
13242.00000        1.40045        1.26515        1.24644       -0.03849        0.07795       89.05323       39.76332     3471.40440
13242.50000        1.23229        1.11956        1.12983       -0.01905        0.07738       91.42010       39.25089     3478.89947
13243.00000        1.23556        1.14542        1.12952        0.00000        0.07459       94.37868       38.73728     3491.52274
13243.50000        1.25961        1.14804        1.12048       -0.01072        0.07177       95.85796       38.22486     3504.14601
13244.00000        1.27816        1.13242        1.10968       -0.02381        0.07205       96.44968       39.77279     3516.76928
13244.50000        1.20721        1.08759        1.06790       -0.03492        0.07697       97.33725       41.31953     3529.39256
13245.00000        1.15594        1.02750        1.01315       -0.04564        0.08189       96.44968       42.36687     3542.01583
13245.50000        1.15446        1.08105        1.08859       -0.05635        0.08583       96.74554       41.50178     3554.63910
13246.00000        1.16389        1.11445        1.10765       -0.06746        0.08911      101.47927       40.63669     3567.26237
13246.50000        1.15067        1.11445        1.11191       -0.07818        0.09144      101.77512       40.66509     3579.49116
13247.00000        1.16527        1.11445        1.11150       -0.08929        0.08992       99.11240       42.02959     3589.74757
13247.50000        1.19897        1.12746        1.10432       -0.10000        0.08841       96.74554       43.39527     3589.74757
13248.00000        1.26549        1.19459        1.18265       -0.11072        0.08557       90.82838       42.80592     3589.74757
13248.50000        1.33571        1.26573        1.26654       -0.12183        0.08189       88.46152       40.94675     3589.74757
13249.00000        1.41189        1.33583        1.32574       -0.13254        0.07860       89.64495       39.91125     3586.98623
13249.50000        1.49295        1.38771        1.38013       -0.14365        0.07533       87.27809       38.87574     3579.49116
13250.00000        1.51591        1.44161        1.40558       -0.15437        0.07205       81.95264       36.75148     3571.99610
13250.50000        1.53908        1.48683        1.43504       -0.21151        0.07008       75.44377       33.33018     3563.31760
13251.00000        1.59783        1.52424        1.49063       -0.22818        0.07439       75.73963       32.01184     3555.82253
13251.50000        1.66596        1.56274        1.54853       -0.24484        0.07870       77.81063       32.13018     3548.32746
13252.00000        1.63579        1.55732        1.53767       -0.26111        0.08299       80.47335       33.24734     3540.83240
13252.50000        1.60295        1.55178        1.52689       -0.27778        0.08628       80.76921       34.61539     3533.73181
13253.00000        1.66095        1.56990        1.54147       -0.29445        0.08931       80.76921       35.98344     3526.23674
13253.50000        1.74384        1.62462        1.59520       -0.31072        0.09173       78.99406       37.04143     3518.74167
13254.00000        1.83875        1.68125        1.65247       -0.31468        0.09173       78.10649       37.29468     3511.24660
13254.50000        1.82202        1.73066        1.71226       -0.31072        0.09173       75.73963       36.19646     3504.14601
13255.00000        1.80331        1.74384        1.72529       -0.30635        0.08681       72.48519       34.14202     3496.65095
13255.50000        1.79722        1.75711        1.73859       -0.30199        0.08091       67.45560       31.84971     3489.15588
13256.00000        1.80545        1.77065        1.75182       -0.29762        0.07598       66.56803       29.55622     3481.66081
13256.50000        1.80875        1.75182        1.74065       -0.29326        0.07476       66.56803       28.63906     3472.98231
13257.00000        1.79640        1.71226        1.68895       -0.28889        0.07622       68.93489       29.32308     3462.33143
13257.50000        1.76597        1.67359        1.63206       -0.28453        0.08177       72.18933       31.03196     3451.28607
13258.00000        1.65579        1.56746        1.52982       -0.28056        0.08730       76.62720       32.74202     3439.84623
13258.50000        1.51010        1.45258        1.42302       -0.27580        0.09189       78.99406       34.45089     3428.40639
13259.00000        1.36258        1.34613        1.32332       -0.27064        0.09272       81.06507       36.02367     3417.36102
13259.50000        1.36258        1.24736        1.23004       -0.26548        0.09354       81.36093       37.56214     3405.92119
13260.00000        1.38139        1.25044        1.19897       -0.26032        0.09370       82.24850       38.57989     3394.87582
13260.50000        1.40686        1.23454        1.22533       -0.25556        0.09370       84.91122       39.12427     3428.01191
13261.00000        1.18806        1.16516        1.13823       -0.25040        0.08829       78.69821       37.84498     3472.58784
13261.50000        1.13501        1.09958        1.05722       -0.24524        0.08152       72.78105       34.75859     3516.76928
13262.00000        1.16017        1.10432        1.05741       -0.24008        0.07476       52.07099       31.67338     3561.34521
