~Version ---------------------------------------------------
VERS. 2.0 : CWLS LOG ASCII STANDARD - VERSION 2.0
WRAP. NO  : One line per depth step
DLM . SPACE : Column Data Section Delimiter
~Well ------------------------------------------------------
STRT.F      13770.5 : START DEPTH
STOP.F      16230.0 : STOP DEPTH
STEP.F          0.5 : STEP
NULL.       -999.25 : NULL VALUE
COMP.                  HILCORP ENERGY CO. : COMPANY
WELL.          212648-SL3306-015-03306-10 : WELL
FLD .                       REDFISH POINT : FIELD
CNTY.                           VERMILION : COUNTY
STAT.                           LOUISIANA : STATE
CTRY.                                 USA : COUNTRY
SEC .                                     : SECTION
TWP .                                     : TOWNSHIP
RGE .                                     : RANGE
LOC . LAT 29*40'57.085"N LONG 92*2'43.95"W : LOCATION
EKB .F                       41 : ELEVATION KELLY BUSHING
EDF .F                       41 : ELEVATION DERRICK FLOOR
EGL .F                          : ELEVATION GROUND LEVEL
PDAT.                       MSL : PERMANENT DATUM
EPD .                           : ELEVATION PERMANENT DATUM
APD .                           : ABOVE PERMANENT DATUM
LMF .                        KB : LOG MEASURED FROM
DMF .                        KB : DRILLING MEASURED FROM
API .            17113217870000 : API NUMBER
UWI .                           : UWI NUMBER
DIGC.                     NthDS : DIGITIZING COMPANY
~Params ----------------------------------------------------
SRVC.               WEATHERFORD : LOGGING COMPANY
LOG .                AIT/DSN/SD : LOG
DATE.                2012-02-23 : RUN DATE
RUN .                         1 : RUN NUMBER
TDD .F                    16230 : TOTAL DEPTH DRILLER
TDL .F                    16230 : TOTAL DEPTH LOGGER
BOTL.F                    16220 : BOTTOM LOGGED INTERVAL
TOPL.F                    10000 : TOP LOGGED INTERVAL
CSGS.IN                   7.625 : CASING SIZE
CSGD.F                    13602 : CASING DRILLER
CSGL.F                    13605 : CASING LOGGER
BS  .IN                   6.750 : BIT SIZE
MUD .                       OBM : MUD TYPE
MUDD.                        12 : MUD DENSITY
MUDV.                        56 : MUD VISCOSITY
PH  .                           : MUD PH
FL  .                           : FLUID LOSS
MUDS.                           : SOURCE OF SAMPLE
RM  .OHMM                       : MUD RESISTIVITY
RMT .DEGF                       : RM TEMPERATURE
RMF .OHMM                       : MUD FILTRATE RESISTIVITY
RMFT.DEGF                       : RMF TEMPERATURE
RMC .OHMM                       : MUD CAKE RESISTIVITY
RMCT.DEGF                       : RMC TEMPERATURE
RMFS.                           : RMF SOURCE
RMCS.                           : RMC SOURCE
RMBH.OHMM                       : MUD RESISTIVITY AT BHT
BHT .DEGF                       : BOTTOM HOLE TEMPERATURE
TIMC.                           : TIME CIRCULATION STOPPED
TIML.           0453 2012-02-23 : TIME LOGGER ON BOTTOM
TMAX.DEGF                   272 : MAXIMUM RECORDED TEMPERATURE
UNIT.                      1214 : EQUIPMENT NUMBER
BASE.                NEW IBERIA : BASE LOCATION
ENG .               P. SPOELKER : RECORDED BY
WIT .                 F. GUIDRY : WITNESSED BY
~Curve Information -----------------------------------------
DEPT.F          :DEPTH
AI1R10.OHMM     :
AI1R30.OHMM     :
AI1R60.OHMM     :
DCAL.IN         :
DPHI.%          :
NPHI.%          :
TENS.LBS        :
~ASCII ------------------------------------------------------
# ...
14598.50000        1.87967        1.39445        1.28167        0.16680       11.98370       18.95605     6250.00303
14599.00000        1.62176        1.28108        1.21665        0.19320       13.79370       19.73406     6250.00303
14599.50000        1.56099        1.28761        1.23365        0.21920       15.83169       20.35447     6250.00303
14600.00000        1.65463        1.39200        1.33761        0.24480       16.05546       20.87943     6250.00303
14600.50000        1.82757        1.54290        1.45182        0.23360       14.72267       22.07743     6052.63477
14601.00000        1.97008        1.63834        1.52701        0.25760       12.83550       23.15544     6052.63477
14601.50000        2.02831        1.69333        1.58294        0.28160       10.43352       23.75344     6052.63477
14602.00000        2.06445        1.75016        1.62536        0.30560        8.09154       25.36424     6052.63477
14602.50000        2.10105        1.80439        1.66892        0.29000        6.39756       27.22944     6052.63477
14603.00000        2.13848        1.85738        1.76446        0.21520        6.02718       25.30747     6052.63477
14603.50000        2.25548        2.07863        1.87932        0.14000        7.23678       22.30549     6063.81897
14604.00000        2.81308        2.40631        2.19377        0.08160        8.86318       21.94351     6092.76632
14604.50000        3.27860        2.91746        2.72198        0.08840        8.74119       21.70152     6121.05577
14605.00000        2.91477        3.00425        2.55538        0.09560        8.43921       20.52953     6150.00312
14605.50000        2.59107        2.96973        2.30290        0.10280        8.13722       21.27754     6178.29257
14606.00000        2.89168        3.10107        2.59107        0.11000        8.30803       20.95835     6154.60837
14606.50000        3.39429        3.50497        3.08591        0.11840        9.17363       20.30117     6124.34524
14607.00000        3.65796        3.45126        3.12901        0.17320        9.38284       19.59118     6105.26631
14607.50000        3.62127        3.27799        2.92611        0.24000        8.60926       19.16920     6088.81895
14608.00000        3.14642        2.94920        2.59299        0.30680        7.83567       20.38880     6072.37160
14608.50000        2.61514        2.49421        2.29758        0.32000        7.37048       21.91440     6055.92424
14609.00000        2.17357        2.10922        1.92577        0.32000        7.24369       23.19760     6015.13480
14609.50000        1.87031        1.78382        1.61413        0.32000        7.72170       24.32121     5967.76642
14610.00000        1.69536        1.67774        1.53423        0.32000        8.35891       27.61920     5921.05593
14610.50000        1.63184        1.62852        1.50500        0.26000        8.25732       30.91719     6030.92426
14611.00000        1.61681        1.61189        1.50152        0.20000        7.93493       29.95521     6140.13470
14611.50000        1.61936        1.59543        1.53664        0.14000        7.67735       31.20121     6078.95054
14612.00000        1.63184        1.57899        1.50904        0.08000        7.90096       32.75921     5947.37170
14612.50000        1.57987        1.52630        1.46667        0.00000        8.24576       33.14962     5962.50327
14613.00000        1.48084        1.43779        1.41393        0.00000        8.70697       32.10723     6014.47691
14613.50000        1.46585        1.41628        1.36574        0.00000        9.23298       31.74525     6066.45055
14614.00000        1.54948        1.60327        1.51547        0.00000        9.18299       33.19645     6118.42419
14614.50000        1.72717        1.81494        1.74096        0.00000        8.97100       34.77685     6118.42419
14615.00000        2.08498        2.05455        2.00000        0.00000       12.32299       34.35487     6118.42419
14615.50000        2.51692        2.32580        2.17357       -0.00400       24.77693       34.25688     6118.42419
14616.00000        2.66396        2.38416        2.21128       -0.01400       34.01489       35.45488     6118.42419
14616.50000        2.66396        2.16115        1.96335       -0.02400       40.18086       35.93289     6118.42419
14617.00000        2.29524        1.82335        1.64867       -0.03400       33.57051       29.10534     6118.42419
14617.50000        1.69505        1.37486        1.31699       -0.04520       27.81695       23.32898     6118.42419
14618.00000        1.25180        1.01637        0.86140       -0.05880       25.80978       22.06700     6118.42419
14618.50000        0.92455        0.75136        0.56342       -0.07200       24.56219       21.67101     6094.74000
14619.00000        0.72321        0.58104        0.49808       -0.08000       23.25061       21.73622     6071.71371
14619.50000        0.67945        0.55911        0.46397       -0.08000       22.46863       21.04064     6052.63477
14620.00000        0.73243        0.53796        0.47002       -0.07760       21.23545       19.83865     6052.63477
14620.50000        0.78962        0.54856        0.48773       -0.06680       19.32427       19.14067     6052.63477
14621.00000        0.84726        0.55931        0.50611       -0.05560       17.81509       19.09788     6026.31901
14621.50000        0.89254        0.57034        0.52518       -0.04440       17.91270       19.17749     5982.24009
14622.00000        0.87821        0.57659        0.52508       -0.03440       19.28230       18.89830     5938.81908
14622.50000        0.83266        0.56342        0.51218       -0.02480       19.76271       18.61911     5955.92433
14623.00000        0.79931        0.54937        0.49960       -0.01520       19.65272       18.57872     6000.00324
14623.50000        0.76737        0.53124        0.49044       -0.00560       19.10473       20.24472     6044.08215
14624.00000        0.73671        0.51365        0.48146        0.00400       19.97994       20.35553     6090.13474
14624.50000        0.72703        0.51071        0.47263        0.01320       21.02994       19.96435     6137.50313
14625.00000        0.72435        0.50775        0.47263        0.02280       21.53315       20.53835     6184.21361
14625.50000        0.72656        0.50424        0.47263        0.03440       21.64036       20.41637     6221.05569
14626.00000        0.72844        0.50136        0.46578        0.04000       21.15837       19.97998     6257.23987
14626.50000        0.70995        0.49299        0.44907        0.04000       20.78438       20.20959     6294.08195
14627.00000        0.68014        0.47676        0.43300        0.04000       20.84239       20.43800     6307.23983
14627.50000        0.65151        0.46111        0.41747        0.04000       21.12840       20.95440     6286.84511
14628.00000        0.62797        0.44597        0.40880        0.04000       22.32641       21.66041     6262.50302
14628.50000        0.62029        0.44436        0.40444        0.04160       22.51162       22.15282     6241.45041
14629.00000        0.61271        0.44609        0.40016        0.04400       22.69683       22.32243     6219.08201
14629.50000        0.61800        0.44940        0.40549        0.04640       22.88323       22.56044     6197.37150
14630.00000        0.67788        0.45509        0.41089        0.04880       23.23884       22.79845     6156.58206
14630.50000        0.67675        0.45830        0.41302        0.05120       23.55605       22.57086     6087.50317
14631.00000        0.65988        0.45128        0.40202        0.05360       23.82166       22.40807     6017.76638
14631.50000        0.64129        0.44301        0.38921        0.05640       22.52808       22.32528     5948.68749
14632.00000        0.62954        0.43662        0.39250        0.05920       21.23010       22.61849     5951.97696
14632.50000        0.62954        0.43089        0.39582        0.06160       21.70811       23.00290     6003.95060
