~Version ---------------------------------------------------
VERS. 2.0 : CWLS LOG ASCII STANDARD - VERSION 2.0
WRAP. NO  : One line per depth step
DLM . SPACE : Column Data Section Delimiter
~Well ------------------------------------------------------
STRT.F      13770.5 : START DEPTH
STOP.F      16230.0 : STOP DEPTH
STEP.F          0.5 : STEP
NULL.       -999.25 : NULL VALUE
COMP.                  HILCORP ENERGY CO. : COMPANY
WELL.          212648-SL3306-015-03306-10 : WELL
FLD .                       REDFISH POINT : FIELD
CNTY.                           VERMILION : COUNTY
STAT.                           LOUISIANA : STATE
CTRY.                                 USA : COUNTRY
SEC .                                     : SECTION
TWP .                                     : TOWNSHIP
RGE .                                     : RANGE
LOC . LAT 29*40'57.085"N LONG 92*2'43.95"W : LOCATION
EKB .F                       41 : ELEVATION KELLY BUSHING
EDF .F                       41 : ELEVATION DERRICK FLOOR
EGL .F                          : ELEVATION GROUND LEVEL
PDAT.                       MSL : PERMANENT DATUM
EPD .                           : ELEVATION PERMANENT DATUM
APD .                           : ABOVE PERMANENT DATUM
LMF .                        KB : LOG MEASURED FROM
DMF .                        KB : DRILLING MEASURED FROM
API .            17113217870000 : API NUMBER
UWI .                           : UWI NUMBER
DIGC.                     NthDS : DIGITIZING COMPANY
~Params ----------------------------------------------------
SRVC.               WEATHERFORD : LOGGING COMPANY
LOG .                AIT/DSN/SD : LOG
DATE.                2012-02-23 : RUN DATE
RUN .                         1 : RUN NUMBER
TDD .F                    16230 : TOTAL DEPTH DRILLER
TDL .F                    16230 : TOTAL DEPTH LOGGER
BOTL.F                    16220 : BOTTOM LOGGED INTERVAL
TOPL.F                    10000 : TOP LOGGED INTERVAL
CSGS.IN                   7.625 : CASING SIZE
CSGD.F                    13602 : CASING DRILLER
CSGL.F                    13605 : CASING LOGGER
BS  .IN                   6.750 : BIT SIZE
MUD .                       OBM : MUD TYPE
MUDD.                        12 : MUD DENSITY
MUDV.                        56 : MUD VISCOSITY
PH  .                           : MUD PH
FL  .                           : FLUID LOSS
MUDS.                           : SOURCE OF SAMPLE
RM  .OHMM                       : MUD RESISTIVITY
RMT .DEGF                       : RM TEMPERATURE
RMF .OHMM                       : MUD FILTRATE RESISTIVITY
RMFT.DEGF                       : RMF TEMPERATURE
RMC .OHMM                       : MUD CAKE RESISTIVITY
RMCT.DEGF                       : RMC TEMPERATURE
RMFS.                           : RMF SOURCE
RMCS.                           : RMC SOURCE
RMBH.OHMM                       : MUD RESISTIVITY AT BHT
BHT .DEGF                       : BOTTOM HOLE TEMPERATURE
TIMC.                           : TIME CIRCULATION STOPPED
TIML.           0453 2012-02-23 : TIME LOGGER ON BOTTOM
TMAX.DEGF                   272 : MAXIMUM RECORDED TEMPERATURE
UNIT.                      1214 : EQUIPMENT NUMBER
BASE.                NEW IBERIA : BASE LOCATION
ENG .               P. SPOELKER : RECORDED BY
WIT .                 F. GUIDRY : WITNESSED BY
~Curve Information -----------------------------------------
DEPT.F          :DEPTH
AI1R10.OHMM     :
AI1R30.OHMM     :
AI1R60.OHMM     :
DCAL.IN         :
DPHI.%          :
NPHI.%          :
TENS.LBS        :
~ASCII ------------------------------------------------------
# ...
15564.50000        3.45126        3.28649        2.92746       -0.10920       15.15373       22.85771     6748.68684
15565.00000        2.81594        2.80814        2.62581       -0.10240       14.48288       27.16806     6776.31840
15565.50000        2.69693        2.66889        2.55940       -0.09560       13.64404       31.83600     6776.31840
15566.00000        2.66939        2.69543        2.59803       -0.08880       12.80519       30.34675     6776.31840
15566.50000        2.90052        2.83502        2.80373       -0.08200       11.97834       25.89831     6732.23949
15567.00000        3.22597        3.07850        3.02544       -0.07400       11.33750       21.44988     6623.02905
15567.50000        3.57040        3.50692        3.26498       -0.06720       11.43105       19.50463     6609.21327
15568.00000        4.46132        4.12599        3.78948       -0.06040       11.52460       18.23859     6659.87112
15568.50000        6.05052        5.52427        4.65863       -0.05360       11.74295       16.98454     6710.52898
15569.00000        8.20506        7.39710        7.21003       -0.04680       12.04410       16.30409     6710.52898
15569.50000        9.84734        9.90396        8.29969       -0.04000       12.34525       16.24525     6710.52898
15570.00000        7.24881        8.12878        6.12936       -0.03480       11.49921       17.10320     6710.52898
15570.50000        7.00175        6.67117        5.63885       -0.03000       10.36756       18.17595     6694.73952
15571.00000        8.10551        5.91881        6.00592       -0.02480        9.23592       19.28853     6675.66058
15571.50000        8.97341        5.35477        6.07968       -0.01960        8.38987       19.28008     6652.63429
15572.00000        8.30813        5.14935        5.70282       -0.01480       11.15102       18.24323     6616.45011
15572.50000        7.69218        5.42605        5.34883       -0.00960       15.65239       16.98439     6598.68696
15573.00000        7.73141        5.71814        5.30695       -0.00440       16.37354       15.82154     6697.37109
15573.50000        7.93274        5.90514        5.33993        0.00040       16.53069       14.68270     6773.68682
15574.00000        8.13931        5.91553        5.37312        0.00560       16.59184       14.64785     6761.18683
15574.50000        8.27976        5.92593        5.36716        0.01080       16.25700       15.68580     6748.68684
15575.00000        8.14007        5.93635        5.35180        0.01560       14.21815       16.92175     6735.52896
15575.50000        7.97540        5.94899        5.33302        0.02080       11.11611       18.15770     6723.02897
15576.00000        7.84085        6.24724        5.33006        0.02600        7.86047       18.40365     6710.52898
15576.50000        9.26173        7.03940        5.73933        0.03080        9.26202       17.16160     6710.52898
15577.00000       10.73467        7.93274        6.29537        0.03600       12.85476       15.91956     6710.52898
15577.50000       10.99792        7.81117        6.52173        0.04040       14.07991       15.69391     6710.52898
15578.00000        9.87378        7.57431        6.20062        0.04160       13.81706       16.14506     6637.50272
15578.50000        9.04004        6.90529        5.86108        0.04280       12.99382       15.90621     6578.95014
15579.00000        8.38532        6.29537        5.41151        0.04440       12.23057       15.90736     6578.95014
15579.50000        7.15623        5.73933        4.99597        0.04560       11.46853       17.19371     6578.95014
15580.00000        7.06353        6.01092        5.31972        0.04680       10.09808       17.79966     6578.95014
15580.50000        7.68365        6.29537        5.66393        0.04800        8.65084       17.95082     6578.95014
15581.00000        8.00644        6.45095        5.87736        0.04960        7.15199       18.38037     6599.34486
15581.50000        7.68863        6.05668        5.50183        0.05080        7.05354       18.55312     6650.00271
15582.00000        6.88935        5.68650        5.23239        0.05200        7.99429       18.03947     6700.66056
15582.50000        6.74749        5.90569        5.26783        0.05360        9.19544       17.93862     6734.21317
15583.00000        6.82909        6.13333        5.49370        0.05480       11.35659       17.88938     6764.47630
15583.50000        6.64224        6.02930        5.62115        0.05640       13.51774       16.95333     6798.02891
15584.00000        6.28549        5.84646        5.58901        0.05760       12.91889       15.82911     6834.87098
15584.50000        5.70863        5.33006        5.35130        0.05880       11.42004       15.10427     6871.05516
15585.00000        5.18423        4.85928        4.94084        0.06040        9.64160       15.42102     6907.89724
15585.50000        4.59701        4.43008        4.38119        0.06160        7.40259       16.52257     6907.89724
15586.00000        4.07630        4.03878        3.88493        0.06280        6.68374       19.02931     6896.71304
15586.50000        3.61458        3.68205        3.44488        0.06440        6.68489       21.53606     6869.73938
15587.00000        3.53198        3.40057        3.19421        0.06560        6.76644       24.04401     6842.10782
15587.50000        3.46501        3.30753        3.16656        0.06680        6.96680       24.86716     6814.47626
15588.00000        3.39240        3.19923        3.13364        0.06800        7.40835       24.88031     6787.50260
15588.50000        3.26076        3.11170        3.09362        0.06960        8.00950       25.36146     6793.42365
15589.00000        3.13393        3.02656        3.03441        0.07080        8.51825       25.71061     6822.37099
15589.50000        3.10854        3.04031        2.97660        0.07200        9.02700       25.53176     6850.66044
15590.00000        3.23254        3.20515        3.07452        0.07360        8.85295       25.13332     6879.60779
15590.50000        3.36149        3.37894        3.17565        0.07480        8.15810       23.37407     6907.89724
15591.00000        3.99495        3.78213        3.61090        0.07600        8.07526       21.27523     6850.00255
15591.50000        4.90851        4.40556        4.03356        0.07720        8.29601       19.92038     6792.10786
15592.00000        5.26930        4.60552        4.19640        0.07880        8.65716       20.22274     6733.55527
15592.50000        5.17035        4.47951        4.11760        0.08000        8.67871       21.33869     6710.52898
15593.00000        5.07279        4.35695        3.98131        0.08000        8.97986       21.42504     6710.52898
15593.50000        4.96420        4.32723        3.94648        0.08000        9.34101       21.82099     6710.52898
15594.00000        4.80788        4.35816        3.97689        0.08000        7.99817       22.96214     6716.45003
15594.50000        4.65605        4.38930        4.00790        0.08000        7.15932       24.10329     6730.26580
15595.00000        4.20223        4.30887        4.03878        0.08000        6.75248       25.51827     6744.73948
15595.50000        3.61859        3.65931        3.51568        0.08000        6.63363       26.98582     6759.21315
15596.00000        3.11573        3.10796        3.06033        0.08000        6.89518       27.46697     6773.68682
15596.50000        2.72526        2.63944        2.72374        0.08000        7.55633       27.00132     6776.31840
15597.00000        2.53819        2.45735        2.43766        0.08000        8.79708       26.70607     6776.31840
15597.50000        2.36396        2.28804        2.26950        0.08000       10.03783       27.08882     6776.31840
15598.00000        2.38747        2.36221        2.28614        0.08000       10.95121       27.47157     6776.31840
15598.50000        2.54547        2.50276        2.41143        0.08000       10.28516       26.76353     6776.31840
