~Version ---------------------------------------------------
VERS. 2.0 : CWLS LOG ASCII STANDARD - VERSION 2.0
WRAP. NO  : One line per depth step
DLM . SPACE : Column Data Section Delimiter
~Well ------------------------------------------------------
STRT.F      13770.5 : START DEPTH
STOP.F      16230.0 : STOP DEPTH
STEP.F          0.5 : STEP
NULL.       -999.25 : NULL VALUE
COMP.                  HILCORP ENERGY CO. : COMPANY
WELL.          212648-SL3306-015-03306-10 : WELL
FLD .                       REDFISH POINT : FIELD
CNTY.                           VERMILION : COUNTY
STAT.                           LOUISIANA : STATE
CTRY.                                 USA : COUNTRY
SEC .                                     : SECTION
TWP .                                     : TOWNSHIP
RGE .                                     : RANGE
LOC . LAT 29*40'57.085"N LONG 92*2'43.95"W : LOCATION
EKB .F                       41 : ELEVATION KELLY BUSHING
EDF .F                       41 : ELEVATION DERRICK FLOOR
EGL .F                          : ELEVATION GROUND LEVEL
PDAT.                       MSL : PERMANENT DATUM
EPD .                           : ELEVATION PERMANENT DATUM
APD .                           : ABOVE PERMANENT DATUM
LMF .                        KB : LOG MEASURED FROM
DMF .                        KB : DRILLING MEASURED FROM
API .            17113217870000 : API NUMBER
UWI .                           : UWI NUMBER
DIGC.                     NthDS : DIGITIZING COMPANY
~Params ----------------------------------------------------
SRVC.               WEATHERFORD : LOGGING COMPANY
LOG .                AIT/DSN/SD : LOG
DATE.                2012-02-23 : RUN DATE
RUN .                         1 : RUN NUMBER
TDD .F                    16230 : TOTAL DEPTH DRILLER
TDL .F                    16230 : TOTAL DEPTH LOGGER
BOTL.F                    16220 : BOTTOM LOGGED INTERVAL
TOPL.F                    10000 : TOP LOGGED INTERVAL
CSGS.IN                   7.625 : CASING SIZE
CSGD.F                    13602 : CASING DRILLER
CSGL.F                    13605 : CASING LOGGER
BS  .IN                   6.750 : BIT SIZE
MUD .                       OBM : MUD TYPE
MUDD.                        12 : MUD DENSITY
MUDV.                        56 : MUD VISCOSITY
PH  .                           : MUD PH
FL  .                           : FLUID LOSS
MUDS.                           : SOURCE OF SAMPLE
RM  .OHMM                       : MUD RESISTIVITY
RMT .DEGF                       : RM TEMPERATURE
RMF .OHMM                       : MUD FILTRATE RESISTIVITY
RMFT.DEGF                       : RMF TEMPERATURE
RMC .OHMM                       : MUD CAKE RESISTIVITY
RMCT.DEGF                       : RMC TEMPERATURE
RMFS.                           : RMF SOURCE
RMCS.                           : RMC SOURCE
RMBH.OHMM                       : MUD RESISTIVITY AT BHT
BHT .DEGF                       : BOTTOM HOLE TEMPERATURE
TIMC.                           : TIME CIRCULATION STOPPED
TIML.           0453 2012-02-23 : TIME LOGGER ON BOTTOM
TMAX.DEGF                   272 : MAXIMUM RECORDED TEMPERATURE
UNIT.                      1214 : EQUIPMENT NUMBER
BASE.                NEW IBERIA : BASE LOCATION
ENG .               P. SPOELKER : RECORDED BY
WIT .                 F. GUIDRY : WITNESSED BY
~Curve Information -----------------------------------------
DEPT.F          :DEPTH
AI1R10.OHMM     :
AI1R30.OHMM     :
AI1R60.OHMM     :
DCAL.IN         :
DPHI.%          :
NPHI.%          :
TENS.LBS        :
~ASCII ------------------------------------------------------
# ...
14771.00000        1.42206        1.40052        1.34518        0.04000        9.77068       31.34100     6250.00303
14771.50000        1.41210        1.38699        1.35217        0.04000        9.79764       31.18797     6203.29255
14772.00000        1.40234        1.38162        1.35906        0.04000       10.48459       31.76932     6184.21361
14772.50000        1.39794        1.38162        1.36612        0.04000       10.50196       32.74187     6184.21361
14773.00000        1.41537        1.38162        1.37308        0.04000        9.77893       31.20526     6184.21361
14773.50000        1.43301        1.38162        1.38021        0.04000        8.97550       29.90384     6184.21361
14774.00000        1.45088        1.39226        1.38469        0.04000        8.93767       29.62240     6212.50306
14774.50000        1.46897        1.40584        1.38840        0.04000        9.44942       29.66977     6282.89774
14775.00000        1.48743        1.41943        1.39213        0.04000        9.96118       29.71713     6353.29242
14775.50000        1.50597        1.43315        1.39445        0.04000       10.47174       29.19090     6373.02925
14776.00000        1.52475        1.44700        1.39445        0.04000       10.88029       28.52067     6362.50294
14776.50000        1.54376        1.44285        1.39445        0.04000       10.87726       29.13443     6351.97664
14777.00000        1.53763        1.43872        1.39445        0.04000       10.61022       30.67457     6341.45033
14777.50000        1.53139        1.43447        1.39445        0.04000        9.88720       30.25154     6330.92402
14778.00000        1.52531        1.45424        1.39445        0.04000        9.06817       29.82851     6319.73982
14778.50000        1.51912        1.48029        1.43527        0.04000        8.72914       28.66208     6284.21353
14779.00000        1.51996        1.50152        1.44887        0.04000        9.00210       27.68945     6231.58200
14779.50000        1.53125        1.50152        1.42048        0.04000        9.24266       27.44282     6178.95046
14780.00000        1.54262        1.50152        1.44379        0.04000        8.95522       28.12857     6126.31892
14780.50000        1.55407        1.50152        1.46761        0.04000        8.66779       29.11432     6073.68739
14781.00000        1.56561        1.51701        1.49170        0.04000        8.32335       30.09887     6081.58212
14781.50000        1.56489        1.52517        1.49114        0.04000        8.44631       30.54823     6140.13470
14782.00000        1.54562        1.50319        1.47401        0.04000        8.84287       28.85442     6188.81887
14782.50000        1.52672        1.48166        1.45707        0.04000        8.44024       27.16060     6237.50304
14783.00000        1.53281        1.46044        1.47401        0.04000        8.24880       27.87755     6286.84511
14783.50000        1.58601        1.52419        1.55810        0.04000        8.79416       28.69411     6315.79245
14784.00000        1.63184        1.57928        1.51856        0.04000       10.08111       29.79146     6315.79245
14784.50000        1.56359        1.54519        1.48002        0.04000       10.24487       32.06839     6315.79245
14785.00000        1.49833        1.45505        1.44259        0.04000        9.98503       34.34532     6315.79245
14785.50000        1.45505        1.41066        1.41236        0.04000       10.50999       33.63309     6315.79245
14786.00000        1.44165        1.39445        1.39252        0.04000       11.14894       32.92087     6311.84509
14786.50000        1.43593        1.38699        1.37283        0.04000       10.81591       32.77623     6307.23983
14787.00000        1.44139        1.41393        1.38584        0.04000        9.93329       32.32320     6302.63457
14787.50000        1.44700        1.44139        1.40741        0.04000        8.86346       30.40979     6298.02931
14788.00000        1.63304        1.62221        1.61681        0.04000        8.04684       28.20718     6292.76616
14788.50000        1.84284        1.87152        1.81779        0.04000        8.16380       28.57974     6288.16090
14789.00000        1.96462        1.95050        1.87464        0.04000        8.76075       29.04110     6283.55564
14789.50000        1.92257        1.89959        1.81779        0.04000        8.27772       29.33806     6278.95038
14790.00000        1.88158        1.85001        1.77346        0.04000        8.03469       29.13822     6274.34512
14790.50000        1.78399        1.73293        1.71428        0.04000        9.03964       29.99197     6269.73986
14791.00000        1.61278        1.60742        1.57505        0.04000       10.12859       31.65571     6265.13460
14791.50000        1.48674        1.49114        1.44700        0.04000       10.64154       32.74586     6259.87145
14792.00000        1.48180        1.44700        1.40014        0.04000       10.50291       30.78805     6255.26619
14792.50000        1.47687        1.44700        1.42931        0.04000        9.73428       28.64304     6250.66093
14793.00000        1.60683        1.52955        1.51828        0.04000        8.70166       26.49683     6250.00303
14793.50000        1.99390        1.81914        1.80656        0.04000        8.37343       26.68519     6250.00303
14794.00000        1.99077        1.87898        1.86772        0.04000        9.09038       28.53073     6250.00303
14794.50000        1.71968        1.57083        1.66645        0.04000        9.14134       31.19166     6250.00303
14795.00000        1.52602        1.46952        1.48674        0.04000        9.19351       31.06863     6250.00303
14795.50000        1.53991        1.47646        1.40481        0.04000        8.45488       31.01759     6250.00303
14796.00000        1.60297        1.52701        1.45774        0.04000        7.51825       32.15454     6250.00303
14796.50000        1.66846        1.57914        1.56967        0.04000        6.90502       32.23550     6250.00303
14797.00000        1.70511        1.63319        1.60936        0.04000        6.39439       31.31147     6250.00303
14797.50000        1.69536        1.67774        1.59705        0.04000        6.30855       30.30885     6250.00303
14798.00000        1.72032        1.67774        1.59248        0.04000        7.02551       29.22582     6250.00303
14798.50000        1.75486        1.67774        1.61951        0.04000        6.78247       29.40278     6250.00303
14799.00000        1.78993        1.67774        1.64700        0.04000        6.53944       29.68294     6250.00303
14799.50000        1.70906        1.67774        1.61861        0.04000        6.13681       29.59351     6250.00303
14800.00000        1.71618        1.66399        1.61681        0.04000        7.19887       30.54517     6250.00303
14800.50000        1.72494        1.64700        1.66230        0.04000        7.72742       31.52372     6381.58188
14801.00000        1.67495        1.63819        1.65203        0.04000        7.75319       31.04909     6381.58188
14801.50000        1.62641        1.59499        1.61025        0.04000        7.54975       30.80006     6381.58188
14802.00000        1.57738        1.55278        1.54376        0.04000        7.57071       32.44700     6379.60819
14802.50000        1.52955        1.51183        1.47401        0.04000        7.84367       32.74396     6367.76610
14803.00000        1.55695        1.50152        1.48770        0.04000        7.90064       32.76492     6356.58190
14803.50000        1.58499        1.53664        1.52250        0.04000        7.71760       33.56107     6345.39769
14804.00000        1.60936        1.57258        1.55810        0.04000        7.53457       32.27165     6334.21349
14804.50000        1.58792        1.55666        1.55092        0.04000        7.53153       31.81982     6322.37140
14805.00000        1.54091        1.50709        1.51547        0.04000        7.39770       30.20881     6334.87139
