~Version ---------------------------------------------------
VERS. 2.0 : CWLS LOG ASCII STANDARD - VERSION 2.0
WRAP. NO  : One line per depth step
DLM . SPACE : Column Data Section Delimiter
~Well ------------------------------------------------------
STRT.F         5380 : START DEPTH
STOP.F      13830.0 : STOP DEPTH
STEP.F          0.5 : STEP
NULL.       -999.25 : NULL VALUE
COMP.                  HILCORP ENERGY CO. : COMPANY
WELL.          212648-SL3306-015-03306-10 : WELL
FLD .                       REDFISH POINT : FIELD
CNTY.                           VERMILION : COUNTY
STAT.                           LOUISIANA : STATE
CTRY.                                 USA : COUNTRY
SEC .                                     : SECTION
TWP .                                     : TOWNSHIP
RGE .                                     : RANGE
LOC . LAT 29*40'57.085"N LONG 92*2'43.95"W : LOCATION
EKB .F                       41 : ELEVATION KELLY BUSHING
EDF .F                       41 : ELEVATION DERRICK FLOOR
EGL .F                          : ELEVATION GROUND LEVEL
PDAT.                       MSL : PERMANENT DATUM
EPD .                           : ELEVATION PERMANENT DATUM
APD .                           : ABOVE PERMANENT DATUM
LMF .                        KB : LOG MEASURED FROM
DMF .                        KB : DRILLING MEASURED FROM
API .            17113217870000 : API NUMBER
UWI .                           : UWI NUMBER
DIGC.                     NthDS : DIGITIZING COMPANY
~Params ----------------------------------------------------
SRVC.               WEATHERFORD : LOGGING COMPANY
LOG .               IND/DEN/NEU : LOG
DATE.                2012-02-05 : RUN DATE
RUN .                         1 : RUN NUMBER
TDD .F                    13805 : TOTAL DEPTH DRILLER
TDL .F                    13822 : TOTAL DEPTH LOGGER
BOTL.F                    13822 : BOTTOM LOGGED INTERVAL
TOPL.F                     5398 : TOP LOGGED INTERVAL
CSGS.IN                         : CASING SIZE
CSGD.F                     5389 : CASING DRILLER
CSGL.F                     5389 : CASING LOGGER
BS  .IN                     8.5 : BIT SIZE
MUD .                 OIL BASED : MUD TYPE
MUDD.                        12 : MUD DENSITY
MUDV.                        72 : MUD VISCOSITY
PH  .                           : MUD PH
FL  .                       2.8 : FLUID LOSS
MUDS.                           : SOURCE OF SAMPLE
RM  .OHMM                       : MUD RESISTIVITY
RMT .DEGF                       : RM TEMPERATURE
RMF .OHMM                       : MUD FILTRATE RESISTIVITY
RMFT.DEGF                       : RMF TEMPERATURE
RMC .OHMM                       : MUD CAKE RESISTIVITY
RMCT.DEGF                       : RMC TEMPERATURE
RMFS.                           : RMF SOURCE
RMCS.                           : RMC SOURCE
RMBH.OHMM                       : MUD RESISTIVITY AT BHT
BHT .DEGF                   237 : BOTTOM HOLE TEMPERATURE
TIMC.                           : TIME CIRCULATION STOPPED
TIML.                           : TIME LOGGER ON BOTTOM
TMAX.DEGF                   237 : MAXIMUM RECORDED TEMPERATURE
UNIT.                     13028 : EQUIPMENT NUMBER
BASE.                      BRSD : BASE LOCATION
ENG .                 F. GUIDRY : RECORDED BY
WIT .             AXXIS LIBERTY : WITNESSED BY
~Curve Information -----------------------------------------
DEPT.F          :DEPTH
AI2R20.OHMM     :
AI2R40.OHMM     :
AI2R85.OHMM     :
DCAL.IN         :
DRHO.G/CC       :
GR.GAPI         :
NPHI.%          :
TENS.LBF        :
~ASCII ------------------------------------------------------
# ...
7085.00000        0.37977        0.37358        0.37228        0.54365        -999.25       29.58579        -999.25     2116.97968
7085.50000        0.23653        0.27838        0.27038        0.46587        -999.25       28.40236        -999.25     2117.67364
7086.00000        0.20209        0.20745        0.20771        0.38809        -999.25       26.62721        -999.25     2118.36761
7086.50000        0.19194        0.19459        0.19974        0.41984        -999.25       24.55621        -999.25     2119.06158
7087.00000        0.18976        0.19459        0.20488        0.52420        -999.25       26.03550        -999.25     2119.75554
7087.50000        0.19194        0.19548        0.21356        0.62857        -999.25       26.33135        -999.25     2120.44951
7088.00000        0.19282        0.19773        0.21243        0.73293        -999.25       23.37278        -999.25     2121.14347
7088.50000        0.18421        0.19408        0.20481        0.70357        -999.25       21.30177        -999.25     2121.83744
7089.00000        0.17598        0.19020        0.19746        0.64047        -999.25       21.30177        -999.25     2122.53141
7089.50000        0.17280        0.18933        0.19836        0.57738        -999.25       23.07692        -999.25     2123.22537
7090.00000        0.17280        0.18976        0.20481        0.51389        -999.25       26.62721        -999.25     2123.91934
7090.50000        0.17280        0.19194        0.20631        0.51349        -999.25       28.69822        -999.25     2124.61331
7091.00000        0.17280        0.19344        0.20443        0.60674        -999.25       29.28993        -999.25     2125.30727
7091.50000        0.17679        0.19449        0.20471        0.70039        -999.25       29.28993        -999.25     2126.14003
7092.00000        0.18119        0.19575        0.20680        0.78611        -999.25       27.03195        -999.25     2126.83400
7092.50000        0.18170        0.19717        0.20855        0.74801        -999.25       24.85206        -999.25     2127.52797
7093.00000        0.18222        0.19920        0.21031        0.70952        -999.25       23.66863        -999.25     2128.22193
7093.50000        0.18275        0.20000        0.21208        0.67143        -999.25       23.07692        -999.25     2128.91590
7094.00000        0.18327        0.20000        0.21387        0.63333        -999.25       24.55621        -999.25     2129.60986
7094.50000        0.18379        0.20000        0.21568        0.59524        -999.25       26.03550        -999.25     2130.30383
7095.00000        0.18433        0.20000        0.21748        0.51151        -999.25       28.99408        -999.25     2130.99780
7095.50000        0.18489        0.20000        0.21914        0.42817        -999.25       28.10650        -999.25     2131.69176
7096.00000        0.18544        0.20000        0.22080        0.34444        -999.25       25.14792        -999.25     2132.38573
7096.50000        0.18527        0.20000        0.22250        0.28968        -999.25       23.07692        -999.25     2133.07970
7097.00000        0.18212        0.20000        0.22014        0.35039        -999.25       22.78106        -999.25     2133.77366
7097.50000        0.17903        0.20000        0.21517        0.41071        -999.25       25.14792        -999.25     2134.60642
7098.00000        0.17598        0.19940        0.21031        0.47103        -999.25       24.55621        -999.25     2135.30039
7098.50000        0.17894        0.19638        0.20556        0.53135        -999.25       23.37278        -999.25     2135.99435
7099.00000        0.18194        0.19766        0.21158        0.50436        -999.25       21.30177        -999.25     2136.68832
7099.50000        0.18320        0.19896        0.21778        0.41944        -999.25       21.89349        -999.25     2137.38229
7100.00000        0.18404        0.20024        0.22414        0.33452        -999.25       22.48520        -999.25     2027.80810
7100.50000        0.18116        0.19978        0.22430        0.34405        -999.25       23.37278        -999.25     2028.50206
7101.00000        0.17977        0.20000        0.21696        0.40992        -999.25       23.66863        -999.25     2029.19603
7101.50000        0.17841        0.20000        0.21150        0.47619        -999.25       23.07692        -999.25     2029.89000
7102.00000        0.17796        0.20000        0.21265        0.50992        -999.25       22.48520        -999.25     2030.58396
7102.50000        0.17887        0.20000        0.21378        0.49524        -999.25       22.78106        -999.25     2031.27793
7103.00000        0.17923        0.19967        0.21493        0.48055        -999.25       24.85206        -999.25     2031.97189
7103.50000        0.17923        0.19914        0.21333        0.46587        -999.25       26.33135        -999.25     2032.66586
7104.00000        0.17885        0.19862        0.21104        0.45119        -999.25       26.92307        -999.25     2033.35983
7104.50000        0.17698        0.19818        0.20880        0.43651        -999.25       26.33135        -999.25     2034.05379
7105.00000        0.17512        0.19818        0.20722        0.45079        -999.25       25.73964        -999.25     2034.88655
7105.50000        0.17438        0.19818        0.20667        0.46468        -999.25       24.55621        -999.25     2035.58052
7106.00000        0.17438        0.19818        0.20610        0.47897        -999.25       23.37278        -999.25     2036.27449
7106.50000        0.17438        0.19818        0.20556        0.49325        -999.25       22.48520        -999.25     2036.96845
7107.00000        0.17348        0.19818        0.20401        0.50754        -999.25       21.89349        -999.25     2037.66242
7107.50000        0.17077        0.19523        0.20215        0.52420        -999.25       21.89349        -999.25     2038.35638
7108.00000        0.16857        0.19282        0.20060        0.53849        -999.25       24.55621        -999.25     2039.05035
7108.50000        0.16916        0.18990        0.20046        0.55278        -999.25       26.62721        -999.25     2039.74432
7109.00000        0.17045        0.19282        0.20123        0.55555        -999.25       30.17751        -999.25     2040.43828
7109.50000        0.17736        0.19616        0.20593        0.55555        -999.25       30.76922        -999.25     2041.13225
7110.00000        0.19367        0.20695        0.22760        0.55555        -999.25       29.58579        -999.25     2041.82622
7110.50000        0.21148        0.23060        0.25114        0.55555        -999.25       30.17751        -999.25     2042.91779
7111.00000        0.23094        0.25694        0.27711        0.52579        -999.25       29.58579        -999.25     2044.40698
7111.50000        0.25218        0.28630        0.30974        0.48849        -999.25       30.76922        -999.25     2045.89617
7112.00000        0.27537        0.28956        0.34922        0.45158        -999.25       29.28993        -999.25     2047.38536
7112.50000        0.24140        0.26807        0.30768        0.48849        -999.25       26.33135        -999.25     2048.87455
7113.00000        0.21162        0.23947        0.25713        0.57539        -999.25       20.11834        -999.25     2050.36374
7113.50000        0.18549        0.21389        0.21489        0.66230        -999.25       17.45562        -999.25     2052.38934
7114.00000        0.17240        0.19107        0.19891        0.68770        -999.25       17.45562        -999.25     2053.87853
7114.50000        0.16546        0.18421        0.19674        0.60833        -999.25       18.63905        -999.25     2055.36772
7115.00000        0.16385        0.18477        0.19827        0.54246        -999.25       21.30177        -999.25     2056.85691
7115.50000        0.16831        0.18761        0.20068        0.47619        -999.25       21.89349        -999.25     2058.34610
