~Version ---------------------------------------------------
VERS. 2.0 : CWLS LOG ASCII STANDARD - VERSION 2.0
WRAP. NO  : One line per depth step
DLM . SPACE : Column Data Section Delimiter
~Well ------------------------------------------------------
STRT.F         5380 : START DEPTH
STOP.F      13830.0 : STOP DEPTH
STEP.F          0.5 : STEP
NULL.       -999.25 : NULL VALUE
COMP.                  HILCORP ENERGY CO. : COMPANY
WELL.          212648-SL3306-015-03306-10 : WELL
FLD .                       REDFISH POINT : FIELD
CNTY.                           VERMILION : COUNTY
STAT.                           LOUISIANA : STATE
CTRY.                                 USA : COUNTRY
SEC .                                     : SECTION
TWP .                                     : TOWNSHIP
RGE .                                     : RANGE
LOC . LAT 29*40'57.085"N LONG 92*2'43.95"W : LOCATION
EKB .F                       41 : ELEVATION KELLY BUSHING
EDF .F                       41 : ELEVATION DERRICK FLOOR
EGL .F                          : ELEVATION GROUND LEVEL
PDAT.                       MSL : PERMANENT DATUM
EPD .                           : ELEVATION PERMANENT DATUM
APD .                           : ABOVE PERMANENT DATUM
LMF .                        KB : LOG MEASURED FROM
DMF .                        KB : DRILLING MEASURED FROM
API .            17113217870000 : API NUMBER
UWI .                           : UWI NUMBER
DIGC.                     NthDS : DIGITIZING COMPANY
~Params ----------------------------------------------------
SRVC.               WEATHERFORD : LOGGING COMPANY
LOG .               IND/DEN/NEU : LOG
DATE.                2012-02-05 : RUN DATE
RUN .                         1 : RUN NUMBER
TDD .F                    13805 : TOTAL DEPTH DRILLER
TDL .F                    13822 : TOTAL DEPTH LOGGER
BOTL.F                    13822 : BOTTOM LOGGED INTERVAL
TOPL.F                     5398 : TOP LOGGED INTERVAL
CSGS.IN                         : CASING SIZE
CSGD.F                     5389 : CASING DRILLER
CSGL.F                     5389 : CASING LOGGER
BS  .IN                     8.5 : BIT SIZE
MUD .                 OIL BASED : MUD TYPE
MUDD.                        12 : MUD DENSITY
MUDV.                        72 : MUD VISCOSITY
PH  .                           : MUD PH
FL  .                       2.8 : FLUID LOSS
MUDS.                           : SOURCE OF SAMPLE
RM  .OHMM                       : MUD RESISTIVITY
RMT .DEGF                       : RM TEMPERATURE
RMF .OHMM                       : MUD FILTRATE RESISTIVITY
RMFT.DEGF                       : RMF TEMPERATURE
RMC .OHMM                       : MUD CAKE RESISTIVITY
RMCT.DEGF                       : RMC TEMPERATURE
RMFS.                           : RMF SOURCE
RMCS.                           : RMC SOURCE
RMBH.OHMM                       : MUD RESISTIVITY AT BHT
BHT .DEGF                   237 : BOTTOM HOLE TEMPERATURE
TIMC.                           : TIME CIRCULATION STOPPED
TIML.                           : TIME LOGGER ON BOTTOM
TMAX.DEGF                   237 : MAXIMUM RECORDED TEMPERATURE
UNIT.                     13028 : EQUIPMENT NUMBER
BASE.                      BRSD : BASE LOCATION
ENG .                 F. GUIDRY : RECORDED BY
WIT .             AXXIS LIBERTY : WITNESSED BY
~Curve Information -----------------------------------------
DEPT.F          :DEPTH
AI2R20.OHMM     :
AI2R40.OHMM     :
AI2R85.OHMM     :
DCAL.IN         :
DRHO.G/CC       :
GR.GAPI         :
NPHI.%          :
TENS.LBF        :
~ASCII ------------------------------------------------------
# ...
12134.00000        0.37639        0.35751        0.29988        0.07539        0.07598       28.03525       34.02723     3162.92322
12134.50000        0.46306        0.45517        0.39905        0.07381        0.07831       44.48129       35.90651     3160.55635
12135.00000        0.65039        0.63558        0.65361        0.07222        0.07026       63.85631       37.78580     3158.18949
12135.50000        0.91359        0.88751        0.97616        0.07024        0.06220       77.25574       39.52663     3155.82263
12136.00000        1.22858        1.10432        1.09427        0.06825        0.05953       86.12783       40.94675     3155.82263
12136.50000        1.20446        1.13843        1.10684        0.06666        0.05683       91.15379       41.66864     3155.82263
12137.00000        1.17371        1.13293        1.11956        0.06508        0.05827       94.40460       42.08284     3155.82263
12137.50000        1.20997        1.11751        1.10331        0.06349        0.06073       95.88027       43.40237     3155.82263
12138.00000        1.14281        1.08432        1.06858        0.06190        0.06557       96.46765       45.32545     3155.82263
12138.50000        1.07938        1.04779        1.03051        0.05992        0.07120       94.68889       45.24142     3155.82263
12139.00000        1.06839        1.01250        0.99090        0.05833        0.07683       93.50185       44.22131     3155.82263
12139.50000        1.09118        0.98287        0.95290        0.05674        0.07795       87.87695       42.57752     3155.82263
12140.00000        1.11445        0.95700        0.91518        0.05516        0.07295       73.08049       40.35503     3155.82263
12140.50000        1.05432        0.92088        0.87879        0.05357        0.06463       68.34316       37.98817     3155.82263
12141.00000        0.99744        0.84509        0.81439        0.05198        0.05630       50.88398       35.93728     3202.37094
12141.50000        0.93402        0.77553        0.75188        0.05000        0.05630       36.16148       35.14794     3248.52477
12142.00000        0.83955        0.71170        0.68416        0.04841        0.06368       36.08390       35.18225     3295.07309
12142.50000        0.75463        0.65313        0.62254        0.04682        0.06876       41.99742       36.44971     3341.62140
12143.00000        0.72536        0.59148        0.57198        0.04484        0.06850       56.63873       37.60356     3397.24269
12143.50000        0.71223        0.61535        0.57198        0.04325        0.06063       65.75639       37.98817     3443.39652
12144.00000        0.79237        0.65900        0.62670        0.04166        0.05376       68.44508       38.34320     3452.86397
12144.50000        0.85613        0.67559        0.64118        0.03968        0.05236       57.24031       38.10651     3407.10462
12145.00000        0.82329        0.64873        0.62527        0.03809        0.05236       43.16206       37.39646     3360.95078
12145.50000        0.70362        0.57365        0.53723        0.03651        0.05236       25.40702       36.09468     3314.79695
12146.00000        0.58386        0.48021        0.45935        0.03492        0.05301       20.07798       33.84616     3269.03759
12146.50000        0.48448        0.40194        0.38431        0.03333        0.05384       18.59508       31.95267     3222.88375
12147.00000        0.40205        0.33647        0.32150        0.03135        0.05433       18.29561       30.76924     3195.27035
12147.50000        0.33362        0.28163        0.26898        0.02976        0.05433       18.29199       30.88758     3195.27035
12148.00000        0.31666        0.23575        0.22502        0.02817        0.05433       17.69666       32.66273     3195.27035
12148.50000        0.29680        0.22523        0.20745        0.02658        0.05433       17.69305       33.84616     3195.27035
12149.00000        0.30034        0.22318        0.21224        0.02500        0.05433       20.35215       35.26628     3195.27035
12149.50000        0.33567        0.26793        0.26068        0.02341        0.05433       22.71539       35.85799     3195.27035
12150.00000        0.40604        0.34386        0.33733        0.02143        0.05557       39.05313       36.80474     3195.27035
12150.50000        0.53900        0.48056        0.46569       -0.05992        0.05827       52.06722       39.17160     3313.61352
12151.00000        0.69297        0.64489        0.61857       -0.06151        0.05827       64.48960       40.59172     3313.61352
12151.50000        0.86517        0.75140        0.71008       -0.06310        0.05762       68.33213       41.18344     3313.61352
12152.00000        0.96033        0.78215        0.73948       -0.06468        0.05652       55.90252       40.47338     3313.61352
12152.50000        0.96640        0.75581        0.72835       -0.06627        0.05307       44.95220       37.75148     3313.61352
12153.00000        0.85152        0.73035        0.70749       -0.06826        0.04905       26.01301       35.73965     3313.61352
12153.50000        0.73021        0.60792        0.59981       -0.06984        0.04502       21.57154       34.43788     3313.61352
12154.00000        0.60892        0.48746        0.46441       -0.07143        0.04100       17.72178       34.20119     3313.61352
12154.50000        0.49835        0.39086        0.35958       -0.07302        0.04081       17.71817       33.37279     3313.61352
12155.00000        0.40790        0.32362        0.30940       -0.07461        0.04634       17.41870       32.66273     3312.43008
12155.50000        0.36056        0.30449        0.28562       -0.07619        0.05187       18.00680       31.71598     3310.45770
12156.00000        0.35981        0.28648        0.26404       -0.07818        0.05561       19.18661       30.29587     3308.48531
12156.50000        0.36089        0.27734        0.25018       -0.07937        0.05213       19.77471       30.29587     3306.51293
12157.00000        0.36198        0.27038        0.25596       -0.07937        0.04866       20.06695       30.41421     3304.54054
12157.50000        0.37276        0.27572        0.26187       -0.07937        0.04518       18.28819       30.41421     3302.17368
12158.00000        0.38639        0.28119        0.26793       -0.07937        0.04624       17.69287       30.76924     3300.20129
12158.50000        0.40051        0.28767        0.27349       -0.07937        0.04886       16.80168       30.88758     3297.83443
12159.00000        0.40419        0.29807        0.27874       -0.07937        0.05104       16.79807       32.06060     3295.86204
12159.50000        0.40790        0.30886        0.28901       -0.07937        0.05201       16.49787       32.66273     3293.88965
12160.00000        0.41164        0.32001        0.32080       -0.07937        0.05110       17.08597       32.42604     3291.91727
12160.50000        0.46675        0.35755        0.37279       -0.07937        0.05039       18.70957       32.18936     3289.94488
12161.00000        0.52924        0.42004        0.43823       -0.07937        0.05039       20.92488       31.83433     3287.97250
12161.50000        0.60349        0.49346        0.50931       -0.07937        0.05415       23.14020       30.41421     3286.00011
12162.00000        0.69075        0.57971        0.56574       -0.07937        0.06041       30.31703       31.12427     3283.63325
12162.50000        0.79063        0.67949        0.63890       -0.07937        0.06457       38.73351       32.07101     3281.66086
12163.00000        0.92976        0.82149        0.80045       -0.07937        0.06555       46.05827       33.72782     3279.68847
12163.50000        1.08234        0.93872        0.90470       -0.07937        0.06565       46.94223       33.96450     3277.71609
12164.00000        1.27816        1.03381        0.97902       -0.07937        0.06443       39.74041       32.89941     3275.74370
