~Version ---------------------------------------------------
VERS. 2.0 : CWLS LOG ASCII STANDARD - VERSION 2.0
WRAP. NO  : One line per depth step
DLM . SPACE : Column Data Section Delimiter
~Well ------------------------------------------------------
STRT.F         5380 : START DEPTH
STOP.F      13830.0 : STOP DEPTH
STEP.F          0.5 : STEP
NULL.       -999.25 : NULL VALUE
COMP.                  HILCORP ENERGY CO. : COMPANY
WELL.          212648-SL3306-015-03306-10 : WELL
FLD .                       REDFISH POINT : FIELD
CNTY.                           VERMILION : COUNTY
STAT.                           LOUISIANA : STATE
CTRY.                                 USA : COUNTRY
SEC .                                     : SECTION
TWP .                                     : TOWNSHIP
RGE .                                     : RANGE
LOC . LAT 29*40'57.085"N LONG 92*2'43.95"W : LOCATION
EKB .F                       41 : ELEVATION KELLY BUSHING
EDF .F                       41 : ELEVATION DERRICK FLOOR
EGL .F                          : ELEVATION GROUND LEVEL
PDAT.                       MSL : PERMANENT DATUM
EPD .                           : ELEVATION PERMANENT DATUM
APD .                           : ABOVE PERMANENT DATUM
LMF .                        KB : LOG MEASURED FROM
DMF .                        KB : DRILLING MEASURED FROM
API .            17113217870000 : API NUMBER
UWI .                           : UWI NUMBER
DIGC.                     NthDS : DIGITIZING COMPANY
~Params ----------------------------------------------------
SRVC.               WEATHERFORD : LOGGING COMPANY
LOG .               IND/DEN/NEU : LOG
DATE.                2012-02-05 : RUN DATE
RUN .                         1 : RUN NUMBER
TDD .F                    13805 : TOTAL DEPTH DRILLER
TDL .F                    13822 : TOTAL DEPTH LOGGER
BOTL.F                    13822 : BOTTOM LOGGED INTERVAL
TOPL.F                     5398 : TOP LOGGED INTERVAL
CSGS.IN                         : CASING SIZE
CSGD.F                     5389 : CASING DRILLER
CSGL.F                     5389 : CASING LOGGER
BS  .IN                     8.5 : BIT SIZE
MUD .                 OIL BASED : MUD TYPE
MUDD.                        12 : MUD DENSITY
MUDV.                        72 : MUD VISCOSITY
PH  .                           : MUD PH
FL  .                       2.8 : FLUID LOSS
MUDS.                           : SOURCE OF SAMPLE
RM  .OHMM                       : MUD RESISTIVITY
RMT .DEGF                       : RM TEMPERATURE
RMF .OHMM                       : MUD FILTRATE RESISTIVITY
RMFT.DEGF                       : RMF TEMPERATURE
RMC .OHMM                       : MUD CAKE RESISTIVITY
RMCT.DEGF                       : RMC TEMPERATURE
RMFS.                           : RMF SOURCE
RMCS.                           : RMC SOURCE
RMBH.OHMM                       : MUD RESISTIVITY AT BHT
BHT .DEGF                   237 : BOTTOM HOLE TEMPERATURE
TIMC.                           : TIME CIRCULATION STOPPED
TIML.                           : TIME LOGGER ON BOTTOM
TMAX.DEGF                   237 : MAXIMUM RECORDED TEMPERATURE
UNIT.                     13028 : EQUIPMENT NUMBER
BASE.                      BRSD : BASE LOCATION
ENG .                 F. GUIDRY : RECORDED BY
WIT .             AXXIS LIBERTY : WITNESSED BY
~Curve Information -----------------------------------------
DEPT.F          :DEPTH
AI2R20.OHMM     :
AI2R40.OHMM     :
AI2R85.OHMM     :
DCAL.IN         :
DRHO.G/CC       :
GR.GAPI         :
NPHI.%          :
TENS.LBF        :
~ASCII ------------------------------------------------------
# ...
7674.00000        1.29497        0.74688        0.72205        0.15873        -999.25       77.21892        -999.25     2308.31299
7674.50000        1.46057        0.76561        0.74982        0.15873        -999.25       67.75146        -999.25     2304.23561
7675.00000        1.08928        0.78165        0.76073        0.15873        -999.25       58.57987        -999.25     2310.89376
7675.50000        0.83955        0.79964        0.77405        0.15873        -999.25       51.18342        -999.25     2360.09636
7676.00000        0.83955        0.81068        0.78523        0.15873        -999.25       42.60354        -999.25     2409.29897
7676.50000        0.83955        0.81685        0.80206        0.15873        -999.25       41.71597        -999.25     2458.10396
7677.00000        0.81342        0.79578        0.80860        0.15873        -999.25       43.78697        -999.25     2507.30657
7677.50000        0.77165        0.76156        0.76855        0.15873        -999.25       55.02957        -999.25     2556.11156
7678.00000        0.73202        0.72021        0.71385        0.19682        -999.25       59.78302        -999.25     2605.31417
7678.50000        0.68092        0.66003        0.64048        0.26031        -999.25       65.97632        -999.25     2654.51677
7679.00000        0.63344        0.60008        0.57460        0.32381        -999.25       72.18933        -999.25     2599.94270
7679.50000        0.58653        0.55145        0.51965        0.38730        -999.25       74.85205        -999.25     2519.52386
7680.00000        0.54146        0.51998        0.48523        0.45079        -999.25       77.51477        -999.25     2439.50263
7680.50000        0.55398        0.50992        0.48915        0.46905        -999.25       75.44377        -999.25     2359.08379
7681.00000        0.56678        0.50792        0.49310        0.45714        -999.25       73.96448        -999.25     2278.66495
7681.50000        0.58418        0.51795        0.49713        0.44484        -999.25       72.78105        -999.25     2230.85028
7682.00000        0.60504        0.54310        0.50908        0.43293        -999.25       71.00590        -999.25     2231.54424
7682.50000        0.62670        0.59522        0.52682        0.42103        -999.25       69.52661        -999.25     2232.37700
7683.00000        0.68666        0.64583        0.62527        0.40873        -999.25       63.60945        -999.25     2231.48052
7683.50000        0.75236        0.70067        0.68247        0.39682        -999.25       47.63312        -999.25     2228.59598
7684.00000        0.74171        0.67918        0.64060        0.36984        -999.25       31.06508        -999.25     2225.31383
7684.50000        0.62419        0.57538        0.53492        0.34285        -999.25       23.66863        -999.25     2222.42929
7685.00000        0.51549        0.46953        0.43568        0.31547        -999.25       17.15976        -999.25     2219.14714
7685.50000        0.42043        0.38315        0.36411        0.28849        -999.25       13.90532        -999.25     2216.26260
7686.00000        0.34289        0.31266        0.30429        0.24920        -999.25       14.20118        -999.25     2213.37806
7686.50000        0.33770        0.31295        0.27681        0.20158        -999.25       15.97633        -999.25     2210.09591
7687.00000        0.37570        0.35403        0.32165        0.15397        -999.25       15.08875        -999.25     2207.21137
7687.50000        0.42646        0.39687        0.37375        0.10635        -999.25       13.60946        -999.25     2203.92922
7688.00000        0.48969        0.45206        0.43219        0.04920        -999.25       12.42603        -999.25     2201.04468
7688.50000        0.53654        0.46569        0.44766        0.08214        -999.25       11.53846        -999.25     2197.76253
7689.00000        0.53654        0.45725        0.44213        0.13532        -999.25       12.13017        -999.25     2194.87799
7689.50000        0.53900        0.46462        0.43484        0.18889        -999.25       13.01775        -999.25     2191.99345
7690.00000        0.54519        0.53166        0.47780        0.24206        -999.25       12.72189        -999.25     2188.71129
7690.50000        0.66920        0.61597        0.56755        0.29524        -999.25       10.65088        -999.25     2185.82675
7691.00000        0.86217        0.77031        0.67423        0.34841        -999.25        9.76331        -999.25     2182.54460
7691.50000        1.36258        1.30769        0.94259        0.40158        -999.25       10.05917        -999.25     2179.66006
7692.00000        2.46774        2.21997        1.31068        0.45476        -999.25       10.35503        -999.25     2176.37791
7692.50000        1.85241        1.93811        1.78413        0.44325        -999.25       10.05917        -999.25     2173.49337
7693.00000        1.39051        1.43281        1.59520        0.38809        -999.25        9.76331        -999.25     2170.60883
7693.50000        1.04378        1.05925        1.07770        0.33293        -999.25        8.87574        -999.25     2172.89325
7694.00000        0.86881        0.82435        0.78037        0.27778        -999.25        8.87574        -999.25     2198.63676
7694.50000        0.84432        0.80206        0.74552        0.23373        -999.25        9.17160        -999.25     2223.98265
7695.00000        0.84880        0.80206        0.74171        0.18968        -999.25       10.05917        -999.25     2254.63630
7695.50000        0.86052        0.77894        0.74552        0.14563        -999.25       11.53846        -999.25     2280.37981
7696.00000        0.74165        0.63855        0.66724        0.12738        -999.25       13.31361        -999.25     2305.72570
7696.50000        0.56968        0.50265        0.52682        0.14841        -999.25       15.38461        -999.25     2331.46921
7697.00000        0.39125        0.39568        0.38263        0.16984        -999.25       17.45562        -999.25     2356.81511
7697.50000        0.31525        0.31147        0.27790        0.19087        -999.25       27.66272        -999.25     2351.94251
7698.00000        0.39615        0.31831        0.29023        0.21190        -999.25       37.86981        -999.25     2300.54933
7698.50000        0.58482        0.40604        0.32165        0.23293        -999.25       48.07691        -999.25     2249.55377
7699.00000        0.68397        0.62670        0.66305        0.25397        -999.25       58.28401        -999.25     2198.55820
7699.50000        0.79993        0.72536        0.80206        0.27539        -999.25       66.66566        -999.25     2147.16502
7700.00000        0.83526        0.70853        0.71876        0.29643        -999.25       75.05028        -999.25     2028.63263
7700.50000        0.71079        0.65301        0.62785        0.27936        -999.25       78.69821        -999.25     2029.82547
7701.00000        0.66810        0.60976        0.57549        0.28690        -999.25       79.58578        -999.25     2030.62070
7701.50000        0.63826        0.59327        0.56678        0.29444        -999.25       79.88164        -999.25     2031.41592
7702.00000        0.61817        0.59127        0.56075        0.30238        -999.25       84.02365        -999.25     2032.21115
7702.50000        0.61115        0.58120        0.55850        0.30992        -999.25       87.86980        -999.25     2033.00638
7703.00000        0.60976        0.57987        0.55631        0.31746        -999.25       88.16566        -999.25     2033.80161
7703.50000        0.60976        0.58322        0.55408        0.31746        -999.25       89.05323        -999.25     2034.59684
7704.00000        0.60976        0.58487        0.55190        0.31746        -999.25       89.64495        -999.25     2035.39207
7704.50000        0.61322        0.58653        0.56162        0.31746        -999.25       90.53252        -999.25     2036.58491
