~Version ---------------------------------------------------
VERS. 2.0 : CWLS LOG ASCII STANDARD - VERSION 2.0
WRAP. NO  : One line per depth step
DLM . SPACE : Column Data Section Delimiter
~Well ------------------------------------------------------
STRT.F         5380 : START DEPTH
STOP.F      13830.0 : STOP DEPTH
STEP.F          0.5 : STEP
NULL.       -999.25 : NULL VALUE
COMP.                  HILCORP ENERGY CO. : COMPANY
WELL.          212648-SL3306-015-03306-10 : WELL
FLD .                       REDFISH POINT : FIELD
CNTY.                           VERMILION : COUNTY
STAT.                           LOUISIANA : STATE
CTRY.                                 USA : COUNTRY
SEC .                                     : SECTION
TWP .                                     : TOWNSHIP
RGE .                                     : RANGE
LOC . LAT 29*40'57.085"N LONG 92*2'43.95"W : LOCATION
EKB .F                       41 : ELEVATION KELLY BUSHING
EDF .F                       41 : ELEVATION DERRICK FLOOR
EGL .F                          : ELEVATION GROUND LEVEL
PDAT.                       MSL : PERMANENT DATUM
EPD .                           : ELEVATION PERMANENT DATUM
APD .                           : ABOVE PERMANENT DATUM
LMF .                        KB : LOG MEASURED FROM
DMF .                        KB : DRILLING MEASURED FROM
API .            17113217870000 : API NUMBER
UWI .                           : UWI NUMBER
DIGC.                     NthDS : DIGITIZING COMPANY
~Params ----------------------------------------------------
SRVC.               WEATHERFORD : LOGGING COMPANY
LOG .               IND/DEN/NEU : LOG
DATE.                2012-02-05 : RUN DATE
RUN .                         1 : RUN NUMBER
TDD .F                    13805 : TOTAL DEPTH DRILLER
TDL .F                    13822 : TOTAL DEPTH LOGGER
BOTL.F                    13822 : BOTTOM LOGGED INTERVAL
TOPL.F                     5398 : TOP LOGGED INTERVAL
CSGS.IN                         : CASING SIZE
CSGD.F                     5389 : CASING DRILLER
CSGL.F                     5389 : CASING LOGGER
BS  .IN                     8.5 : BIT SIZE
MUD .                 OIL BASED : MUD TYPE
MUDD.                        12 : MUD DENSITY
MUDV.                        72 : MUD VISCOSITY
PH  .                           : MUD PH
FL  .                       2.8 : FLUID LOSS
MUDS.                           : SOURCE OF SAMPLE
RM  .OHMM                       : MUD RESISTIVITY
RMT .DEGF                       : RM TEMPERATURE
RMF .OHMM                       : MUD FILTRATE RESISTIVITY
RMFT.DEGF                       : RMF TEMPERATURE
RMC .OHMM                       : MUD CAKE RESISTIVITY
RMCT.DEGF                       : RMC TEMPERATURE
RMFS.                           : RMF SOURCE
RMCS.                           : RMC SOURCE
RMBH.OHMM                       : MUD RESISTIVITY AT BHT
BHT .DEGF                   237 : BOTTOM HOLE TEMPERATURE
TIMC.                           : TIME CIRCULATION STOPPED
TIML.                           : TIME LOGGER ON BOTTOM
TMAX.DEGF                   237 : MAXIMUM RECORDED TEMPERATURE
UNIT.                     13028 : EQUIPMENT NUMBER
BASE.                      BRSD : BASE LOCATION
ENG .                 F. GUIDRY : RECORDED BY
WIT .             AXXIS LIBERTY : WITNESSED BY
~Curve Information -----------------------------------------
DEPT.F          :DEPTH
AI2R20.OHMM     :
AI2R40.OHMM     :
AI2R85.OHMM     :
DCAL.IN         :
DRHO.G/CC       :
GR.GAPI         :
NPHI.%          :
TENS.LBF        :
~ASCII ------------------------------------------------------
# ...
5969.00000        0.18088        0.20369        0.20866        1.26984        -999.25       19.82248        -999.25     2017.10181
5969.50000        0.18262        0.20369        0.21175        1.27698        -999.25       17.75147        -999.25     2014.71613
5970.00000        0.18440        0.20369        0.21489        1.28412        -999.25       17.15976        -999.25     2012.72806
5970.50000        0.18617        0.20369        0.21806        1.29127        -999.25       15.68047        -999.25     2010.34237
5971.00000        0.18761        0.20369        0.22129        1.29801        -999.25       15.08875        -999.25     2008.35430
5971.50000        0.18761        0.20369        0.22457        1.30516        -999.25       14.79290        -999.25     2005.96861
5972.00000        0.18761        0.20475        0.22204        1.33889        -999.25       16.56804        -999.25     2003.98054
5972.50000        0.18761        0.20610        0.21814        1.41190        -999.25       18.04733        -999.25     2001.59486
5973.00000        0.18761        0.20745        0.21430        1.48492        -999.25       18.63905        -999.25     1999.60679
5973.50000        0.18761        0.20745        0.21321        1.55793        -999.25       17.45562        -999.25     1997.22110
5974.00000        0.19121        0.20745        0.22318        1.53055        -999.25       18.63905        -999.25     1995.23303
5974.50000        0.19735        0.20745        0.23361        1.43611        -999.25       20.41420        -999.25     1992.84735
5975.00000        0.20369        0.20703        0.23148        1.34166        -999.25       25.44378        -999.25     1990.85927
5975.50000        0.19475        0.20451        0.21914        1.22817        -999.25       29.28993        -999.25     1988.07598
5976.00000        0.18761        0.20610        0.20935        1.16468        -999.25       29.28993        -999.25     1928.43384
5976.50000        0.20000        0.21237        0.22074        1.12143        -999.25       28.52070        -999.25     1868.79171
5977.00000        0.21321        0.22819        0.23857        1.07817        -999.25       26.33135        -999.25     1809.14958
5977.50000        0.22729        0.24518        0.25784        1.03531        -999.25       25.14792        -999.25     1749.50744
5978.00000        0.24231        0.25831        0.27866        0.99206        -999.25       24.55621        -999.25     1780.91897
5978.50000        0.24603        0.26428        0.29356        0.85635        -999.25       24.26035        -999.25     1812.33049
5979.00000        0.24551        0.26068        0.29089        0.72063        -999.25       28.99408        -999.25     1843.74201
5979.50000        0.22858        0.24743        0.26549        0.58492        -999.25       29.88165        -999.25     1860.83943
5980.00000        0.21284        0.23053        0.24131        0.49920        -999.25       31.06508        -999.25     1821.07800
5980.50000        0.19818        0.21214        0.21932        0.61389        -999.25       32.84023        -999.25     1793.64262
5981.00000        0.18742        0.19940        0.20295        0.72897        -999.25       31.65680        -999.25     1814.71618
5981.50000        0.17959        0.19459        0.20200        0.84365        -999.25       28.99408        -999.25     1836.18734
5982.00000        0.18142        0.19459        0.20453        0.91825        -999.25       21.89349        -999.25     1857.26090
5982.50000        0.18327        0.19579        0.20710        0.93174        -999.25       19.82248        -999.25     1878.73207
5983.00000        0.18516        0.19728        0.20969        0.94563        -999.25       20.11834        -999.25     1900.20323
5983.50000        0.18548        0.19818        0.21127        0.96190        -999.25       21.00591        -999.25     1915.31257
5984.00000        0.18495        0.19818        0.21127        0.97579        -999.25       22.18934        -999.25     1924.06009
5984.50000        0.18443        0.19902        0.21127        0.98928        -999.25       21.59763        -999.25     1932.80760
5985.00000        0.18421        0.20042        0.21127        1.07143        -999.25       22.18934        -999.25     1941.55511
5985.50000        0.18421        0.20184        0.21127        1.17063        -999.25       21.30177        -999.25     1949.90501
5986.00000        0.18421        0.20184        0.21127        1.26984        -999.25       19.82248        -999.25     1958.65252
5986.50000        0.18704        0.20184        0.21900        1.36905        -999.25       18.63905        -999.25     1967.40004
5987.00000        0.18990        0.20184        0.22700        1.46825        -999.25       18.63905        -999.25     1976.14755
5987.50000        0.19020        0.20208        0.23254        1.56746        -999.25       19.82248        -999.25     1984.49745
5988.00000        0.18876        0.20332        0.22729        1.66666        -999.25       24.85206        -999.25     1993.24496
5988.50000        0.18732        0.20457        0.21714        1.67539        -999.25       26.03550        -999.25     2001.99247
5989.00000        0.18590        0.20528        0.21438        1.68373        -999.25       27.21893        -999.25     2010.73999
5989.50000        0.18450        0.20387        0.21440        1.69246        -999.25       26.33135        -999.25     2019.08988
5990.00000        0.18309        0.20248        0.21315        1.70119        -999.25       26.03550        -999.25     2027.83740
5990.50000        0.18107        0.20110        0.21189        1.68055        -999.25       22.18934        -999.25     2036.58491
5991.00000        0.17866        0.19985        0.21065        1.61587        -999.25       21.89349        -999.25     2044.93481
5991.50000        0.17627        0.19916        0.20941        1.55158        -999.25       21.30177        -999.25     2053.68232
5992.00000        0.17518        0.19833        0.20794        1.47420        -999.25       21.59763        -999.25     2064.02029
5992.50000        0.17719        0.19976        0.20859        1.40952        -999.25       23.66863        -999.25     2066.40598
5993.00000        0.17923        0.20176        0.21050        1.34524        -999.25       23.37278        -999.25     2064.02029
5993.50000        0.18129        0.20376        0.21243        1.28055        -999.25       21.30177        -999.25     2062.03222
5994.00000        0.18337        0.20580        0.21438        1.21627        -999.25       19.82248        -999.25     2060.04415
5994.50000        0.18548        0.20716        0.21635        1.15079        -999.25       18.34319        -999.25     2057.65846
5995.00000        0.18590        0.20571        0.21834        1.08452        -999.25       19.23076        -999.25     2055.67039
5995.50000        0.18590        0.20427        0.21596        1.01865        -999.25       19.82248        -999.25     2053.68232
5996.00000        0.18387        0.20313        0.21075        0.95238        -999.25       18.63905        -999.25     2051.29664
5996.50000        0.18137        0.20221        0.20569        0.90873        -999.25       18.34319        -999.25     2049.30856
5997.00000        0.17890        0.19909        0.20462        0.89960        -999.25       19.23076        -999.25     2046.92288
5997.50000        0.17647        0.19459        0.20618        0.89008        -999.25       20.11834        -999.25     2044.93481
5998.00000        0.17280        0.19020        0.20777        0.88055        -999.25       20.11834        -999.25     2042.94674
5998.50000        0.16890        0.18761        0.20935        0.86984        -999.25       19.23076        -999.25     2040.56105
5999.00000        0.16874        0.18556        0.20204        0.85317        -999.25       17.75147        -999.25     2038.57298
5999.50000        0.17422        0.18387        0.19534        0.83651        -999.25       17.75147        -999.25     2036.58491
