~Version ---------------------------------------------------
VERS. 2.0 : CWLS LOG ASCII STANDARD - VERSION 2.0
WRAP. NO  : One line per depth step
DLM . SPACE : Column Data Section Delimiter
~Well ------------------------------------------------------
STRT.F      13770.5 : START DEPTH
STOP.F      16230.0 : STOP DEPTH
STEP.F          0.5 : STEP
NULL.       -999.25 : NULL VALUE
COMP.                  HILCORP ENERGY CO. : COMPANY
WELL.          212648-SL3306-015-03306-10 : WELL
FLD .                       REDFISH POINT : FIELD
CNTY.                           VERMILION : COUNTY
STAT.                           LOUISIANA : STATE
CTRY.                                 USA : COUNTRY
SEC .                                     : SECTION
TWP .                                     : TOWNSHIP
RGE .                                     : RANGE
LOC . LAT 29*40'57.085"N LONG 92*2'43.95"W : LOCATION
EKB .F                       41 : ELEVATION KELLY BUSHING
EDF .F                       41 : ELEVATION DERRICK FLOOR
EGL .F                          : ELEVATION GROUND LEVEL
PDAT.                       MSL : PERMANENT DATUM
EPD .                           : ELEVATION PERMANENT DATUM
APD .                           : ABOVE PERMANENT DATUM
LMF .                        KB : LOG MEASURED FROM
DMF .                        KB : DRILLING MEASURED FROM
API .            17113217870000 : API NUMBER
UWI .                           : UWI NUMBER
DIGC.                     NthDS : DIGITIZING COMPANY
~Params ----------------------------------------------------
SRVC.               WEATHERFORD : LOGGING COMPANY
LOG .                AIT/DSN/SD : LOG
DATE.                2012-02-23 : RUN DATE
RUN .                         1 : RUN NUMBER
TDD .F                    16230 : TOTAL DEPTH DRILLER
TDL .F                    16230 : TOTAL DEPTH LOGGER
BOTL.F                    16220 : BOTTOM LOGGED INTERVAL
TOPL.F                    10000 : TOP LOGGED INTERVAL
CSGS.IN                   7.625 : CASING SIZE
CSGD.F                    13602 : CASING DRILLER
CSGL.F                    13605 : CASING LOGGER
BS  .IN                   6.750 : BIT SIZE
MUD .                       OBM : MUD TYPE
MUDD.                        12 : MUD DENSITY
MUDV.                        56 : MUD VISCOSITY
PH  .                           : MUD PH
FL  .                           : FLUID LOSS
MUDS.                           : SOURCE OF SAMPLE
RM  .OHMM                       : MUD RESISTIVITY
RMT .DEGF                       : RM TEMPERATURE
RMF .OHMM                       : MUD FILTRATE RESISTIVITY
RMFT.DEGF                       : RMF TEMPERATURE
RMC .OHMM                       : MUD CAKE RESISTIVITY
RMCT.DEGF                       : RMC TEMPERATURE
RMFS.                           : RMF SOURCE
RMCS.                           : RMC SOURCE
RMBH.OHMM                       : MUD RESISTIVITY AT BHT
BHT .DEGF                       : BOTTOM HOLE TEMPERATURE
TIMC.                           : TIME CIRCULATION STOPPED
TIML.           0453 2012-02-23 : TIME LOGGER ON BOTTOM
TMAX.DEGF                   272 : MAXIMUM RECORDED TEMPERATURE
UNIT.                      1214 : EQUIPMENT NUMBER
BASE.                NEW IBERIA : BASE LOCATION
ENG .               P. SPOELKER : RECORDED BY
WIT .                 F. GUIDRY : WITNESSED BY
~Curve Information -----------------------------------------
DEPT.F          :DEPTH
AI1R10.OHMM     :
AI1R30.OHMM     :
AI1R60.OHMM     :
DCAL.IN         :
DPHI.%          :
NPHI.%          :
TENS.LBS        :
~ASCII ------------------------------------------------------
# ...
13977.50000        0.28327        0.24175        0.22624       -0.07528       24.57435       22.98435     5840.79284
13978.00000        0.27944        0.23725        0.22141       -0.07174       24.42550       23.46551     5836.18758
13978.50000        0.28421        0.24246        0.22624       -0.06859       24.08466       23.94666     5830.92443
13979.00000        0.29288        0.24781        0.23119       -0.06945       24.17821       24.42781     5826.31917
13979.50000        0.30322        0.25326        0.23622       -0.07710       24.27176       24.42896     5821.71391
13980.00000        0.30123        0.24786        0.22938       -0.08435       24.31011       24.43011     5816.45075
13980.50000        0.29072        0.23996        0.22273       -0.09201       24.31126       24.50806     5811.84549
13981.00000        0.27529        0.22855        0.21460       -0.09926       24.31242       24.63761     5806.58234
13981.50000        0.26151        0.21871        0.20635       -0.10691       24.31357       24.76837     5801.97708
13982.00000        0.31175        0.24399        0.20777       -0.11417       23.95472       24.49952     5797.37182
13982.50000        0.39283        0.28193        0.25144       -0.12182       23.05587       24.13107     5792.10867
13983.00000        0.49500        0.32574        0.27643       -0.12908       22.73326       23.86965     5789.47709
13983.50000        0.54583        0.34798        0.28685       -0.13673       23.79281       23.95001     5789.47709
13984.00000        0.56170        0.35157        0.29582       -0.14398       24.76476       24.03156     5789.47709
13984.50000        0.59738        0.36119        0.30762       -0.15133       25.73791       23.96071     5789.47709
13985.00000        0.63539        0.37104        0.32052       -0.14898       26.70986       23.66186     5789.47709
13985.50000        0.56383        0.36773        0.30603       -0.14664       27.68301       23.36301     5789.47709
13986.00000        0.48387        0.34975        0.28863       -0.14389       26.70976       23.44457     5789.47709
13986.50000        0.41524        0.31080        0.27220       -0.14154       25.59251       23.77812     5789.47709
13987.00000        0.38360        0.28421        0.25672       -0.13920       24.25927       22.99327     5789.47709
13987.50000        0.37359        0.27361        0.25672       -0.13685       23.55962       21.92763     5789.47709
13988.00000        0.36889        0.27220        0.25672       -0.13450       23.28117       22.32838     5789.47709
13988.50000        0.34833        0.27564        0.25279       -0.13216       23.00153       22.63673     5789.47709
13989.00000        0.32170        0.28890        0.24816       -0.12981       22.65108       22.57068     5789.47709
13989.50000        0.31992        0.30043        0.24438       -0.12747       22.53223       22.58743     5789.47709
13990.00000        0.34727        0.31587        0.26912       -0.12512       22.89361       22.75561     5789.47709
13990.50000        0.36347        0.33207        0.31933       -0.12277       24.09476       22.89477     5789.47709
13991.00000        0.37249        0.34753        0.35352       -0.12043       25.53591       23.83912     5789.47709
13991.50000        0.36919        0.36256        0.36046       -0.11808       25.53706       23.96027     5789.47709
13992.00000        0.39163        0.39758        0.35879       -0.12333       25.50342       23.73822     5789.47709
13992.50000        0.48369        0.53202        0.40575       -0.12859       25.33417       24.33937     5789.47709
13993.00000        0.70342        0.71503        0.59320       -0.13513       23.30012       23.81252     5789.47709
13993.50000        1.06644        0.97784        0.90534       -0.14039       18.77369       24.05367     5789.47709
13994.00000        1.61681        1.33712        1.38162       -0.14564       13.09285       24.48683     5789.47709
13994.50000        1.82892        1.47401        1.38162       -0.15129        9.82401       26.68397     5789.47709
13995.00000        1.72717        1.41786        1.31919       -0.15655        9.70516       30.16512     5789.47709
13995.50000        1.58469        1.34133        1.25447       -0.16180       10.55591       32.43786     5789.47709
13996.00000        1.57258        1.27919        1.19160       -0.15706       11.40786       33.78804     5789.47709
13996.50000        1.57258        1.29346        1.21631       -0.15231       10.66861       34.14920     5789.47709
13997.00000        1.57258        1.33144        1.25088       -0.14756        8.86977       32.74995     5789.47709
13997.50000        1.58719        1.41301        1.32530       -0.14242        6.89093       31.15631     5789.47709
13998.00000        1.63682        1.62807        1.44512       -0.13767        4.93608       29.27226     5789.47709
13998.50000        2.05626        1.98159        1.66738       -0.13292        3.50324       26.03342     5789.47709
13999.00000        2.71369        2.41188        2.23472       -0.12818        3.27399       24.83457     5789.47709
13999.50000        2.94022        2.41746        2.34675       -0.12343        3.83577       22.97573     5789.47709
14000.00000        2.36943        1.87464        2.05626        0.00724        5.84051       21.87008     5789.47709
14000.50000        1.66954        1.42048        1.38995        0.01238       10.95125       24.36123     5789.47709
14001.00000        1.20045        1.12729        1.00284        0.01713       21.36238       27.66237     5789.47709
14001.50000        0.86316        0.89461        0.72361        0.02298       27.96352       26.88352     5789.47709
14002.00000        0.77874        0.70995        0.66300        0.02773       26.61468       25.08468     5789.47709
14002.50000        0.84977        0.66675        0.64486        0.03248       25.26583       23.40584     5789.47709
14003.00000        0.86212        0.62623        0.59556        0.03722       24.12699       22.20699     5791.45077
14003.50000        0.66885        0.56807        0.47601        0.03077       23.39134       22.16854     5797.37182
14004.00000        0.57007        0.44849        0.38046        0.02432       23.04929       22.41929     5803.29287
14004.50000        0.48593        0.36821        0.32716        0.01786       23.09027       22.17468     5808.55602
14005.00000        0.46569        0.33302        0.31400        0.01101       22.25983       21.51583     5814.47707
14005.50000        0.52034        0.35111        0.32111        0.00455       21.61298       21.16298     5820.39812
14006.00000        0.57526        0.37015        0.34258       -0.00190       22.45413       21.01413     5825.66127
14006.50000        0.57500        0.37256        0.33880       -0.00515       23.17528       19.90049     5832.89811
14007.00000        0.52664        0.34978        0.31560       -0.00401       22.17684       19.51884     5838.16126
14007.50000        0.49349        0.33652        0.29629       -0.00246       21.97759       19.62439     5844.08231
14008.00000        0.57287        0.35694        0.30322       -0.00091       22.29914       19.72995     5849.34546
14008.50000        0.60293        0.37856        0.30541        0.00023       22.83309       19.83550     5855.26651
14009.00000        0.55309        0.34334        0.28863        0.00178       22.98904       19.94105     5892.10859
14009.50000        0.50052        0.32391        0.27559        0.00323       23.05019       19.72380     5928.29277
14010.00000        0.57393        0.35767        0.27864        0.00478       22.51495       19.50655     5965.13484
14010.50000        0.83081        0.42299        0.33302        0.00593       20.82410       15.94491     5971.71379
14011.00000        1.05545        0.50892        0.39806        0.00747       17.04526       11.54567     5933.55592
14011.50000        1.34083        0.61231        0.46183        0.00902       10.94683        7.40683     5896.05595
