~Version ---------------------------------------------------
VERS. 2.0 : CWLS LOG ASCII STANDARD - VERSION 2.0
WRAP. NO  : One line per depth step
DLM . SPACE : Column Data Section Delimiter
~Well ------------------------------------------------------
STRT.F         5380 : START DEPTH
STOP.F      13830.0 : STOP DEPTH
STEP.F          0.5 : STEP
NULL.       -999.25 : NULL VALUE
COMP.                  HILCORP ENERGY CO. : COMPANY
WELL.          212648-SL3306-015-03306-10 : WELL
FLD .                       REDFISH POINT : FIELD
CNTY.                           VERMILION : COUNTY
STAT.                           LOUISIANA : STATE
CTRY.                                 USA : COUNTRY
SEC .                                     : SECTION
TWP .                                     : TOWNSHIP
RGE .                                     : RANGE
LOC . LAT 29*40'57.085"N LONG 92*2'43.95"W : LOCATION
EKB .F                       41 : ELEVATION KELLY BUSHING
EDF .F                       41 : ELEVATION DERRICK FLOOR
EGL .F                          : ELEVATION GROUND LEVEL
PDAT.                       MSL : PERMANENT DATUM
EPD .                           : ELEVATION PERMANENT DATUM
APD .                           : ABOVE PERMANENT DATUM
LMF .                        KB : LOG MEASURED FROM
DMF .                        KB : DRILLING MEASURED FROM
API .            17113217870000 : API NUMBER
UWI .                           : UWI NUMBER
DIGC.                     NthDS : DIGITIZING COMPANY
~Params ----------------------------------------------------
SRVC.               WEATHERFORD : LOGGING COMPANY
LOG .               IND/DEN/NEU : LOG
DATE.                2012-02-05 : RUN DATE
RUN .                         1 : RUN NUMBER
TDD .F                    13805 : TOTAL DEPTH DRILLER
TDL .F                    13822 : TOTAL DEPTH LOGGER
BOTL.F                    13822 : BOTTOM LOGGED INTERVAL
TOPL.F                     5398 : TOP LOGGED INTERVAL
CSGS.IN                         : CASING SIZE
CSGD.F                     5389 : CASING DRILLER
CSGL.F                     5389 : CASING LOGGER
BS  .IN                     8.5 : BIT SIZE
MUD .                 OIL BASED : MUD TYPE
MUDD.                        12 : MUD DENSITY
MUDV.                        72 : MUD VISCOSITY
PH  .                           : MUD PH
FL  .                       2.8 : FLUID LOSS
MUDS.                           : SOURCE OF SAMPLE
RM  .OHMM                       : MUD RESISTIVITY
RMT .DEGF                       : RM TEMPERATURE
RMF .OHMM                       : MUD FILTRATE RESISTIVITY
RMFT.DEGF                       : RMF TEMPERATURE
RMC .OHMM                       : MUD CAKE RESISTIVITY
RMCT.DEGF                       : RMC TEMPERATURE
RMFS.                           : RMF SOURCE
RMCS.                           : RMC SOURCE
RMBH.OHMM                       : MUD RESISTIVITY AT BHT
BHT .DEGF                   237 : BOTTOM HOLE TEMPERATURE
TIMC.                           : TIME CIRCULATION STOPPED
TIML.                           : TIME LOGGER ON BOTTOM
TMAX.DEGF                   237 : MAXIMUM RECORDED TEMPERATURE
UNIT.                     13028 : EQUIPMENT NUMBER
BASE.                      BRSD : BASE LOCATION
ENG .                 F. GUIDRY : RECORDED BY
WIT .             AXXIS LIBERTY : WITNESSED BY
~Curve Information -----------------------------------------
DEPT.F          :DEPTH
AI2R20.OHMM     :
AI2R40.OHMM     :
AI2R85.OHMM     :
DCAL.IN         :
DRHO.G/CC       :
GR.GAPI         :
NPHI.%          :
TENS.LBF        :
~ASCII ------------------------------------------------------
# ...
11005.50000        1.25502        1.15594        1.13014       -0.05595        0.10535       99.15911       44.26036     3108.48536
11006.00000        1.25067        1.15594        1.11201       -0.06508        0.09801      104.78452       42.95858     3098.62343
11006.50000        1.24622        1.13087        1.09427       -0.07461        0.08864      107.74722       42.48521     3069.03764
11007.00000        1.24565        1.10029        1.07446       -0.08373        0.07927      106.27206       41.30178     3039.45185
11007.50000        1.25089        1.09028        1.05500       -0.09286        0.06988      103.02177       40.47338     3009.86605
11008.00000        1.26341        1.08531        1.03259       -0.10238        0.06868       95.03777       39.28995     2999.60965
11008.50000        1.30602        1.08432        1.01056       -0.11151        0.07520       88.82891       38.34320     3002.37099
11009.00000        1.35019        1.08432        0.98909       -0.11905        0.08307       78.47805       37.51480     3005.52681
11009.50000        1.37095        1.06468        0.96728       -0.11905        0.09094       74.04433       36.21302     3008.28815
11010.00000        1.35291        1.01714        0.94544       -0.11905        0.09646       65.76447       31.71598     3011.04949
11010.50000        1.28202        0.88419        0.82059       -0.11905        0.09496       59.85147       31.24261     3014.20530
11011.00000        1.06148        0.75927        0.69233       -0.11905        0.08827       53.64261       31.30178     3017.36112
11011.50000        0.86636        0.62722        0.57423       -0.11905        0.08157       47.43375       32.04143     3020.12246
11012.00000        0.70717        0.48888        0.47623       -0.11905        0.07488       36.19532       31.91835     3022.88380
11012.50000        0.57723        0.39355        0.39499       -0.11905        0.06819       31.16989       31.46510     3025.64514
11013.00000        0.53253        0.36056        0.32758       -0.11905        0.06368       30.58230       30.83906     3028.40648
11013.50000        0.49126        0.33034        0.30125       -0.11905        0.06246       30.58643       30.21184     3031.16782
11014.00000        0.45322        0.31295        0.27706       -0.11905        0.06506       33.84499       29.58581     3033.92917
11014.50000        0.41353        0.29897        0.25850       -0.11905        0.06864       36.21680       29.25681     3037.08498
11015.00000        0.37457        0.28562        0.24350       -0.11905        0.07222       37.99607       29.12900     3029.58992
11015.50000        0.35416        0.28130        0.22938       -0.11905        0.07581       37.40849       29.80592     3019.33351
11016.00000        0.39771        0.31476        0.26915       -0.11905        0.07612       35.04577       29.94084     3009.47158
11016.50000        0.44660        0.37143        0.31930       -0.11905        0.07152       35.04990       29.16450     2999.21517
11017.00000        0.53083        0.44947        0.37984       -0.11905        0.06600       38.60431       27.86983     2989.35324
11017.50000        0.65534        0.55301        0.45297       -0.11905        0.06417       46.59657       26.57516     2979.49131
11018.00000        0.80897        0.68042        0.54048       -0.11905        0.06470       54.88469       25.96451     2969.23490
11018.50000        0.99872        0.72041        0.64489       -0.11905        0.06740       56.36811       26.37871     2959.37297
11019.00000        0.95081        0.74552        0.71353       -0.11905        0.07008       56.96395       27.46510     2949.11656
11019.50000        0.90512        0.72067        0.66609       -0.11905        0.07132       56.67223       29.55859     2939.25463
11020.00000        0.85417        0.66202        0.59872       -0.11905        0.07380       56.67636       31.65208     2928.99822
11020.50000        0.78437        0.59795        0.57198       -0.11905        0.07817       54.01778       32.46510     2930.57613
11021.00000        0.77802        0.60322        0.58965       -0.11905        0.07783       51.65588       31.85208     2986.59190
11021.50000        0.78394        0.62299        0.60837       -0.11905        0.07437       47.81387       30.98817     3043.00214
11022.00000        0.80433        0.64341        0.62957       -0.11905        0.07089       48.11386       30.17752     3076.13823
11022.50000        0.84787        0.68353        0.65152       -0.11905        0.06811       51.96413       29.58581     3074.16584
11023.00000        0.89378        0.77887        0.74382       -0.11905        0.06811       54.03926       29.33847     3072.19346
11023.50000        1.01019        0.90412        0.87032       -0.11905        0.06811       59.36881       29.17752     3070.22107
11024.00000        1.16187        1.04942        1.01825       -0.11905        0.06746       71.79893       29.96450     3068.24868
11024.50000        1.33632        1.21818        1.15594       -0.11905        0.06636       83.34147       32.66273     3066.27630
11025.00000        1.43438        1.26007        1.23477       -0.11905        0.06528       90.44616       36.21302     3064.30391
11025.50000        1.47007        1.26654        1.24110       -0.11905        0.06465       95.47986       39.17160     3062.33153
11026.00000        1.50666        1.35019        1.31368       -0.11905        0.06695       98.73924       39.02131     3060.35914
11026.50000        1.51729        1.43937        1.41008       -0.11905        0.06927       99.33509       37.75977     3058.38675
11027.00000        1.52801        1.49527        1.46766       -0.11905        0.07157       98.74750       36.49705     3056.41437
11027.50000        1.53094        1.48479        1.46404       -0.11905        0.07327       95.49721       35.88758     3054.44198
11028.00000        1.52229        1.45790        1.42628       -0.11905        0.07476       94.31791       36.25681     3052.46959
11028.50000        1.41331        1.36882        1.35019       -0.11905        0.07533       92.84276       37.94912     3050.49721
11029.00000        1.30566        1.27094        1.23229       -0.11905        0.07205       93.43861       39.97042     3048.52482
11029.50000        1.26654        1.17995        1.14114       -0.11905        0.07270       95.21788       41.77515     3046.55244
11030.00000        1.22858        1.13542        1.12007       -0.11905        0.07730       98.77229       42.36687     3044.58005
11030.50000        1.18114        1.11568        1.09517       -0.11905        0.07402       98.18471       42.24853     3042.21319
11031.00000        1.14260        1.09948        1.07495       -0.11905        0.07073       97.30127       42.13018     3040.24080
11031.50000        1.13283        1.08353        1.05500       -0.11905        0.07008       93.75512       42.72190     3038.26841
11032.00000        1.13014        1.06780        1.03969       -0.11905        0.07079       92.57582       43.90533     3031.16782
11032.50000        1.12736        1.05086        1.02460       -0.11905        0.07437       92.57995       43.78699     3020.51694
11033.00000        1.12468        1.03391        1.00973       -0.11905        0.07795       94.95094       43.55030     3009.86605
11033.50000        1.08680        1.01714        0.99507       -0.11905        0.07711       97.02607       42.60355     2999.21517
11034.00000        1.05019        0.99626        0.98063       -0.11905        0.07640      102.65230       42.84024     2988.56428
11034.50000        1.01482        0.97572        0.94225       -0.11905        0.07459      104.72743       44.26036     2977.91340
11035.00000        0.99417        0.96728        0.90528       -0.11905        0.07112      105.02742       44.73373     2967.26251
11035.50000        0.98783        0.96287        0.86985       -0.11905        0.06764      105.62326       45.32545     2970.02386
