~Version ---------------------------------------------------
VERS. 2.0 : CWLS LOG ASCII STANDARD - VERSION 2.0
WRAP. NO  : One line per depth step
DLM . SPACE : Column Data Section Delimiter
~Well ------------------------------------------------------
STRT.F         5380 : START DEPTH
STOP.F      13830.0 : STOP DEPTH
STEP.F          0.5 : STEP
NULL.       -999.25 : NULL VALUE
COMP.                  HILCORP ENERGY CO. : COMPANY
WELL.          212648-SL3306-015-03306-10 : WELL
FLD .                       REDFISH POINT : FIELD
CNTY.                           VERMILION : COUNTY
STAT.                           LOUISIANA : STATE
CTRY.                                 USA : COUNTRY
SEC .                                     : SECTION
TWP .                                     : TOWNSHIP
RGE .                                     : RANGE
LOC . LAT 29*40'57.085"N LONG 92*2'43.95"W : LOCATION
EKB .F                       41 : ELEVATION KELLY BUSHING
EDF .F                       41 : ELEVATION DERRICK FLOOR
EGL .F                          : ELEVATION GROUND LEVEL
PDAT.                       MSL : PERMANENT DATUM
EPD .                           : ELEVATION PERMANENT DATUM
APD .                           : ABOVE PERMANENT DATUM
LMF .                        KB : LOG MEASURED FROM
DMF .                        KB : DRILLING MEASURED FROM
API .            17113217870000 : API NUMBER
UWI .                           : UWI NUMBER
DIGC.                     NthDS : DIGITIZING COMPANY
~Params ----------------------------------------------------
SRVC.               WEATHERFORD : LOGGING COMPANY
LOG .               IND/DEN/NEU : LOG
DATE.                2012-02-05 : RUN DATE
RUN .                         1 : RUN NUMBER
TDD .F                    13805 : TOTAL DEPTH DRILLER
TDL .F                    13822 : TOTAL DEPTH LOGGER
BOTL.F                    13822 : BOTTOM LOGGED INTERVAL
TOPL.F                     5398 : TOP LOGGED INTERVAL
CSGS.IN                         : CASING SIZE
CSGD.F                     5389 : CASING DRILLER
CSGL.F                     5389 : CASING LOGGER
BS  .IN                     8.5 : BIT SIZE
MUD .                 OIL BASED : MUD TYPE
MUDD.                        12 : MUD DENSITY
MUDV.                        72 : MUD VISCOSITY
PH  .                           : MUD PH
FL  .                       2.8 : FLUID LOSS
MUDS.                           : SOURCE OF SAMPLE
RM  .OHMM                       : MUD RESISTIVITY
RMT .DEGF                       : RM TEMPERATURE
RMF .OHMM                       : MUD FILTRATE RESISTIVITY
RMFT.DEGF                       : RMF TEMPERATURE
RMC .OHMM                       : MUD CAKE RESISTIVITY
RMCT.DEGF                       : RMC TEMPERATURE
RMFS.                           : RMF SOURCE
RMCS.                           : RMC SOURCE
RMBH.OHMM                       : MUD RESISTIVITY AT BHT
BHT .DEGF                   237 : BOTTOM HOLE TEMPERATURE
TIMC.                           : TIME CIRCULATION STOPPED
TIML.                           : TIME LOGGER ON BOTTOM
TMAX.DEGF                   237 : MAXIMUM RECORDED TEMPERATURE
UNIT.                     13028 : EQUIPMENT NUMBER
BASE.                      BRSD : BASE LOCATION
ENG .                 F. GUIDRY : RECORDED BY
WIT .             AXXIS LIBERTY : WITNESSED BY
~Curve Information -----------------------------------------
DEPT.F          :DEPTH
AI2R20.OHMM     :
AI2R40.OHMM     :
AI2R85.OHMM     :
DCAL.IN         :
DRHO.G/CC       :
GR.GAPI         :
NPHI.%          :
TENS.LBF        :
~ASCII ------------------------------------------------------
# ...
6527.00000        0.57723        0.53458        0.51851        0.24920        -999.25       81.95264        -999.25     1868.79171
6527.50000        0.58290        0.52745        0.50330        0.22539        -999.25       77.81063        -999.25     1868.79171
6528.00000        0.58863        0.53045        0.51493        0.20158        -999.25       76.03548        -999.25     1868.79171
6528.50000        0.59872        0.54743        0.53409        0.17778        -999.25       75.73963        -999.25     1868.79171
6529.00000        0.62670        0.57475        0.56548        0.16071        -999.25       79.58578        -999.25     1868.79171
6529.50000        0.65600        0.60349        0.59872        0.17024        -999.25       84.91122        -999.25     1868.79171
6530.00000        0.67862        0.62265        0.62814        0.17976        -999.25       85.79880        -999.25     1868.79171
6530.50000        0.69088        0.63327        0.63535        0.18928        -999.25       85.79880        -999.25     1868.79171
6531.00000        0.68042        0.63744        0.62911        0.19881        -999.25       81.06507        -999.25     1868.79171
6531.50000        0.66810        0.62998        0.61121        0.21031        -999.25       79.58578        -999.25     1868.79171
6532.00000        0.65798        0.61817        0.59669        0.21984        -999.25       79.88164        -999.25     1868.79171
6532.50000        0.64885        0.60421        0.58253        0.22936        -999.25       80.47335        -999.25     1868.79171
6533.00000        0.64294        0.60421        0.58551        0.23889        -999.25       81.36093        -999.25     1868.79171
6533.50000        0.64071        0.60421        0.58787        0.24881        -999.25       81.06507        -999.25     1868.79171
6534.00000        0.65301        0.62607        0.58787        0.25833        -999.25       81.06507        -999.25     1868.79171
6534.50000        0.66554        0.64606        0.61322        0.26785        -999.25       80.47335        -999.25     1868.79171
6535.00000        0.68836        0.65600        0.63960        0.27738        -999.25       78.99406        -999.25     1868.79171
6535.50000        0.71457        0.66609        0.65372        0.28690        -999.25       83.13607        -999.25     1868.79171
6536.00000        0.71817        0.66810        0.64819        0.29643        -999.25       84.02365        -999.25     1868.79171
6536.50000        0.70633        0.66730        0.64265        0.30595        -999.25       84.61536        -999.25     1868.79171
6537.00000        0.69614        0.66523        0.63861        0.31547        -999.25       82.84022        -999.25     1868.79171
6537.50000        0.68823        0.66323        0.64031        0.32778        -999.25       80.17750        -999.25     1868.79171
6538.00000        0.67887        0.65942        0.64241        0.34325        -999.25       79.58578        -999.25     1868.79171
6538.50000        0.67226        0.65516        0.64412        0.35635        -999.25       79.28992        -999.25     1868.79171
6539.00000        0.66743        0.65086        0.63321        0.36905        -999.25       82.24850        -999.25     1868.79171
6539.50000        0.66269        0.64083        0.62242        0.38214        -999.25       84.91122        -999.25     1868.79171
6540.00000        0.65792        0.62957        0.61188        0.39524        -999.25       88.16566        -999.25     1868.79171
6540.50000        0.65600        0.61851        0.59981        0.40793        -999.25       89.05323        -999.25     1868.79171
6541.00000        0.65600        0.60592        0.58761        0.42103        -999.25       90.53252        -999.25     1868.79171
6541.50000        0.64148        0.58723        0.57565        0.43373        -999.25       94.67453        -999.25     1868.79171
6542.00000        0.61789        0.56906        0.56393        0.44682        -999.25      100.29583        -999.25     1868.79171
6542.50000        0.60107        0.55145        0.54743        0.45992        -999.25      102.36684        -999.25     1868.79171
6543.00000        0.59327        0.54250        0.53020        0.47262        -999.25      104.14199        -999.25     1868.79171
6543.50000        0.59327        0.53375        0.52136        0.48571        -999.25      105.02956        -999.25     1868.79171
6544.00000        0.58895        0.52203        0.51323        0.50119        -999.25      100.88755        -999.25     1868.79171
6544.50000        0.57628        0.51728        0.50699        0.51428        -999.25       98.81654        -999.25     1868.79171
6545.00000        0.56208        0.52524        0.50978        0.52698        -999.25       98.81654        -999.25     1868.79171
6545.50000        0.59457        0.57292        0.55100        0.54008        -999.25       96.74554        -999.25     1868.79171
6546.00000        0.66378        0.62940        0.62929        0.55278        -999.25       91.42010        -999.25     1868.79171
6546.50000        0.74110        0.69145        0.71876        0.55357        -999.25       76.75442        -999.25     1868.79171
6547.00000        0.80250        0.73908        0.70788        0.55079        -999.25       65.73963        -999.25     1868.79171
6547.50000        0.76855        0.70768        0.67091        0.54801        -999.25       64.00294        -999.25     1868.79171
6548.00000        0.73611        0.67763        0.62980        0.54524        -999.25       67.21004        -999.25     1868.79171
6548.50000        0.70504        0.64885        0.59948        0.54246        -999.25       70.41418        -999.25     1868.79171
6549.00000        0.69189        0.62705        0.60316        0.53968        -999.25       67.75146        -999.25     1868.79171
6549.50000        0.69019        0.62871        0.60692        0.53690        -999.25       66.27217        -999.25     1868.79171
6550.00000        0.68842        0.63044        0.61065        0.53452        -999.25       73.96448        -999.25     1868.79171
6550.50000        0.68629        0.63246        0.61519        0.53095        -999.25       81.95264        -999.25     1948.31455
6551.00000        0.68460        0.63413        0.61902        0.52857        -999.25       87.86980        -999.25     1948.31455
6551.50000        0.68285        0.63587        0.62282        0.52579        -999.25       92.30767        -999.25     1948.31455
6552.00000        0.68110        0.63756        0.62670        0.52301        -999.25       93.49110        -999.25     1948.31455
6552.50000        0.67763        0.63576        0.61513        0.52024        -999.25       94.67453        -999.25     1949.10978
6553.00000        0.67300        0.63165        0.60382        0.51746        -999.25       94.08282        -999.25     1950.30262
6553.50000        0.66840        0.62751        0.59267        0.52460        -999.25       92.01181        -999.25     1951.49547
6554.00000        0.66384        0.62670        0.58173        0.54682        -999.25       91.71595        -999.25     1952.68831
6554.50000        0.65924        0.62670        0.57099        0.56865        -999.25       92.30767        -999.25     1953.88115
6555.00000        0.65462        0.63286        0.58109        0.59087        -999.25       94.08282        -999.25     1955.07400
6555.50000        0.65003        0.64060        0.60570        0.61270        -999.25       94.67453        -999.25     1956.26684
6556.00000        0.68823        0.64843        0.62413        0.63492        -999.25       93.49110        -999.25     1957.45968
6556.50000        0.72868        0.66335        0.63194        0.67579        -999.25       90.53252        -999.25     1958.65252
6557.00000        0.74117        0.68042        0.63890        0.71627        -999.25       86.09465        -999.25     1959.84537
6557.50000        0.73396        0.67491        0.64218        0.75714        -999.25       83.72779        -999.25     1961.03821
