~Version ---------------------------------------------------
VERS. 2.0 : CWLS LOG ASCII STANDARD - VERSION 2.0
WRAP. NO  : One line per depth step
DLM . SPACE : Column Data Section Delimiter
~Well ------------------------------------------------------
STRT.F       2826.5 : START DEPTH
STOP.F        11520 : STOP DEPTH
STEP.F          0.5 : STEP
NULL.       -999.25 : NULL VALUE
COMP.                       CASTEX ENERGY : COMPANY
WELL.          226761-LATERRECOINC-002-30 : WELL
FLD .                     FOUR LEAGUE BAY : FIELD
CNTY.                          TERREBONNE : COUNTY
STAT.                           LOUISIANA : STATE
CTRY.                                 USA : COUNTRY
SEC .                                     : SECTION
TWP .                                     : TOWNSHIP
RGE .                                     : RANGE
LOC .      812 FEL & 1373.6 FSL OF SEC 30 : LOCATION
EKB .F                       30 : ELEVATION KELLY BUSHING
EDF .F                       30 : ELEVATION DERRICK FLOOR
EGL .F                        8 : ELEVATION GROUND LEVEL
PDAT.                       MSL : PERMANENT DATUM
EPD .                           : ELEVATION PERMANENT DATUM
APD .                        30 : ABOVE PERMANENT DATUM
LMF .                        DF : LOG MEASURED FROM
DMF .                        DF : DRILLING MEASURED FROM
API .            17109238080000 : API NUMBER
UWI .            17109238080000 : UWI NUMBER
DIGC.                     NthDS : DIGITIZING COMPANY
~Params ----------------------------------------------------
SRVC.              SCHLUMBERGER : LOGGING COMPANY
LOG .              IND/GR/LD/CN : LOG
DATE.                2002-02-20 : RUN DATE
RUN .                         1 : RUN NUMBER
TDD .F                    11515 : TOTAL DEPTH DRILLER
TDL .F                    11522 : TOTAL DEPTH LOGGER
BOTL.F                    11514 : BOTTOM LOGGED INTERVAL
TOPL.F                     3057 : TOP LOGGED INTERVAL
CSGS.IN                  10.750 : CASING SIZE
CSGD.F                     3050 : CASING DRILLER
CSGL.F                     3057 : CASING LOGGER
BS  .IN                   9.875 : BIT SIZE
MUD .  TANNATHIN/ SPERESENE WBM : MUD TYPE
MUDD.                      10.3 : MUD DENSITY
MUDV.                        43 : MUD VISCOSITY
PH  .                      11.8 : MUD PH
FL  .                       5.8 : FLUID LOSS
MUDS.          CIRCULATION TANK : SOURCE OF SAMPLE
RM  .OHMM                 1.490 : MUD RESISTIVITY
RMT .DEGF                    70 : RM TEMPERATURE
RMF .OHMM                 0.870 : MUD FILTRATE RESISTIVITY
RMFT.DEGF                    70 : RMF TEMPERATURE
RMC .OHMM                 1.781 : MUD CAKE RESISTIVITY
RMCT.DEGF                    70 : RMC TEMPERATURE
RMFS.                   PRESSED : RMF SOURCE
RMCS.                   PRESSED : RMC SOURCE
RMBH.OHMM                 0.600 : MUD RESISTIVITY AT BHT
BHT .DEGF                   184 : BOTTOM HOLE TEMPERATURE
TIMC.           2345 2002-02-19 : TIME CIRCULATION STOPPED
TIML.           0800 2002-02-20 : TIME LOGGER ON BOTTOM
TMAX.DEGF                   184 : MAXIMUM RECORDED TEMPERATURE
UNIT.                      2015 : EQUIPMENT NUMBER
BASE.              HOUMA INLAND : BASE LOCATION
ENG .      JAMES S. MACLEAN III : RECORDED BY
WIT .             STEVE LUBANKO : WITNESSED BY
~Curve Information -----------------------------------------
DEPT.F          :DEPTH
AHT10.OHMM      :
AHT20.OHMM      :
AHT30.OHMM      :
AHT60.OHMM      :
DCAL.IN         :
GR.GAPI         :
HTEN.LBF        :
NPOR.V/V        :
SP.MV           :
TENS.LBF        :
~ASCII ------------------------------------------------------
# ...
3051.50000        -999.25        -999.25        -999.25        -999.25        -999.25       42.43027        -999.25        0.54895        -999.25        -999.25
3052.00000        -999.25        -999.25        -999.25        -999.25        -999.25       40.93624        -999.25        0.58712        -999.25        -999.25
3052.50000        -999.25        -999.25        -999.25        -999.25        -999.25       40.63744        -999.25        0.60215        -999.25        -999.25
3053.00000        -999.25        -999.25        -999.25        -999.25        -999.25       42.50497        -999.25        0.60177        -999.25        -999.25
3053.50000        -999.25        -999.25        -999.25        -999.25        -999.25       44.37250        -999.25        0.60137        -999.25        -999.25
3054.00000        -999.25        -999.25        -999.25        -999.25        -999.25       46.24003        -999.25        0.60098        -999.25        -999.25
3054.50000        -999.25        -999.25        -999.25        -999.25        -999.25       44.94023        -999.25        0.60058        -999.25        -999.25
3055.00000        -999.25        -999.25        -999.25        -999.25        -999.25       42.45716        -999.25        0.60019        -999.25        -999.25
3055.50000        -999.25        -999.25        -999.25        0.61043        -999.25       39.87549        -999.25        0.59981        -999.25        -999.25
3056.00000        0.70663        0.61604        0.58850        0.61043        -999.25       38.39640        -999.25        0.59942        -999.25        -999.25
3056.50000        0.70728        0.61807        0.59272        0.61043        -999.25       39.60955      755.46946        0.59902      -79.92034        -999.25
3057.00000        0.70812        0.62068        0.59625        0.61430        -999.25       43.75696      755.46946        0.59863      -76.03588        -999.25
3057.50000        0.70896        0.62324        0.59986        0.61492        -999.25       51.42429      755.46946        0.59816      -66.49006     2159.05058
3058.00000        0.70981        0.62587        0.60344        0.61548        0.19861       61.43425      755.46946        0.59777      -59.08767     2160.24342
3058.50000        0.71065        0.62661        0.60377        0.61604        0.54617       74.10357      755.46946        0.47237      -54.19525     2161.43626
3059.00000        0.71143        0.62467        0.60195        0.61396        0.68242       77.65038      755.46946        0.36859      -50.56975     2162.23149
3059.50000        0.71228        0.62267        0.60008        0.61189        0.76623       80.71014      755.46946        0.37638      -47.91636     2163.42433
3060.00000        0.71312        0.62074        0.59827        0.60982        0.84965       83.03484      755.46946        0.39587      -45.25899     2164.61718
3060.50000        0.71097        0.61875        0.59647        0.60776        0.93346       83.29181      755.46946        0.41535      -44.17134     2165.81002
3061.00000        0.70909        0.61644        0.59429        0.60526        0.96325       79.87946      755.46946        0.43360      -43.08768     2167.00286
3061.50000        0.70754        0.61604        0.59320        0.60416        0.99900       78.10755      755.46946        0.43977      -42.86855     2168.19570
3062.00000        0.70599        0.61604        0.59228        0.60327        1.02880       78.88444      755.46946        0.43910      -42.86855     2169.38855
3062.50000        0.70450        0.61604        0.59136        0.60239        1.06693       83.36651      755.46946        0.49622      -41.15939     2170.58139
3063.00000        0.70296        0.61604        0.59050        0.60151        1.13922       85.75695      755.46946        0.49085      -39.96417     2171.37662
3063.50000        0.70142        0.61604        0.58958        0.60063        1.21152       85.00994      755.07184        0.46163      -39.45820     2172.56946
3064.00000        0.69866        0.61604        0.58866        0.59970        1.28381       82.47010      754.27661        0.42784      -39.90441     2173.76230
3064.50000        0.69104        0.61604        0.59120        0.60156        1.35610       79.48205      753.68019        0.43697      -41.27493     2174.95515
3065.00000        0.68349        0.61604        0.59462        0.60526        1.38788       76.82867      752.68616        0.44016      -43.74505     2176.14799
3065.50000        0.67603        0.61604        0.59800        0.60893        1.41013       75.52289      751.89093        0.39423      -46.53389     2177.34083
3066.00000        0.66719        0.61525        0.60211        0.60909        1.35054       76.79281      751.29451        0.38370      -47.88847     2178.53367
3066.50000        0.65437        0.61121        0.60487        0.60748        1.30089       79.48205      750.49928        0.39567      -46.13549     2179.72652
3067.00000        0.63376        0.60726        0.60200        0.60587        1.25124       79.21014      749.90286        0.41296      -43.06776     2180.52175
3067.50000        0.61379        0.59937        0.58775        0.60443        1.21748       78.12249      749.10763        0.42286      -40.07971     2181.71459
3068.00000        0.59445        0.58582        0.57383        0.60327        1.24806       78.58564      748.31240        0.43598      -37.42234     2182.90743
3068.50000        0.57784        0.57257        0.56025        0.60211        1.27865       80.07966      747.71598        0.45174      -35.98011     2184.10027
3069.00000        0.56477        0.55963        0.54698        0.60096        1.30923       81.57369      746.92075        0.46485      -35.69724     2185.29312
3069.50000        0.55201        0.55830        0.55155        0.59981        1.33982       82.41631      746.12552        0.49288      -36.54983     2186.48596
3070.00000        0.55560        0.55978        0.55616        0.60245        1.37636       82.27886      745.33029        0.51054      -37.03987     2187.67880
3070.50000        0.55927        0.56127        0.56348        0.60765        1.40695       81.87249      744.53507        0.49213      -37.29087     2188.87164
3071.00000        0.56369        0.56622        0.57320        0.61390        1.43753       83.11851      743.93865        0.48191      -37.53788     2190.06449
3071.50000        0.56736        0.57294        0.58149        0.61205        1.48957       85.49101      743.14342        0.49450      -37.60959     2190.85971
3072.00000        0.55095        0.57979        0.58224        0.60882        1.47964       88.14739      742.34819        0.51650      -37.41039     2192.05256
3072.50000        0.53496        0.58673        0.58118        0.60096        1.35571       91.13544      741.75177        0.57614      -37.37852     2193.24540
3073.00000        0.52253        0.59369        0.58006        0.59315        1.34220       92.55476      740.95654        0.60000      -37.60162     2194.43824
3073.50000        0.52253        0.59986        0.57895        0.59331        1.35610       92.09759      740.16131        0.60000      -38.16736     2195.63109
3074.00000        0.53393        0.60239        0.57784        0.60548        1.37040       91.43424      739.36608        0.57818      -38.76497     2196.82393
3074.50000        0.55347        0.60487        0.58448        0.61351        1.47249       93.04779      738.57085        0.52366      -38.88449     2198.01677
3075.00000        0.57368        0.59773        0.59120        0.61858        1.55749       94.92129      737.97443        0.49980      -38.08768     2198.81200
3075.50000        0.56736        0.59061        0.59266        0.62170        1.64290       93.52587      737.17920        0.49217      -37.09166     2198.81200
3076.00000        0.56323        0.58224        0.59017        0.62170        1.72790       90.53783      736.38397        0.49813      -36.71716     2198.81200
