~Version ---------------------------------------------------
VERS. 2.0 : CWLS LOG ASCII STANDARD - VERSION 2.0
WRAP. NO  : One line per depth step
DLM . SPACE : Column Data Section Delimiter
~Well ------------------------------------------------------
STRT.F       2826.5 : START DEPTH
STOP.F        11520 : STOP DEPTH
STEP.F          0.5 : STEP
NULL.       -999.25 : NULL VALUE
COMP.                       CASTEX ENERGY : COMPANY
WELL.          226761-LATERRECOINC-002-30 : WELL
FLD .                     FOUR LEAGUE BAY : FIELD
CNTY.                          TERREBONNE : COUNTY
STAT.                           LOUISIANA : STATE
CTRY.                                 USA : COUNTRY
SEC .                                     : SECTION
TWP .                                     : TOWNSHIP
RGE .                                     : RANGE
LOC .      812 FEL & 1373.6 FSL OF SEC 30 : LOCATION
EKB .F                       30 : ELEVATION KELLY BUSHING
EDF .F                       30 : ELEVATION DERRICK FLOOR
EGL .F                        8 : ELEVATION GROUND LEVEL
PDAT.                       MSL : PERMANENT DATUM
EPD .                           : ELEVATION PERMANENT DATUM
APD .                        30 : ABOVE PERMANENT DATUM
LMF .                        DF : LOG MEASURED FROM
DMF .                        DF : DRILLING MEASURED FROM
API .            17109238080000 : API NUMBER
UWI .            17109238080000 : UWI NUMBER
DIGC.                     NthDS : DIGITIZING COMPANY
~Params ----------------------------------------------------
SRVC.              SCHLUMBERGER : LOGGING COMPANY
LOG .              IND/GR/LD/CN : LOG
DATE.                2002-02-20 : RUN DATE
RUN .                         1 : RUN NUMBER
TDD .F                    11515 : TOTAL DEPTH DRILLER
TDL .F                    11522 : TOTAL DEPTH LOGGER
BOTL.F                    11514 : BOTTOM LOGGED INTERVAL
TOPL.F                     3057 : TOP LOGGED INTERVAL
CSGS.IN                  10.750 : CASING SIZE
CSGD.F                     3050 : CASING DRILLER
CSGL.F                     3057 : CASING LOGGER
BS  .IN                   9.875 : BIT SIZE
MUD .  TANNATHIN/ SPERESENE WBM : MUD TYPE
MUDD.                      10.3 : MUD DENSITY
MUDV.                        43 : MUD VISCOSITY
PH  .                      11.8 : MUD PH
FL  .                       5.8 : FLUID LOSS
MUDS.          CIRCULATION TANK : SOURCE OF SAMPLE
RM  .OHMM                 1.490 : MUD RESISTIVITY
RMT .DEGF                    70 : RM TEMPERATURE
RMF .OHMM                 0.870 : MUD FILTRATE RESISTIVITY
RMFT.DEGF                    70 : RMF TEMPERATURE
RMC .OHMM                 1.781 : MUD CAKE RESISTIVITY
RMCT.DEGF                    70 : RMC TEMPERATURE
RMFS.                   PRESSED : RMF SOURCE
RMCS.                   PRESSED : RMC SOURCE
RMBH.OHMM                 0.600 : MUD RESISTIVITY AT BHT
BHT .DEGF                   184 : BOTTOM HOLE TEMPERATURE
TIMC.           2345 2002-02-19 : TIME CIRCULATION STOPPED
TIML.           0800 2002-02-20 : TIME LOGGER ON BOTTOM
TMAX.DEGF                   184 : MAXIMUM RECORDED TEMPERATURE
UNIT.                      2015 : EQUIPMENT NUMBER
BASE.              HOUMA INLAND : BASE LOCATION
ENG .      JAMES S. MACLEAN III : RECORDED BY
WIT .             STEVE LUBANKO : WITNESSED BY
~Curve Information -----------------------------------------
DEPT.F          :DEPTH
AHT10.OHMM      :
AHT20.OHMM      :
AHT30.OHMM      :
AHT60.OHMM      :
DCAL.IN         :
GR.GAPI         :
HTEN.LBF        :
NPOR.V/V        :
SP.MV           :
TENS.LBF        :
~ASCII ------------------------------------------------------
# ...
5301.50000        0.77198        0.73202        0.71790        0.69003        0.21688      100.07950      742.27041        -999.25       11.76934     2271.92244
5302.00000        0.79796        0.77651        0.78501        0.75094        0.19583       96.91847      740.98769        -999.25       11.37173     2270.54274
5302.50000        0.85158        0.82437        0.88009        0.81724        0.18868       93.84391      739.70497        -999.25       10.97411     2269.16305
5303.00000        0.90250        0.87511        0.88679        0.88939        0.23833       91.20773      738.42225        -999.25        9.78127     2267.50741
5303.50000        0.91564        0.88655        0.87663        0.88947        0.28798       88.56857      737.13953        -999.25        6.99797     2266.12772
5304.00000        0.84406        0.85041        0.85964        0.85587        0.33763       87.89163      735.85681        -999.25        3.02183     2264.74802
5304.50000        0.77530        0.80316        0.82151        0.82354        0.09493       87.21171      734.43613        -999.25        0.23853     2263.36833
5305.00000        0.72629        0.77509        0.78000        0.79244       -0.08858       88.40157      733.15341        -999.25       -1.74954     2261.98863
5305.50000        0.71312        0.74944        0.74058        0.77850       -0.03416       90.05962      731.87069        -999.25       -0.95431     2260.60894
5306.00000        0.70386        0.73009        0.73296        0.78904        0.01986       90.19381      730.58797        -999.25        1.03376     2259.22924
5306.50000        0.72251        0.74649        0.73062        0.79972       -0.01311       90.33099      729.50288        -999.25        4.21467     2257.84954
5307.00000        0.71476        0.73909        0.71902        0.81054       -0.04648       94.16002      728.22016        -999.25        6.99797     2256.46985
5307.50000        0.68675        0.72689        0.70760        0.78400       -0.07945       98.91349      726.93744        -999.25        8.58843     2255.09015
5308.00000        0.64996        0.71528        0.69637        0.75840       -0.18868      103.66399      725.65472        -999.25        9.78127     2253.71046
5308.50000        0.63666        0.70450        0.69066        0.75335       -0.41192      104.87174      724.37200        -999.25       10.17888     2252.05482
5309.00000        0.66039        0.71078        0.71052        0.77431       -0.43575      103.71170      723.08928        -999.25       10.57650     2250.67513
5309.50000        0.68958        0.72868        0.73700        0.81054       -0.40914      102.55166      722.00419        -999.25       10.57650     2249.29543
5310.00000        0.72902        0.76027        0.77226        0.84847       -0.38252      101.39163      720.38588        -999.25       10.97411     2247.91574
5310.50000        0.77765        0.81426        0.82151        0.90044       -0.27130       99.96021      719.10316        -999.25       10.57650     2246.53604
5311.00000        0.82952        0.87207        0.87399        0.95884       -0.13903       98.87175      717.82044        -999.25       10.57650     2245.15635
5311.50000        0.88485        0.92127        0.92973        1.02111       -0.11678       98.19182      716.73534        -999.25       10.57650     2243.77665
5312.00000        0.92127        0.96438        0.92973        1.02607       -0.09494       97.51489      715.45263        -999.25       10.57650     2242.39696
5312.50000        0.89699        0.92778        0.91288        0.99202       -0.07269       95.52582      714.16991        -999.25        9.78127     2241.01726
5313.00000        0.86873        0.88566        0.88817        0.95254        0.05958       91.43139      712.88719        -999.25        8.58843     2239.63757
5313.50000        0.86413        0.87808        0.86809        0.92093        0.25819       86.80912      712.59259        -999.25        7.39559     2238.25787
5314.00000        0.85517        0.87687        0.84847        0.86035        0.45680       85.77732      712.69324        -999.25        6.20274     2235.41649
5314.50000        0.84329        0.86098        0.83028        0.84529        0.54538       85.64014      712.79388        -999.25        4.21467     2233.24630
5315.00000        0.83058        0.84537        0.81612        0.83172        0.56087       85.22861      712.89453        -999.25        3.02183     2231.07611
5315.50000        0.81799        0.83058        0.80736        0.81844        0.57597       84.36380      713.05483        -999.25        2.22660     2228.90592
5316.00000        0.81799        0.81799        0.80596        0.81426        0.46752       83.32006      713.15548        -999.25        0.63614     2226.73573
5316.50000        0.83309        0.80316        0.81986        0.82362        0.35948       82.90256      713.45375        -999.25        2.62421     2224.17030
5317.00000        0.85885        0.82551        0.83157        0.83309        0.35074       85.43735      713.55439        -999.25        5.00990     2222.00011
5317.50000        0.88097        0.84847        0.84175        0.85236        0.36743       89.66300      713.65504        -999.25        7.79320     2219.82992
5318.00000        0.88550        0.86153        0.85213        0.87207        0.38411       93.26538      713.75569        -999.25        7.79320     2217.65973
5318.50000        0.89070        0.86945        0.85072        0.86809        0.40039       93.33994      713.85633        -999.25        7.79320     2215.48954
5319.00000        0.89699        0.85627        0.84167        0.84847        0.41708       92.31707      714.15460        -999.25        7.79320     2213.31935
5319.50000        0.90333        0.84591        0.83263        0.82929        0.43376       93.16996      714.25525        -999.25        7.79320     2210.47797
5320.00000        0.92127        0.83745        0.82460        0.81054        0.45005       92.99998      714.35590        -999.25        7.39559     2208.30778
5320.50000        0.94258        0.82121        0.81986        0.79360        0.33763       91.97711      714.45654        -999.25        6.99797     2206.13759
5321.00000        0.97324        0.83309        0.80684        0.77701        0.33763       91.12423      714.61684        -999.25        5.40751     2203.96740
5321.50000        1.00031        0.81694        0.78860        0.74424        0.33763       91.49700      714.71749        -999.25        4.21467     2201.79721
5322.00000        0.93254        0.77978        0.76726        0.68306        0.32691       92.17393      715.01576        -999.25        1.03376     2199.62702
5322.50000        0.82974        0.70418        0.68801        0.60355        0.27408       90.55763      715.11641        -999.25       -3.73761     2197.45683
5323.00000        0.73821        0.63585        0.61689        0.53334        0.22125       87.40853      715.21705        -999.25      -11.68990     2195.28664
5323.50000        0.65677        0.57431        0.53707        0.47126        0.16882       83.37075      715.31770        -999.25      -18.84695     2193.11646
5324.00000        0.60487        0.51881        0.44728        0.43918        0.11916       80.51688      715.41835        -999.25      -21.63025     2190.55102
5324.50000        0.55708        0.48713        0.42340        0.41477        0.10764       80.70177      715.71662        -999.25      -22.02787     2188.38083
5325.00000        0.51306        0.46032        0.41383        0.39973        0.12194       81.50396      715.61964        -999.25      -22.02787     2186.21064
5325.50000        0.49463        0.43387        0.40819        0.39533        0.13902       82.30614      714.92979        -999.25      -19.24457     2183.76451
5326.00000        0.51306        0.46821        0.48420        0.43986        0.19702       84.43537      714.23995        -999.25      -13.28035     2181.59432
