~Version ---------------------------------------------------
VERS. 2.0 : CWLS LOG ASCII STANDARD - VERSION 2.0
WRAP. NO  : One line per depth step
DLM . SPACE : Column Data Section Delimiter
~Well ------------------------------------------------------
STRT.F       2826.5 : START DEPTH
STOP.F        11520 : STOP DEPTH
STEP.F          0.5 : STEP
NULL.       -999.25 : NULL VALUE
COMP.                       CASTEX ENERGY : COMPANY
WELL.          226761-LATERRECOINC-002-30 : WELL
FLD .                     FOUR LEAGUE BAY : FIELD
CNTY.                          TERREBONNE : COUNTY
STAT.                           LOUISIANA : STATE
CTRY.                                 USA : COUNTRY
SEC .                                     : SECTION
TWP .                                     : TOWNSHIP
RGE .                                     : RANGE
LOC .      812 FEL & 1373.6 FSL OF SEC 30 : LOCATION
EKB .F                       30 : ELEVATION KELLY BUSHING
EDF .F                       30 : ELEVATION DERRICK FLOOR
EGL .F                        8 : ELEVATION GROUND LEVEL
PDAT.                       MSL : PERMANENT DATUM
EPD .                           : ELEVATION PERMANENT DATUM
APD .                        30 : ABOVE PERMANENT DATUM
LMF .                        DF : LOG MEASURED FROM
DMF .                        DF : DRILLING MEASURED FROM
API .            17109238080000 : API NUMBER
UWI .            17109238080000 : UWI NUMBER
DIGC.                     NthDS : DIGITIZING COMPANY
~Params ----------------------------------------------------
SRVC.              SCHLUMBERGER : LOGGING COMPANY
LOG .              IND/GR/LD/CN : LOG
DATE.                2002-02-20 : RUN DATE
RUN .                         1 : RUN NUMBER
TDD .F                    11515 : TOTAL DEPTH DRILLER
TDL .F                    11522 : TOTAL DEPTH LOGGER
BOTL.F                    11514 : BOTTOM LOGGED INTERVAL
TOPL.F                     3057 : TOP LOGGED INTERVAL
CSGS.IN                  10.750 : CASING SIZE
CSGD.F                     3050 : CASING DRILLER
CSGL.F                     3057 : CASING LOGGER
BS  .IN                   9.875 : BIT SIZE
MUD .  TANNATHIN/ SPERESENE WBM : MUD TYPE
MUDD.                      10.3 : MUD DENSITY
MUDV.                        43 : MUD VISCOSITY
PH  .                      11.8 : MUD PH
FL  .                       5.8 : FLUID LOSS
MUDS.          CIRCULATION TANK : SOURCE OF SAMPLE
RM  .OHMM                 1.490 : MUD RESISTIVITY
RMT .DEGF                    70 : RM TEMPERATURE
RMF .OHMM                 0.870 : MUD FILTRATE RESISTIVITY
RMFT.DEGF                    70 : RMF TEMPERATURE
RMC .OHMM                 1.781 : MUD CAKE RESISTIVITY
RMCT.DEGF                    70 : RMC TEMPERATURE
RMFS.                   PRESSED : RMF SOURCE
RMCS.                   PRESSED : RMC SOURCE
RMBH.OHMM                 0.600 : MUD RESISTIVITY AT BHT
BHT .DEGF                   184 : BOTTOM HOLE TEMPERATURE
TIMC.           2345 2002-02-19 : TIME CIRCULATION STOPPED
TIML.           0800 2002-02-20 : TIME LOGGER ON BOTTOM
TMAX.DEGF                   184 : MAXIMUM RECORDED TEMPERATURE
UNIT.                      2015 : EQUIPMENT NUMBER
BASE.              HOUMA INLAND : BASE LOCATION
ENG .      JAMES S. MACLEAN III : RECORDED BY
WIT .             STEVE LUBANKO : WITNESSED BY
~Curve Information -----------------------------------------
DEPT.F          :DEPTH
AHT10.OHMM      :
AHT20.OHMM      :
AHT30.OHMM      :
AHT60.OHMM      :
DCAL.IN         :
GR.GAPI         :
HTEN.LBF        :
NPOR.V/V        :
SP.MV           :
TENS.LBF        :
~ASCII ------------------------------------------------------
# ...
10376.50000        0.54146        0.45935        0.41660        0.38438       -0.00635       67.67579      777.36804        0.33624      -40.56672     4077.40565
10377.00000        0.62197        0.47211        0.45994        0.41164        0.00158       67.21644      786.54124        0.33265      -37.19517     4079.57889
10377.50000        0.67288        0.50394        0.49904        0.45780        0.00952       68.50508      777.17446        0.32669      -33.99891     4082.14659
10378.00000        0.72795        0.53752        0.54146        0.52203        0.01746       71.29669      755.38196        0.31599      -31.99786     4084.31982
10378.50000        0.78753        0.57828        0.58429        0.56724        0.02539       74.08830      733.39222        0.30885      -29.69801     4086.49306
10379.00000        0.82435        0.62214        0.63055        0.61637        0.03333       76.87692      732.11203        0.31472      -26.16311     4089.06076
10379.50000        0.89296        0.66724        0.68042        0.65900        0.05555       79.66853      735.95992        0.31941      -22.36925     4091.23399
10380.00000        0.93684        0.71223        0.70144        0.69550        0.13492       80.78984      739.80782        0.32174      -17.61741     4093.80170
10380.50000        0.93359        0.73055        0.72318        0.70833        0.21428       80.79662      743.45847        0.32880      -14.81956     4095.97493
10381.00000        0.93027        0.74457        0.73202        0.71797        0.28016       85.07328      740.79765        0.33704      -12.81851     4098.54263
10381.50000        0.91426        0.73968        0.73202        0.71385        0.29285       88.87782      726.16510        0.34173      -14.57439     4100.71587
10382.00000        0.87879        0.73490        0.72596        0.70982        0.30516       91.48717      713.83981        0.34524      -17.97966     4102.88910
10382.50000        0.83955        0.73470        0.71995        0.70575        0.31746       92.86381      706.64261        0.33928      -18.16982     4105.97034
10383.00000        0.86739        0.74144        0.72536        0.70762        0.26071       93.29489      720.15496        0.32741      -18.35998     4108.14358
10383.50000        0.86683        0.74382        0.73262        0.70956        0.20397       94.71500      733.47007        0.32145      -19.41468     4110.71128
10384.00000        0.84725        0.73962        0.73571        0.71144        0.14722       96.38312      740.47370        0.31904      -22.05900     4112.88452
10384.50000        0.85347        0.72563        0.73874        0.71340        0.09087       93.08216      738.01011        0.32137      -24.70730     4111.11307
10385.00000        0.87719        0.73725        0.74253        0.71529        0.13016       89.78121      735.74375        0.31541      -24.29805     4108.55270
10385.50000        0.90470        0.74907        0.74552        0.71719        0.19365       86.74320      733.28016        0.29406      -20.30680     4105.99232
10386.00000        0.93530        0.76107        0.74552        0.71549        0.25714       87.91232      730.81657        0.29638      -15.91533     4103.03748
10386.50000        0.94113        0.77080        0.74144        0.69933        0.32063       91.18799      728.35298        0.29043      -15.42821     4100.47710
10387.00000        0.90943        0.76865        0.72139        0.68541        0.38412       94.46366      725.88939        0.28565      -17.46297     4097.52225
10387.50000        0.86446        0.76684        0.70292        0.67300        0.36785       95.66266      723.42580        0.28679      -21.29453     4094.96188
10388.00000        0.80942        0.76502        0.68597        0.65840        0.32460       93.74814      720.96221        0.28793      -25.12609     4092.40150
10388.50000        0.78753        0.76320        0.69101        0.66202        0.26071       91.83363      718.49862        0.28553      -26.09712     4089.44666
10389.00000        0.80206        0.76139        0.71824        0.69297        0.19008       92.34239      716.03502        0.28430      -20.32320     4086.88628
10389.50000        0.84594        0.75927        0.74654        0.72166        0.11905       94.77843      714.22267        0.29373      -13.93972     4084.32590
10390.00000        0.89231        0.79476        0.75927        0.73651        0.31746       97.95848      714.71759        0.31328      -10.66379     4081.37106
10390.50000        0.90876        0.80499        0.76799        0.75161        0.39206      100.80388      715.21250        0.32915       -8.50338     4078.14082
10391.00000        0.88145        0.79767        0.77681        0.76701        0.38452       99.66625      715.51018        0.33621       -8.20966     4075.58044
10391.50000        0.85503        0.80059        0.78847        0.77596        0.37698       98.05352      716.00510        0.34208       -9.96953     4072.62560
10392.00000        0.84640        0.81038        0.80206        0.78037        0.36944       97.08920      716.50002        0.34559      -11.15570     4070.06522
10392.50000        0.84185        0.82036        0.80206        0.78487        0.36190       98.68859      716.99493        0.34437      -11.45343     4067.50484
10393.00000        0.85347        0.83191        0.80206        0.79013        0.36230      100.68838      717.29261        0.35024      -11.64359     4064.55000
10393.50000        0.86288        0.84039        0.80206        0.79672        0.37579      102.77318      717.78753        0.35493      -11.51901     4061.98962
10394.00000        0.86288        0.84725        0.80206        0.80338        0.38889      104.51002      718.28245        0.33714      -10.13150     4059.03478
10394.50000        0.86288        0.84725        0.82269        0.81008        0.37420      106.24686      718.58013        0.32882       -8.74001     4056.47440
10395.00000        0.86288        0.84085        0.83955        0.81685        0.31746      106.41798      719.07504        0.33233       -8.38037     4053.91402
10395.50000        0.84617        0.82533        0.83542        0.82307        0.26071      104.24052      719.56996        0.33464       -9.10041     4050.95918
10396.00000        0.82971        0.80794        0.82525        0.80846        0.28571      102.06306      720.06487        0.32632      -10.42203     4048.39880
10396.50000        0.81387        0.79092        0.81513        0.79411        0.36508      101.63359      720.36256        0.31326      -11.73967     4045.83842
10397.00000        0.79913        0.78437        0.80514        0.78008        0.40397      103.70509      720.85747        0.32150      -11.90593     4042.88358
10397.50000        0.78919        0.78037        0.79534        0.76624        0.41547      106.29352      721.35239        0.32738      -10.35109     4040.32320
10398.00000        0.79752        0.78037        0.79114        0.77802        0.42698      107.70168      721.90684        0.34293       -9.72054     4037.36836
10398.50000        0.80602        0.78847        0.80206        0.78674        0.43373      108.32100      722.20452        0.35849       -9.43661     4034.80798
10399.00000        0.80801        0.79295        0.80206        0.78273        0.41944      108.94331      722.69944        0.35921       -8.96542     4031.18327
10399.50000        0.80573        0.78645        0.80206        0.77880        0.40516      109.44311      723.19435        0.35916       -8.49822     4027.83396
10400.00000        0.80345        0.77271        0.80206        0.77483        0.32301      109.14669      756.70423        0.37676       -7.91052     4093.19617
10400.50000        0.81552        0.76439        0.80316        0.78142        0.12194      107.89203      757.20110        0.39296       -7.30508     4090.22962
10401.00000        0.83645        0.78522        0.80581        0.79041       -0.06237      106.63738      757.69798        0.40384       -7.29606     4086.86704
