~Version ---------------------------------------------------
VERS. 2.0 : CWLS LOG ASCII STANDARD - VERSION 2.0
WRAP. NO  : One line per depth step
DLM . SPACE : Column Data Section Delimiter
~Well ------------------------------------------------------
STRT.F       2826.5 : START DEPTH
STOP.F        11520 : STOP DEPTH
STEP.F          0.5 : STEP
NULL.       -999.25 : NULL VALUE
COMP.                       CASTEX ENERGY : COMPANY
WELL.          226761-LATERRECOINC-002-30 : WELL
FLD .                     FOUR LEAGUE BAY : FIELD
CNTY.                          TERREBONNE : COUNTY
STAT.                           LOUISIANA : STATE
CTRY.                                 USA : COUNTRY
SEC .                                     : SECTION
TWP .                                     : TOWNSHIP
RGE .                                     : RANGE
LOC .      812 FEL & 1373.6 FSL OF SEC 30 : LOCATION
EKB .F                       30 : ELEVATION KELLY BUSHING
EDF .F                       30 : ELEVATION DERRICK FLOOR
EGL .F                        8 : ELEVATION GROUND LEVEL
PDAT.                       MSL : PERMANENT DATUM
EPD .                           : ELEVATION PERMANENT DATUM
APD .                        30 : ABOVE PERMANENT DATUM
LMF .                        DF : LOG MEASURED FROM
DMF .                        DF : DRILLING MEASURED FROM
API .            17109238080000 : API NUMBER
UWI .            17109238080000 : UWI NUMBER
DIGC.                     NthDS : DIGITIZING COMPANY
~Params ----------------------------------------------------
SRVC.              SCHLUMBERGER : LOGGING COMPANY
LOG .              IND/GR/LD/CN : LOG
DATE.                2002-02-20 : RUN DATE
RUN .                         1 : RUN NUMBER
TDD .F                    11515 : TOTAL DEPTH DRILLER
TDL .F                    11522 : TOTAL DEPTH LOGGER
BOTL.F                    11514 : BOTTOM LOGGED INTERVAL
TOPL.F                     3057 : TOP LOGGED INTERVAL
CSGS.IN                  10.750 : CASING SIZE
CSGD.F                     3050 : CASING DRILLER
CSGL.F                     3057 : CASING LOGGER
BS  .IN                   9.875 : BIT SIZE
MUD .  TANNATHIN/ SPERESENE WBM : MUD TYPE
MUDD.                      10.3 : MUD DENSITY
MUDV.                        43 : MUD VISCOSITY
PH  .                      11.8 : MUD PH
FL  .                       5.8 : FLUID LOSS
MUDS.          CIRCULATION TANK : SOURCE OF SAMPLE
RM  .OHMM                 1.490 : MUD RESISTIVITY
RMT .DEGF                    70 : RM TEMPERATURE
RMF .OHMM                 0.870 : MUD FILTRATE RESISTIVITY
RMFT.DEGF                    70 : RMF TEMPERATURE
RMC .OHMM                 1.781 : MUD CAKE RESISTIVITY
RMCT.DEGF                    70 : RMC TEMPERATURE
RMFS.                   PRESSED : RMF SOURCE
RMCS.                   PRESSED : RMC SOURCE
RMBH.OHMM                 0.600 : MUD RESISTIVITY AT BHT
BHT .DEGF                   184 : BOTTOM HOLE TEMPERATURE
TIMC.           2345 2002-02-19 : TIME CIRCULATION STOPPED
TIML.           0800 2002-02-20 : TIME LOGGER ON BOTTOM
TMAX.DEGF                   184 : MAXIMUM RECORDED TEMPERATURE
UNIT.                      2015 : EQUIPMENT NUMBER
BASE.              HOUMA INLAND : BASE LOCATION
ENG .      JAMES S. MACLEAN III : RECORDED BY
WIT .             STEVE LUBANKO : WITNESSED BY
~Curve Information -----------------------------------------
DEPT.F          :DEPTH
AHT10.OHMM      :
AHT20.OHMM      :
AHT30.OHMM      :
AHT60.OHMM      :
DCAL.IN         :
GR.GAPI         :
HTEN.LBF        :
NPOR.V/V        :
SP.MV           :
TENS.LBF        :
~ASCII ------------------------------------------------------
# ...
9251.50000        0.70513        0.70616        0.71031        0.75781        0.89065      111.55245      800.96170        0.42191       12.89501     3684.99222
9252.00000        0.70927        0.70538        0.71403        0.75906        0.97018      110.79205      801.45564        0.40642       12.67323     3689.52332
9252.50000        0.70513        0.69998        0.70784        0.74822        1.00676      109.30690      801.94958        0.40490       12.78808     3694.05442
9253.00000        0.69309        0.69468        0.70017        0.73748        0.87038      109.77027      802.44352        0.40604       12.90689     3698.58553
9253.50000        0.68133        0.68070        0.69259        0.72689        0.73439      112.40789      791.52042        0.40600       13.02174     3703.11663
9254.00000        0.66970        0.67277        0.68508        0.72649        0.59841      113.39106      777.64464        0.39572       13.19600     3707.64773
9254.50000        0.67654        0.68835        0.69151        0.74141        0.54791      113.26631      763.76886        0.38938       13.40986     3712.17884
9255.00000        0.67741        0.70429        0.70752        0.74276        0.62505      113.38512      776.27038        0.39761       13.61976     3716.70994
9255.50000        0.66970        0.70178        0.70752        0.73492        0.70258      114.47522      795.26780        0.40111       13.83362     3715.33568
9256.00000        0.65455        0.69468        0.70752        0.72722        0.77972      115.56532      814.26522        0.40107       14.04352     3712.78034
9256.50000        0.64734        0.69787        0.70966        0.72722        0.69980      116.43562      837.06213        0.40221       14.25738     3709.55646
9257.00000        0.65156        0.70107        0.71514        0.72722        0.65328      115.91581      832.04440        0.40216       13.73065     3707.00112
9257.50000        0.64497        0.69576        0.72059        0.72722        0.62465      115.26532      827.02666        0.40920       13.19996     3704.44579
9258.00000        0.64144        0.69749        0.71442        0.72722        0.59642      114.61779      822.00893        0.42688       12.67323     3701.89045
9258.50000        0.65156        0.69812        0.70713        0.72390        0.56222      116.13859      816.99119        0.44102       11.48511     3698.94142
9259.00000        0.63472        0.68351        0.70107        0.72059        0.53399      119.10888      811.97346        0.44688       10.29699     3696.38608
9259.50000        0.61956        0.66921        0.69864        0.71730        0.50934      119.99997      806.95573        0.43148        9.10887     3693.83075
9260.00000        0.60554        0.66707        0.69615        0.71403        0.49026      116.35542      801.93799        0.41356        8.69303     3691.27541
9260.50000        0.61848        0.67290        0.69691        0.72416        0.47157      111.98017      796.92026        0.40676        8.19006     3688.72007
9261.00000        0.63170        0.67884        0.70248        0.73445        0.45248      111.08908      791.90253        0.40183        7.77422     3685.77105
9261.50000        0.64243        0.68477        0.70810        0.73870        0.44970      112.87126      786.88479        0.39943        7.73461     3683.21571
9262.00000        0.64929        0.68942        0.71376        0.73391        0.51093      114.65344      781.86706        0.39820        8.26531     3680.66037
9262.50000        0.65617        0.69201        0.71947        0.72915        0.57177      110.84849      776.84932        0.41115        8.79204     3678.10504
9263.00000        0.65437        0.69468        0.71980        0.72875        0.58727      107.04354      771.83159        0.41820        9.35441     3675.15601
9263.50000        0.65037        0.70223        0.71881        0.73136        0.57177      103.23562      766.81386        0.43233        9.97620     3672.60067
9264.00000        0.64639        0.70409        0.71783        0.73391        0.55666      103.90096      761.79612        0.42520       10.59402     3670.04533
9264.50000        0.64562        0.70597        0.71678        0.73647        0.54155      107.46532      755.85358        0.42162       11.08907     3667.49000
9265.00000        0.64674        0.70752        0.71579        0.73910        0.52604      110.44156      750.83585        0.42748       11.08907     3664.26612
9265.50000        0.64858        0.70752        0.71481        0.74215        0.53121      112.21779      745.81811        0.43217       11.08907     3661.71078
9266.00000        0.65042        0.70752        0.71527        0.74597        0.56739      111.74255      747.88682        0.43449       11.08907     3658.76175
9266.50000        0.65557        0.70752        0.72138        0.74973        0.58847      109.66334      749.75868        0.43208       10.90293     3656.20641
9267.00000        0.66768        0.71044        0.72889        0.75435        0.54075      109.82077      751.82738        0.42613       10.59006     3653.65108
9267.50000        0.67791        0.71344        0.73337        0.75822        0.50099      113.33166      753.69925        0.42136       10.27719     3651.09574
9268.00000        0.67636        0.71606        0.73056        0.76128        0.49224      115.71086      755.76795        0.40833        9.96432     3648.14671
9268.50000        0.66689        0.71855        0.72775        0.76128        0.52922      113.56334      757.63981        0.40947       10.18214     3645.59138
9269.00000        0.65755        0.72191        0.73210        0.76625        0.56660      111.41878      759.70852        0.41652       10.53065     3643.03604
9269.50000        0.67277        0.73089        0.73822        0.77891        0.62028      109.27423      760.00561        0.41647       10.87917     3640.48070
9270.00000        0.68835        0.74953        0.75559        0.79694        0.72246      107.65245      759.31848        0.39724       10.86332     3637.92537
9270.50000        0.70165        0.76864        0.78120        0.81539        0.75546      106.03958      758.63135        0.38332       10.05936     3635.37003
9271.00000        0.71344        0.78824        0.80111        0.83427        0.78847      104.55443      757.94422        0.38919        8.87125     3633.99577
9271.50000        0.71619        0.79694        0.81167        0.83458        0.69582      103.06928      757.25709        0.37261        7.98808     3632.62150
9272.00000        0.68477        0.75359        0.79789        0.82244        0.57137      101.88116      756.56995        0.36784        8.31679     3631.24724
9272.50000        0.66208        0.71993        0.78557        0.81048        0.44731      107.07918      755.88282        0.37961        9.34649     3629.87298
9273.00000        0.65833        0.71665        0.77535        0.79870        0.37932      112.27720      755.05826        0.41653       10.52273     3628.22386
9273.50000        0.65455        0.71461        0.76527        0.78708        0.34871      112.81779      754.37113        0.42530       11.08907     3626.84960
9274.00000        0.65156        0.71763        0.75262        0.78679        0.31809      113.35839      753.68400        0.41256       11.08907     3625.47533
9274.50000        0.65156        0.72059        0.73842        0.79403        0.33598      110.83661      752.99687        0.39598       11.08907     3624.10107
9275.00000        0.65156        0.71540        0.73391        0.79512        0.35427      106.95443      752.30974        0.38885       11.52867     3622.72680
9275.50000        0.65156        0.70920        0.76059        0.79149        0.37216      103.06928      751.62261        0.39707       11.96827     3621.35254
9276.00000        0.65156        0.70409        0.75885        0.79258        0.38608      102.17819      750.93547        0.41002       12.40788     3619.97828
