~Version ---------------------------------------------------
VERS. 2.0 : CWLS LOG ASCII STANDARD - VERSION 2.0
WRAP. NO  : One line per depth step
DLM . SPACE : Column Data Section Delimiter
~Well ------------------------------------------------------
STRT.F       2826.5 : START DEPTH
STOP.F        11520 : STOP DEPTH
STEP.F          0.5 : STEP
NULL.       -999.25 : NULL VALUE
COMP.                       CASTEX ENERGY : COMPANY
WELL.          226761-LATERRECOINC-002-30 : WELL
FLD .                     FOUR LEAGUE BAY : FIELD
CNTY.                          TERREBONNE : COUNTY
STAT.                           LOUISIANA : STATE
CTRY.                                 USA : COUNTRY
SEC .                                     : SECTION
TWP .                                     : TOWNSHIP
RGE .                                     : RANGE
LOC .      812 FEL & 1373.6 FSL OF SEC 30 : LOCATION
EKB .F                       30 : ELEVATION KELLY BUSHING
EDF .F                       30 : ELEVATION DERRICK FLOOR
EGL .F                        8 : ELEVATION GROUND LEVEL
PDAT.                       MSL : PERMANENT DATUM
EPD .                           : ELEVATION PERMANENT DATUM
APD .                        30 : ABOVE PERMANENT DATUM
LMF .                        DF : LOG MEASURED FROM
DMF .                        DF : DRILLING MEASURED FROM
API .            17109238080000 : API NUMBER
UWI .            17109238080000 : UWI NUMBER
DIGC.                     NthDS : DIGITIZING COMPANY
~Params ----------------------------------------------------
SRVC.              SCHLUMBERGER : LOGGING COMPANY
LOG .              IND/GR/LD/CN : LOG
DATE.                2002-02-20 : RUN DATE
RUN .                         1 : RUN NUMBER
TDD .F                    11515 : TOTAL DEPTH DRILLER
TDL .F                    11522 : TOTAL DEPTH LOGGER
BOTL.F                    11514 : BOTTOM LOGGED INTERVAL
TOPL.F                     3057 : TOP LOGGED INTERVAL
CSGS.IN                  10.750 : CASING SIZE
CSGD.F                     3050 : CASING DRILLER
CSGL.F                     3057 : CASING LOGGER
BS  .IN                   9.875 : BIT SIZE
MUD .  TANNATHIN/ SPERESENE WBM : MUD TYPE
MUDD.                      10.3 : MUD DENSITY
MUDV.                        43 : MUD VISCOSITY
PH  .                      11.8 : MUD PH
FL  .                       5.8 : FLUID LOSS
MUDS.          CIRCULATION TANK : SOURCE OF SAMPLE
RM  .OHMM                 1.490 : MUD RESISTIVITY
RMT .DEGF                    70 : RM TEMPERATURE
RMF .OHMM                 0.870 : MUD FILTRATE RESISTIVITY
RMFT.DEGF                    70 : RMF TEMPERATURE
RMC .OHMM                 1.781 : MUD CAKE RESISTIVITY
RMCT.DEGF                    70 : RMC TEMPERATURE
RMFS.                   PRESSED : RMF SOURCE
RMCS.                   PRESSED : RMC SOURCE
RMBH.OHMM                 0.600 : MUD RESISTIVITY AT BHT
BHT .DEGF                   184 : BOTTOM HOLE TEMPERATURE
TIMC.           2345 2002-02-19 : TIME CIRCULATION STOPPED
TIML.           0800 2002-02-20 : TIME LOGGER ON BOTTOM
TMAX.DEGF                   184 : MAXIMUM RECORDED TEMPERATURE
UNIT.                      2015 : EQUIPMENT NUMBER
BASE.              HOUMA INLAND : BASE LOCATION
ENG .      JAMES S. MACLEAN III : RECORDED BY
WIT .             STEVE LUBANKO : WITNESSED BY
~Curve Information -----------------------------------------
DEPT.F          :DEPTH
AHT10.OHMM      :
AHT20.OHMM      :
AHT30.OHMM      :
AHT60.OHMM      :
DCAL.IN         :
GR.GAPI         :
HTEN.LBF        :
NPOR.V/V        :
SP.MV           :
TENS.LBF        :
~ASCII ------------------------------------------------------
# ...
5876.50000        0.77035        0.61999        0.63928        0.61761        1.46573       89.78441      709.93322        -999.25       -1.11780     2341.23686
5877.00000        0.78945        0.65911        0.67956        0.65832        1.40159       89.22153      709.83624        -999.25       -1.11780     2337.88093
5877.50000        0.80895        0.70070        0.70800        0.70173        1.33745       91.19758      709.73927        -999.25       -1.51700     2334.12975
5878.00000        0.82901        0.70878        0.71256        0.73077        1.27330       94.64070      709.64229        -999.25       -2.71461     2330.37857
5878.50000        0.81021        0.70631        0.70282        0.73500        1.18207       97.00596      709.34769        -999.25       -3.91221     2326.62739
5879.00000        0.79184        0.70379        0.66947        0.71093        1.04900       97.75447      709.25071        -999.25       -5.50902     2322.87622
5879.50000        0.76781        0.68847        0.62680        0.65609        0.99601       98.50297      709.15373        -999.25       -7.90423     2318.45385
5880.00000        0.72151        0.63246        0.58689        0.60549        0.99601       98.50297      708.85913        -999.25      -10.69864     2314.70267
5880.50000        0.66953        0.57580        0.54232        0.54989        0.94621       98.50297      708.16929        -999.25      -18.18367     2311.34674
5881.00000        0.63147        0.55333        0.50367        0.50169        0.82191       95.93710      707.47944        -999.25      -25.86830     2307.59556
5881.50000        0.59705        0.53178        0.45295        0.44989        0.69721       92.12872      706.65162        -999.25      -33.85233     2303.84438
5882.00000        0.53115        0.48695        0.40730        0.40347        0.49123       90.20656      705.96177        -999.25      -43.16570     2300.09321
5882.50000        0.46537        0.41473        0.36625        0.35926       -0.03984       88.22453      705.27193        -999.25      -51.30142     2296.34203
5883.00000        0.40775        0.35322        0.32735        0.31087        0.00996       85.48800      704.58208        -999.25      -54.72657     2292.98610
5883.50000        0.35367        0.30517        0.28999        0.26900        0.05976       82.25746      703.89223        -999.25      -56.65072     2289.23492
5884.00000        0.31640        0.27916        0.25689        0.24408        0.08964       79.02693      703.20238        -999.25      -58.20362     2285.48374
5884.50000        0.28305        0.25539        0.23688        0.22860        0.10637       75.79639      702.51254        -999.25      -56.97408     2281.73256
5885.00000        0.26192        0.23363        0.22440        0.21411        0.13466       74.99998      701.82269        -999.25      -55.74853     2277.98138
5885.50000        0.27529        0.22533        0.22225        0.21083        0.21155       74.28441      701.13284        -999.25      -55.34134     2274.62545
5886.00000        0.31351        0.25155        0.23808        0.22225        0.28805       71.45807      700.44299        -999.25      -56.17567     2270.87427
5886.50000        0.32395        0.26930        0.24983        0.23429        0.21235       70.18861      699.75314        -999.25      -57.00601     2267.12309
5887.00000        0.33277        0.27464        0.25287        0.23591        0.03546       71.25747      699.06330        -999.25      -57.80442     2263.37192
5887.50000        0.33738        0.27572        0.25387        0.23003        0.13944       70.44010      698.37345        -999.25      -59.80042     2259.62074
5888.00000        0.31576        0.26096        0.24773        0.21598        0.28605       69.46106      697.68360        -999.25      -62.36729     2255.19837
5888.50000        0.29726        0.24698        0.23305        0.20558        0.32231       64.97004      696.99375        -999.25      -64.29144     2251.44719
5889.00000        0.28866        0.23902        0.22602        0.20053        0.35856       63.67364      696.30391        -999.25      -64.79044     2248.09126
5889.50000        0.29672        0.23984        0.22373        0.20184        0.43346       63.74250      695.47609        -999.25      -64.19164     2245.13058
5890.00000        0.28516        0.23887        0.21628        0.19329        0.51514       64.19160      694.78624        -999.25      -62.59483     2244.54138
5890.50000        0.25387        0.21831        0.20620        0.18349        0.62669       64.84130      694.09639        -999.25      -61.39723     2244.34742
5891.00000        0.24125        0.20417        0.19817        0.17572        0.71992       65.61974      693.40655        -999.25      -61.39723     2244.15347
5891.50000        0.23215        0.20184        0.18247        0.17270        0.80478       66.40118      692.71670        -999.25      -61.39723     2243.95952
5892.00000        0.22950        0.19817        0.17915        0.17051        0.78526       67.18262      691.03873        -999.25      -62.19563     2243.76556
5892.50000        0.22057        0.19028        0.17589        0.16835        0.70000       68.26346      689.55839        -999.25      -64.59084     2243.17636
5893.00000        0.21444        0.18658        0.17270        0.16622        0.61474       66.97903      687.88043        -999.25      -66.18765     2242.98241
5893.50000        0.20862        0.18296        0.16956        0.16440        0.52948       64.97004      686.40008        -999.25      -67.38525     2242.78845
5894.00000        0.20524        0.17933        0.16773        0.16298        0.47809       60.29040      684.72212        -999.25      -69.38126     2242.59450
5894.50000        0.20249        0.17572        0.16594        0.16158        0.47809       56.81136      683.24178        -999.25      -70.97807     2242.40055
5895.00000        0.19978        0.17509        0.16415        0.16018        0.34701       55.12873      681.56381        -999.25      -72.97407     2241.81134
5895.50000        0.20000        0.17643        0.16495        0.15974        0.18287       53.44310      680.08347        -999.25      -74.17168     2241.61739
5896.00000        0.20464        0.17915        0.16647        0.16345        0.01872       51.92514      678.40550        -999.25      -73.37327     2241.42344
5896.50000        0.20205        0.17559        0.16571        0.16366       -0.08327       51.06885      676.92516        -999.25      -72.57487     2240.95354
5897.00000        0.19770        0.17210        0.16446        0.16153       -0.09283       52.39520      675.24719        -999.25      -71.37727     2240.75959
5897.50000        0.19345        0.16869        0.16357        0.15944       -0.10199       54.32035      673.76685        -999.25      -70.97807     2240.56564
5898.00000        0.18929        0.16904        0.16414        0.16196       -0.11116       56.88621      671.95092        -999.25      -70.97807     2240.37168
5898.50000        0.19088        0.17034        0.16473        0.16571       -0.12032       54.74849      670.27295        -999.25      -71.37727     2240.17773
5899.00000        0.19248        0.17238        0.16724        0.16647       -0.12988       53.66765      668.79261        -999.25      -72.17567     2239.58853
5899.50000        0.20000        0.17841        0.17643        0.17517       -0.13905       53.81735      667.11464        -999.25      -72.97407     2239.39457
5900.00000        0.21229        0.18913        0.18756        0.18569       -0.14821       56.28741      752.23694        -999.25      -71.77647     2416.70538
5900.50000        0.23587        0.19947        0.20370        0.19727       -0.13931       59.27688      750.56558        -999.25      -67.96815     2416.51219
5901.00000        0.22393        0.19818        0.19595        0.18757       -0.13055       58.35955      749.09107        -999.25      -64.68130     2416.31900
