~Version ---------------------------------------------------
VERS. 2.0 : CWLS LOG ASCII STANDARD - VERSION 2.0
WRAP. NO  : One line per depth step
DLM . SPACE : Column Data Section Delimiter
~Well ------------------------------------------------------
STRT.F       2826.5 : START DEPTH
STOP.F        11520 : STOP DEPTH
STEP.F          0.5 : STEP
NULL.       -999.25 : NULL VALUE
COMP.                       CASTEX ENERGY : COMPANY
WELL.          226761-LATERRECOINC-002-30 : WELL
FLD .                     FOUR LEAGUE BAY : FIELD
CNTY.                          TERREBONNE : COUNTY
STAT.                           LOUISIANA : STATE
CTRY.                                 USA : COUNTRY
SEC .                                     : SECTION
TWP .                                     : TOWNSHIP
RGE .                                     : RANGE
LOC .      812 FEL & 1373.6 FSL OF SEC 30 : LOCATION
EKB .F                       30 : ELEVATION KELLY BUSHING
EDF .F                       30 : ELEVATION DERRICK FLOOR
EGL .F                        8 : ELEVATION GROUND LEVEL
PDAT.                       MSL : PERMANENT DATUM
EPD .                           : ELEVATION PERMANENT DATUM
APD .                        30 : ABOVE PERMANENT DATUM
LMF .                        DF : LOG MEASURED FROM
DMF .                        DF : DRILLING MEASURED FROM
API .            17109238080000 : API NUMBER
UWI .            17109238080000 : UWI NUMBER
DIGC.                     NthDS : DIGITIZING COMPANY
~Params ----------------------------------------------------
SRVC.              SCHLUMBERGER : LOGGING COMPANY
LOG .              IND/GR/LD/CN : LOG
DATE.                2002-02-20 : RUN DATE
RUN .                         1 : RUN NUMBER
TDD .F                    11515 : TOTAL DEPTH DRILLER
TDL .F                    11522 : TOTAL DEPTH LOGGER
BOTL.F                    11514 : BOTTOM LOGGED INTERVAL
TOPL.F                     3057 : TOP LOGGED INTERVAL
CSGS.IN                  10.750 : CASING SIZE
CSGD.F                     3050 : CASING DRILLER
CSGL.F                     3057 : CASING LOGGER
BS  .IN                   9.875 : BIT SIZE
MUD .  TANNATHIN/ SPERESENE WBM : MUD TYPE
MUDD.                      10.3 : MUD DENSITY
MUDV.                        43 : MUD VISCOSITY
PH  .                      11.8 : MUD PH
FL  .                       5.8 : FLUID LOSS
MUDS.          CIRCULATION TANK : SOURCE OF SAMPLE
RM  .OHMM                 1.490 : MUD RESISTIVITY
RMT .DEGF                    70 : RM TEMPERATURE
RMF .OHMM                 0.870 : MUD FILTRATE RESISTIVITY
RMFT.DEGF                    70 : RMF TEMPERATURE
RMC .OHMM                 1.781 : MUD CAKE RESISTIVITY
RMCT.DEGF                    70 : RMC TEMPERATURE
RMFS.                   PRESSED : RMF SOURCE
RMCS.                   PRESSED : RMC SOURCE
RMBH.OHMM                 0.600 : MUD RESISTIVITY AT BHT
BHT .DEGF                   184 : BOTTOM HOLE TEMPERATURE
TIMC.           2345 2002-02-19 : TIME CIRCULATION STOPPED
TIML.           0800 2002-02-20 : TIME LOGGER ON BOTTOM
TMAX.DEGF                   184 : MAXIMUM RECORDED TEMPERATURE
UNIT.                      2015 : EQUIPMENT NUMBER
BASE.              HOUMA INLAND : BASE LOCATION
ENG .      JAMES S. MACLEAN III : RECORDED BY
WIT .             STEVE LUBANKO : WITNESSED BY
~Curve Information -----------------------------------------
DEPT.F          :DEPTH
AHT10.OHMM      :
AHT20.OHMM      :
AHT30.OHMM      :
AHT60.OHMM      :
DCAL.IN         :
GR.GAPI         :
HTEN.LBF        :
NPOR.V/V        :
SP.MV           :
TENS.LBF        :
~ASCII ------------------------------------------------------
# ...
4176.50000        0.68666        0.57198        0.59057        0.57496        0.61905       85.54453      758.38489        -999.25       -6.33667     2280.08368
4177.00000        0.68247        0.59872        0.60421        0.59327        0.67063       87.21384      757.59593        -999.25       -5.54459     2280.87263
4177.50000        0.63570        0.60976        0.57987        0.56481        0.66151       88.21780      756.80698        -999.25       -3.96043     2281.66159
4178.00000        0.58557        0.57723        0.55357        0.53767        0.65198       88.96037      755.82078        -999.25       -2.77232     2282.45054
4178.50000        0.54894        0.55271        0.53900        0.51998        0.64246       92.67324      755.03183        -999.25       -1.98024     2283.63397
4179.00000        0.53478        0.53816        0.52481        0.51493        0.63492       96.91186      754.24287        -999.25       -1.58420     2284.42293
4179.50000        0.52375        0.53045        0.52203        0.50992        0.63492      101.50394      753.45392        -999.25       -1.58420     2285.21188
4180.00000        0.52361        0.54894        0.54345        0.51436        0.63492      104.65245      752.46773        -999.25       -1.58420     2286.00084
4180.50000        0.53983        0.56807        0.57146        0.54768        0.63492      101.88116      751.48153        -999.25       -1.58420     2286.78979
4181.00000        0.55075        0.57460        0.57723        0.56471        0.69166       98.16829      750.69258        -999.25       -1.58420     2287.97322
4181.50000        0.55145        0.57308        0.57496        0.55145        0.74841       94.45542      749.90362        -999.25       -1.58420     2288.76218
4182.00000        0.52682        0.55291        0.56075        0.52682        0.74960       93.49899      750.10086        -999.25       -1.98024     2289.55113
4182.50000        0.50639        0.53341        0.50792        0.50330        0.52897       96.13958      750.88982        -999.25       -1.58420     2290.34009
4183.00000        0.51946        0.52203        0.52856        0.51300        0.41270       96.98017      751.67877        -999.25       -1.58420     2291.12904
4183.50000        0.55337        0.52875        0.56116        0.55281        0.46031       95.12374      752.66497        -999.25       -1.58420     2291.91800
4184.00000        0.57371        0.56678        0.56678        0.56368        0.50000       90.16928      753.45392        -999.25       -1.58420     2292.70695
4184.50000        0.55651        0.53205        0.55312        0.53831        0.44444       87.02968      754.24287        -999.25       -1.18816     2293.49591
4185.00000        0.51375        0.49940        0.51258        0.50164        0.32539       88.12572      755.22907        -999.25       -0.79212     2294.28486
4185.50000        0.49872        0.48701        0.49872        0.48563        0.29524       90.63859      756.01802        -999.25       -0.79212     2295.46829
4186.00000        0.52203        0.50284        0.51258        0.49790        0.32500       93.15443      756.80698        -999.25       -0.79212     2296.25725
4186.50000        0.54394        0.51258        0.51258        0.50639        0.35436       92.57522      757.79317        -999.25       -1.18816     2297.04620
4187.00000        0.54768        0.51258        0.51258        0.49872        0.38373       89.93463      758.58212        -999.25       -1.58420     2297.83515
4187.50000        0.54146        0.51790        0.51323        0.49749        0.41309       89.80097      759.37108        -999.25       -2.77232     2298.62411
4188.00000        0.55819        0.52682        0.51662        0.50583        0.43809       90.29701      760.35727        -999.25       -4.75251     2299.41306
4188.50000        0.55855        0.52385        0.52361        0.51323        0.44682       87.85839      761.14623        -999.25       -6.33667     2300.20202
4189.00000        0.55473        0.52084        0.52682        0.51662        0.45555       85.41681      761.93518        -999.25       -5.54459     2300.99097
4189.50000        0.55095        0.51790        0.52682        0.51624        0.46428       83.46533      762.92137        -999.25       -3.96043     2301.77993
4190.00000        0.54718        0.52682        0.52682        0.51493        0.47262       83.46533      763.71033        -999.25       -3.56439     2302.96336
4190.50000        0.54894        0.53585        0.52615        0.51361        0.49206       92.07919      764.69652        -999.25       -2.37628     2303.75231
4191.00000        0.55145        0.54146        0.52442        0.51216        0.51865       92.82176      765.68271        -999.25       -1.58420     2304.54127
4191.50000        0.53900        0.54146        0.52270        0.51001        0.54484       93.56433      766.47167        -999.25       -0.39608     2305.33022
4192.00000        0.50908        0.54743        0.52442        0.50792        0.52579       95.17126      767.26062        -999.25       -0.00004     2306.11918
4192.50000        0.52361        0.57828        0.53654        0.55291        0.42500       97.35443      768.24682        -999.25       -0.00004     2306.90813
4193.00000        0.55937        0.61350        0.61221        0.64241        0.31190       99.54057      769.03577        -999.25       -0.00004     2308.09156
4193.50000        0.64019        0.66202        0.69863        0.74736        0.19841      100.99007      769.82472        -999.25        0.79204     2308.88052
4194.00000        0.78394        0.71712        0.79716        0.83610        0.33492       99.10988      770.81092        -999.25       -0.00004     2309.66947
4194.50000        0.91426        0.78122        0.89092        0.91987        0.47143       97.12869      771.59987        -999.25       -0.39608     2310.45843
4195.00000        0.91987        0.80942        0.91987        0.91518        0.60754       95.14750      772.58607        -999.25       -0.39608     2311.24738
4195.50000        0.91317        0.82435        0.91192        0.90322        0.70555       94.45542      773.37502        -999.25       -0.79212     2312.03633
4196.00000        0.88096        0.81969        0.87335        0.86288        0.79365       95.80691      774.16397        -999.25       -0.79212     2312.82529
4196.50000        0.83955        0.79658        0.83633        0.81752        0.72738       97.15542      775.15017        -999.25       -1.18816     2313.61424
4197.00000        0.81171        0.77802        0.80088        0.77454        0.68849       96.76631      775.93912        -999.25       -1.98024     2314.40320
4197.50000        0.82344        0.76233        0.76274        0.74777        0.75754       93.46631      776.72808        -999.25       -4.35647     2315.58663
4198.00000        0.83526        0.76323        0.75065        0.72536        0.82658       90.14849      777.71427        -999.25       -5.94063     2314.40320
4198.50000        0.84725        0.76156        0.73356        0.71549        0.89563       86.80691      778.50322        -999.25       -6.73271     2312.43081
4199.00000        0.83267        0.74606        0.71073        0.70575        0.96428       85.32176      779.29218        -999.25       -5.54459     2310.85290
4199.50000        0.81827        0.71522        0.68754        0.68005        1.01389       84.29998      780.27837        -999.25       -5.54459     2309.27499
4200.00000        0.80418        0.68572        0.66117        0.65528        1.04960       83.28117      781.06733        -999.25       -6.81984     2307.69709
4200.50000        0.76932        0.64637        0.61578        0.61179        1.02686       84.07155      744.07340        -999.25       -9.65809     2227.27753
4201.00000        0.78398        0.63568        0.59793        0.59596        1.04676       85.90853      745.06154        -999.25      -10.49705     2225.69651
