~Version ---------------------------------------------------
VERS. 2.0 : CWLS LOG ASCII STANDARD - VERSION 2.0
WRAP. NO  : One line per depth step
DLM . SPACE : Column Data Section Delimiter
~Well ------------------------------------------------------
STRT.F       2826.5 : START DEPTH
STOP.F        11520 : STOP DEPTH
STEP.F          0.5 : STEP
NULL.       -999.25 : NULL VALUE
COMP.                       CASTEX ENERGY : COMPANY
WELL.          226761-LATERRECOINC-002-30 : WELL
FLD .                     FOUR LEAGUE BAY : FIELD
CNTY.                          TERREBONNE : COUNTY
STAT.                           LOUISIANA : STATE
CTRY.                                 USA : COUNTRY
SEC .                                     : SECTION
TWP .                                     : TOWNSHIP
RGE .                                     : RANGE
LOC .      812 FEL & 1373.6 FSL OF SEC 30 : LOCATION
EKB .F                       30 : ELEVATION KELLY BUSHING
EDF .F                       30 : ELEVATION DERRICK FLOOR
EGL .F                        8 : ELEVATION GROUND LEVEL
PDAT.                       MSL : PERMANENT DATUM
EPD .                           : ELEVATION PERMANENT DATUM
APD .                        30 : ABOVE PERMANENT DATUM
LMF .                        DF : LOG MEASURED FROM
DMF .                        DF : DRILLING MEASURED FROM
API .            17109238080000 : API NUMBER
UWI .            17109238080000 : UWI NUMBER
DIGC.                     NthDS : DIGITIZING COMPANY
~Params ----------------------------------------------------
SRVC.              SCHLUMBERGER : LOGGING COMPANY
LOG .              IND/GR/LD/CN : LOG
DATE.                2002-02-20 : RUN DATE
RUN .                         1 : RUN NUMBER
TDD .F                    11515 : TOTAL DEPTH DRILLER
TDL .F                    11522 : TOTAL DEPTH LOGGER
BOTL.F                    11514 : BOTTOM LOGGED INTERVAL
TOPL.F                     3057 : TOP LOGGED INTERVAL
CSGS.IN                  10.750 : CASING SIZE
CSGD.F                     3050 : CASING DRILLER
CSGL.F                     3057 : CASING LOGGER
BS  .IN                   9.875 : BIT SIZE
MUD .  TANNATHIN/ SPERESENE WBM : MUD TYPE
MUDD.                      10.3 : MUD DENSITY
MUDV.                        43 : MUD VISCOSITY
PH  .                      11.8 : MUD PH
FL  .                       5.8 : FLUID LOSS
MUDS.          CIRCULATION TANK : SOURCE OF SAMPLE
RM  .OHMM                 1.490 : MUD RESISTIVITY
RMT .DEGF                    70 : RM TEMPERATURE
RMF .OHMM                 0.870 : MUD FILTRATE RESISTIVITY
RMFT.DEGF                    70 : RMF TEMPERATURE
RMC .OHMM                 1.781 : MUD CAKE RESISTIVITY
RMCT.DEGF                    70 : RMC TEMPERATURE
RMFS.                   PRESSED : RMF SOURCE
RMCS.                   PRESSED : RMC SOURCE
RMBH.OHMM                 0.600 : MUD RESISTIVITY AT BHT
BHT .DEGF                   184 : BOTTOM HOLE TEMPERATURE
TIMC.           2345 2002-02-19 : TIME CIRCULATION STOPPED
TIML.           0800 2002-02-20 : TIME LOGGER ON BOTTOM
TMAX.DEGF                   184 : MAXIMUM RECORDED TEMPERATURE
UNIT.                      2015 : EQUIPMENT NUMBER
BASE.              HOUMA INLAND : BASE LOCATION
ENG .      JAMES S. MACLEAN III : RECORDED BY
WIT .             STEVE LUBANKO : WITNESSED BY
~Curve Information -----------------------------------------
DEPT.F          :DEPTH
AHT10.OHMM      :
AHT20.OHMM      :
AHT30.OHMM      :
AHT60.OHMM      :
DCAL.IN         :
GR.GAPI         :
HTEN.LBF        :
NPOR.V/V        :
SP.MV           :
TENS.LBF        :
~ASCII ------------------------------------------------------
# ...
10926.50000        0.81612        0.45139        0.42827        0.40340       -0.24668       86.33296      791.87085        0.34708      -33.22018     4346.09917
10927.00000        1.00031        0.52733        0.46310        0.44402       -0.16167       86.82380      789.39750        0.34585      -41.52181     4320.16289
10927.50000        0.85627        0.51896        0.45834        0.42729       -0.07667       85.50390      787.12217        0.31967      -50.90311     4293.83058
10928.00000        0.70122        0.46196        0.41153        0.38287       -0.20258       84.18101      784.84683        0.31250      -60.28441     4267.89431
10928.50000        0.56194        0.38937        0.35818        0.33379       -0.38133       82.86111      782.37349        0.31840      -70.67765     4258.98731
10929.00000        0.45032        0.32822        0.31177        0.29100       -0.42582       75.39785      780.09815        0.32074      -80.33385     4261.56518
10929.50000        0.36087        0.27665        0.27136        0.25369       -0.43694       67.93459      777.82282        0.32307      -87.04984     4263.74702
10930.00000        0.30303        0.24266        0.23618        0.22117       -0.44807       60.47133      775.34947        0.31708      -91.64235     4266.32489
10930.50000        0.27275        0.22076        0.20369        0.18713       -0.46117       59.52194      773.07414        0.33248      -93.34245     4268.90277
10931.00000        0.27171        0.21479        0.20369        0.18480       -0.47230       60.12633      770.79881        0.34077      -94.05851     4271.08461
10931.50000        0.27066        0.21311        0.20999        0.18252       -0.48342       60.41697      768.32546        0.34428      -94.48372     4273.66248
10932.00000        0.27672        0.21774        0.20898        0.18642       -0.49414       60.23849      766.05012        0.34068      -94.47468     4276.24035
10932.50000        0.28476        0.22249        0.20332        0.19040       -0.50169       60.37674      763.77479        0.34064      -93.66884     4278.42219
10933.00000        0.29300        0.22732        0.20000        0.19637       -0.50844       62.73210      761.30144        0.33465      -92.33312     4281.00006
10933.50000        0.30741        0.23311        0.20982        0.20556       -0.51520       63.05860      759.02611        0.31204      -88.23249     4283.57793
10934.00000        0.32675        0.24353        0.22012        0.21552       -0.52155       63.00263      756.75078        0.30606      -80.71756     4286.15580
10934.50000        0.35443        0.25807        0.23090        0.22732       -0.52830       64.92772      753.94117        0.31196      -72.51737     4288.33765
10935.00000        0.38639        0.27345        0.24224        0.23977       -0.53506       67.71037      751.46782        0.31548      -72.10993     4290.91552
10935.50000        0.40570        0.28572        0.24757        0.24570       -0.53625       70.70516      749.19249        0.31544      -74.67058     4293.49339
10936.00000        0.40325        0.28276        0.24909        0.24909       -0.53625       69.76474      746.91716        0.30827      -78.28700     4295.67523
10936.50000        0.39112        0.28054        0.25170        0.25129       -0.53625       68.02951      744.44381        0.31654      -81.51299     4298.76867
10937.00000        0.37939        0.28572        0.25838        0.25687       -0.53625       66.29427      742.16848        0.31888      -79.64341     4301.34654
10937.50000        0.39533        0.29456        0.26522        0.26257       -0.53466       65.55405      739.89314        0.31527      -76.64635     4303.92442
10938.00000        0.41519        0.30239        0.26948        0.26840       -0.52632       65.79525      738.80590        0.30632      -73.04989     4306.10626
10938.50000        0.43177        0.30498        0.27195        0.27435       -0.51798       66.34585      738.11469        0.30093      -71.84564     4309.08016
10939.00000        0.43918        0.30671        0.27672        0.27799       -0.50963       67.24306      737.42347        0.31633      -70.84060     4312.45009
10939.50000        0.43918        0.32095        0.28369        0.27799       -0.50129       68.37034      736.73226        0.32461      -67.77581     4316.21605
10940.00000        0.46395        0.33840        0.29100        0.28703       -0.49335       69.29743      736.04104        0.31586      -64.00585     4319.98201
10940.50000        0.41572        0.31634        0.27715        0.28054       -0.48342       69.41775      735.34983        0.30076      -64.79362     4323.74797
10941.00000        0.36243        0.28703        0.26075        0.25996       -0.47508       69.54107      734.65862        0.31023      -69.65305     4327.51393
10941.50000        0.34308        0.27295        0.26537        0.25138       -0.46674       69.89147      733.96740        0.31613      -70.49660     4330.88386
10942.00000        0.41954        0.33151        0.31753        0.30882       -0.45839       72.82650      733.27619        0.31014      -55.64708     4334.64982
10942.50000        0.55201        0.40263        0.37991        0.36243       -0.38451       78.51051      732.58498        0.31152      -39.38323     4339.99990
10943.00000        0.77431        0.44321        0.43918        0.41698       -0.29434       84.07500      731.89376        0.32164      -31.32646     4346.93410
10943.50000        0.81054        0.44321        0.43918        0.41119       -0.30070       89.16141      731.20255        0.32087      -36.15403     4354.26433
10944.00000        0.70424        0.43597        0.42729        0.37180       -0.37180       93.43209      730.51133        0.31575      -47.64287     4361.59456
10944.50000        0.55074        0.40152        0.37360        0.32807       -0.44250       91.66399      729.82012        0.31646      -61.37871     4368.92479
10945.00000        0.45973        0.36744        0.33042        0.28946       -0.46276       82.30931      729.12891        0.31910      -66.34970     4355.26544
10945.50000        0.40079        0.32774        0.29225        0.25542       -0.47071       72.95464      728.43769        0.32648      -71.83861     4336.45770
10946.00000        0.36316        0.29214        0.25849        0.22525       -0.47825       65.19855      727.74648        0.33238      -79.39921     4317.25393
10946.50000        0.31823        0.25973        0.23532        0.20369       -0.48580       63.84877      727.05527        0.32996      -85.69289     4298.44619
10947.00000        0.29502        0.25164        0.22365        0.20619       -0.49335       62.49600      726.22581        0.31923      -86.93085     4279.63844
10947.50000        0.28967        0.24909        0.22628        0.21258       -0.48580       63.00178      725.53460        0.31443      -87.12101     4260.83070
10948.00000        0.30882        0.25138        0.24384        0.23560       -0.46753       67.21569      724.84338        0.31320      -83.42675     4242.02296
10948.50000        0.36243        0.28502        0.28398        0.26911       -0.44965       73.57200      724.15217        0.32029      -70.80032     4261.23409
10949.00000        0.45375        0.32966        0.32705        0.30741       -0.43138       80.99042      723.46095        0.32381      -55.91712     4284.12902
10949.50000        0.57257        0.37470        0.37381        0.35667       -0.40517       87.17343      723.56180        0.31427      -43.95601     4303.34015
10950.00000        0.62455        0.42093        0.42729        0.40785       -0.34558       92.14246      754.52606        0.31771      -40.30502     4382.29796
10950.50000        0.69066        0.49494        0.49237        0.46667       -0.26892       93.54146      755.61698        0.32593      -35.96867     4401.50909
10951.00000        0.76523        0.57710        0.55413        0.53009       -0.19663       93.09915      756.70790        0.32589      -29.71616     4399.73063
