~Version ---------------------------------------------------
VERS. 2.0 : CWLS LOG ASCII STANDARD - VERSION 2.0
WRAP. NO  : One line per depth step
DLM . SPACE : Column Data Section Delimiter
~Well ------------------------------------------------------
STRT.F       2826.5 : START DEPTH
STOP.F        11520 : STOP DEPTH
STEP.F          0.5 : STEP
NULL.       -999.25 : NULL VALUE
COMP.                       CASTEX ENERGY : COMPANY
WELL.          226761-LATERRECOINC-002-30 : WELL
FLD .                     FOUR LEAGUE BAY : FIELD
CNTY.                          TERREBONNE : COUNTY
STAT.                           LOUISIANA : STATE
CTRY.                                 USA : COUNTRY
SEC .                                     : SECTION
TWP .                                     : TOWNSHIP
RGE .                                     : RANGE
LOC .      812 FEL & 1373.6 FSL OF SEC 30 : LOCATION
EKB .F                       30 : ELEVATION KELLY BUSHING
EDF .F                       30 : ELEVATION DERRICK FLOOR
EGL .F                        8 : ELEVATION GROUND LEVEL
PDAT.                       MSL : PERMANENT DATUM
EPD .                           : ELEVATION PERMANENT DATUM
APD .                        30 : ABOVE PERMANENT DATUM
LMF .                        DF : LOG MEASURED FROM
DMF .                        DF : DRILLING MEASURED FROM
API .            17109238080000 : API NUMBER
UWI .            17109238080000 : UWI NUMBER
DIGC.                     NthDS : DIGITIZING COMPANY
~Params ----------------------------------------------------
SRVC.              SCHLUMBERGER : LOGGING COMPANY
LOG .              IND/GR/LD/CN : LOG
DATE.                2002-02-20 : RUN DATE
RUN .                         1 : RUN NUMBER
TDD .F                    11515 : TOTAL DEPTH DRILLER
TDL .F                    11522 : TOTAL DEPTH LOGGER
BOTL.F                    11514 : BOTTOM LOGGED INTERVAL
TOPL.F                     3057 : TOP LOGGED INTERVAL
CSGS.IN                  10.750 : CASING SIZE
CSGD.F                     3050 : CASING DRILLER
CSGL.F                     3057 : CASING LOGGER
BS  .IN                   9.875 : BIT SIZE
MUD .  TANNATHIN/ SPERESENE WBM : MUD TYPE
MUDD.                      10.3 : MUD DENSITY
MUDV.                        43 : MUD VISCOSITY
PH  .                      11.8 : MUD PH
FL  .                       5.8 : FLUID LOSS
MUDS.          CIRCULATION TANK : SOURCE OF SAMPLE
RM  .OHMM                 1.490 : MUD RESISTIVITY
RMT .DEGF                    70 : RM TEMPERATURE
RMF .OHMM                 0.870 : MUD FILTRATE RESISTIVITY
RMFT.DEGF                    70 : RMF TEMPERATURE
RMC .OHMM                 1.781 : MUD CAKE RESISTIVITY
RMCT.DEGF                    70 : RMC TEMPERATURE
RMFS.                   PRESSED : RMF SOURCE
RMCS.                   PRESSED : RMC SOURCE
RMBH.OHMM                 0.600 : MUD RESISTIVITY AT BHT
BHT .DEGF                   184 : BOTTOM HOLE TEMPERATURE
TIMC.           2345 2002-02-19 : TIME CIRCULATION STOPPED
TIML.           0800 2002-02-20 : TIME LOGGER ON BOTTOM
TMAX.DEGF                   184 : MAXIMUM RECORDED TEMPERATURE
UNIT.                      2015 : EQUIPMENT NUMBER
BASE.              HOUMA INLAND : BASE LOCATION
ENG .      JAMES S. MACLEAN III : RECORDED BY
WIT .             STEVE LUBANKO : WITNESSED BY
~Curve Information -----------------------------------------
DEPT.F          :DEPTH
AHT10.OHMM      :
AHT20.OHMM      :
AHT30.OHMM      :
AHT60.OHMM      :
DCAL.IN         :
GR.GAPI         :
HTEN.LBF        :
NPOR.V/V        :
SP.MV           :
TENS.LBF        :
~ASCII ------------------------------------------------------
# ...
9801.50000        0.23291        0.20726        0.20000        0.20154        0.01032       43.01818      730.27475        0.32779      -81.00197     3700.54359
9802.00000        0.22758        0.21063        0.19282        0.19348        0.01825       41.85233      729.58354        0.33606      -81.70327     3701.53735
9802.50000        0.22909        0.21150        0.18590        0.18572        0.02619       40.44973      728.89232        0.32740      -82.40061     3702.13507
9803.00000        0.23058        0.20868        0.18876        0.18421        0.03412       40.43863      728.20111        0.33553      -82.95906     3703.12882
9803.50000        0.23096        0.20590        0.19088        0.18421        0.04166       40.71621      727.50990        0.33394      -82.95006     3703.72654
9804.00000        0.22965        0.20354        0.18990        0.18372        0.04960       40.30927      726.81868        0.32377      -83.00058     3704.32426
9804.50000        0.22771        0.20276        0.18780        0.18136        0.05754       39.44699      726.12747        0.32088      -83.14633     3705.31801
9805.00000        0.22564        0.20198        0.18403        0.17900        0.06508       38.72458      725.29801        0.32559      -83.28812     3706.03528
9805.50000        0.22359        0.20184        0.18254        0.17807        0.07301       38.54384      724.60680        0.32531      -83.43388     3707.02903
9806.00000        0.22481        0.20184        0.18289        0.17923        0.09206       37.78274      723.91558        0.31285      -83.57567     3707.62675
9806.50000        0.22688        0.20254        0.18470        0.18073        0.15436       36.63177      723.22437        0.29846      -83.53889     3708.22448
9807.00000        0.22896        0.20369        0.18651        0.18224        0.21706       37.03435      722.53316        0.29168      -82.61142     3709.21823
9807.50000        0.23148        0.20184        0.18658        0.18174        0.29246       37.82383      721.84194        0.29659      -81.83656     3709.81595
9808.00000        0.23011        0.19842        0.18489        0.18096        0.38889       38.61332      721.15073        0.30248      -80.26408     3710.41367
9808.50000        0.22875        0.19504        0.18421        0.18017        0.43651       39.40280      720.45952        0.29868      -78.49319     3711.40742
9809.00000        0.22738        0.19173        0.18421        0.17939        0.48412       40.68767      719.76830        0.30734      -76.72230     3712.00515
9809.50000        0.22603        0.19107        0.18408        0.17953        0.60317       41.75691      719.07709        0.32687      -75.10220     3712.99890
9810.00000        0.22591        0.19107        0.18372        0.17990        0.72222       41.97200      718.38587        0.34013      -74.92256     3713.59662
9810.50000        0.22765        0.19358        0.18337        0.18028        0.79762       38.33891      717.69466        0.34009      -75.96910     3717.36258
9811.00000        0.22938        0.20000        0.18302        0.18064        0.80754       36.55997      716.86520        0.33173      -77.01961     3722.31663
9811.50000        0.23113        0.20000        0.18267        0.18180        0.81746       37.92980      716.17399        0.33645      -77.32013     3727.78625
9812.00000        0.23431        0.20000        0.18393        0.18411        0.82738       40.77581      715.48278        0.34234      -75.68813     3732.74030
9812.50000        0.23792        0.20000        0.18628        0.18646        0.87857       43.62479      714.79156        0.34230      -74.05612     3737.29832
9813.00000        0.24010        0.20055        0.18866        0.18885        0.99206       42.73870      714.10035        0.34583      -74.72388     3742.25237
9813.50000        0.24231        0.20332        0.19107        0.18704        1.10555       41.85260      713.40914        0.35529      -75.90534     3746.81040
9814.00000        0.24067        0.20501        0.18933        0.18421        1.10635       42.13019      712.71792        0.35881      -77.31696     3751.76445
9814.50000        0.23872        0.20184        0.18421        0.18088        1.01706       42.40777      712.02671        0.34689      -78.72461     3756.32247
9815.00000        0.23711        0.19922        0.18005        0.17864        0.94246       41.13017      711.33549        0.33021      -79.39417     3761.27652
9815.50000        0.23552        0.19573        0.17995        0.17642        0.92341       38.90481      710.64428        0.32541      -78.96057     3765.83454
9816.00000        0.23393        0.19170        0.18088        0.17695        0.94166       36.67944      709.95307        0.33012      -78.52696     3770.78859
9816.50000        0.23614        0.19032        0.18127        0.17817        0.95952       36.19810      709.26185        0.33008      -78.58542     3775.34661
9817.00000        0.23933        0.19282        0.18167        0.17939        0.97778       38.32983      708.57064        0.32291      -78.97324     3779.90463
9817.50000        0.24257        0.19934        0.18205        0.18063        0.98412       37.96456      708.33523        0.31812      -79.36106     3785.77028
9818.00000        0.24527        0.20607        0.18245        0.18170        0.94444       37.59930      709.22813        0.31808      -79.43538     3790.72433
9818.50000        0.24716        0.20684        0.18354        0.18275        0.90674       37.06737      710.31905        0.31447      -79.30337     3795.28235
9819.00000        0.24904        0.20608        0.18480        0.18379        0.87619       36.42234      711.21196        0.30374      -79.17135     3799.84037
9819.50000        0.25133        0.20533        0.18607        0.18485        0.84563       35.77731      712.10487        0.30251      -79.28356     3804.79442
9820.00000        0.25133        0.20458        0.18735        0.18590        0.82341       35.09657      712.99777        0.30365      -79.60392     3804.60009
9820.50000        0.25133        0.20384        0.18761        0.18698        0.80674       34.35929      713.89068        0.30718      -79.92824     3803.21766
9821.00000        0.25519        0.20501        0.18761        0.18761        0.79047       33.62200      714.98160        0.30594      -80.24860     3801.83523
9821.50000        0.25556        0.20699        0.18761        0.18761        0.77063       32.88471      715.87450        0.30352      -80.23960     3800.45280
9822.00000        0.25363        0.20868        0.18761        0.18761        0.75397       32.37199      716.76741        0.30348      -80.23059     3799.07038
9822.50000        0.26068        0.20874        0.18761        0.18761        0.73174       33.49480      717.66031        0.30819      -79.62636     3797.68795
9823.00000        0.25746        0.20775        0.18761        0.18761        0.73174       35.28725      718.55322        0.32003      -78.62530     3796.30552
9823.50000        0.25426        0.20674        0.18864        0.18761        0.82024       37.52612      719.70391        0.32236      -77.62424     3794.92309
9824.00000        0.25831        0.20576        0.18994        0.18923        0.90833       38.25906      720.59682        0.32232      -77.73429     3793.26418
9824.50000        0.26428        0.20729        0.19124        0.19084        0.99643       37.98605      721.68774        0.32109      -78.51893     3791.88175
9825.00000        0.27038        0.20950        0.19256        0.19249        0.98611       37.71304      722.58065        0.30798      -79.30356     3790.49933
9825.50000        0.27038        0.21094        0.18997        0.19179        0.90952       37.62754      723.47355        0.30081      -79.92947     3789.51293
9826.00000        0.26327        0.20929        0.18646        0.18923        0.83333       37.82179      724.36646        0.30196      -80.39486     3789.31859
