~Version ---------------------------------------------------
VERS. 2.0 : CWLS LOG ASCII STANDARD - VERSION 2.0
WRAP. NO  : One line per depth step
DLM . SPACE : Column Data Section Delimiter
~Well ------------------------------------------------------
STRT.F       2826.5 : START DEPTH
STOP.F        11520 : STOP DEPTH
STEP.F          0.5 : STEP
NULL.       -999.25 : NULL VALUE
COMP.                       CASTEX ENERGY : COMPANY
WELL.          226761-LATERRECOINC-002-30 : WELL
FLD .                     FOUR LEAGUE BAY : FIELD
CNTY.                          TERREBONNE : COUNTY
STAT.                           LOUISIANA : STATE
CTRY.                                 USA : COUNTRY
SEC .                                     : SECTION
TWP .                                     : TOWNSHIP
RGE .                                     : RANGE
LOC .      812 FEL & 1373.6 FSL OF SEC 30 : LOCATION
EKB .F                       30 : ELEVATION KELLY BUSHING
EDF .F                       30 : ELEVATION DERRICK FLOOR
EGL .F                        8 : ELEVATION GROUND LEVEL
PDAT.                       MSL : PERMANENT DATUM
EPD .                           : ELEVATION PERMANENT DATUM
APD .                        30 : ABOVE PERMANENT DATUM
LMF .                        DF : LOG MEASURED FROM
DMF .                        DF : DRILLING MEASURED FROM
API .            17109238080000 : API NUMBER
UWI .            17109238080000 : UWI NUMBER
DIGC.                     NthDS : DIGITIZING COMPANY
~Params ----------------------------------------------------
SRVC.              SCHLUMBERGER : LOGGING COMPANY
LOG .              IND/GR/LD/CN : LOG
DATE.                2002-02-20 : RUN DATE
RUN .                         1 : RUN NUMBER
TDD .F                    11515 : TOTAL DEPTH DRILLER
TDL .F                    11522 : TOTAL DEPTH LOGGER
BOTL.F                    11514 : BOTTOM LOGGED INTERVAL
TOPL.F                     3057 : TOP LOGGED INTERVAL
CSGS.IN                  10.750 : CASING SIZE
CSGD.F                     3050 : CASING DRILLER
CSGL.F                     3057 : CASING LOGGER
BS  .IN                   9.875 : BIT SIZE
MUD .  TANNATHIN/ SPERESENE WBM : MUD TYPE
MUDD.                      10.3 : MUD DENSITY
MUDV.                        43 : MUD VISCOSITY
PH  .                      11.8 : MUD PH
FL  .                       5.8 : FLUID LOSS
MUDS.          CIRCULATION TANK : SOURCE OF SAMPLE
RM  .OHMM                 1.490 : MUD RESISTIVITY
RMT .DEGF                    70 : RM TEMPERATURE
RMF .OHMM                 0.870 : MUD FILTRATE RESISTIVITY
RMFT.DEGF                    70 : RMF TEMPERATURE
RMC .OHMM                 1.781 : MUD CAKE RESISTIVITY
RMCT.DEGF                    70 : RMC TEMPERATURE
RMFS.                   PRESSED : RMF SOURCE
RMCS.                   PRESSED : RMC SOURCE
RMBH.OHMM                 0.600 : MUD RESISTIVITY AT BHT
BHT .DEGF                   184 : BOTTOM HOLE TEMPERATURE
TIMC.           2345 2002-02-19 : TIME CIRCULATION STOPPED
TIML.           0800 2002-02-20 : TIME LOGGER ON BOTTOM
TMAX.DEGF                   184 : MAXIMUM RECORDED TEMPERATURE
UNIT.                      2015 : EQUIPMENT NUMBER
BASE.              HOUMA INLAND : BASE LOCATION
ENG .      JAMES S. MACLEAN III : RECORDED BY
WIT .             STEVE LUBANKO : WITNESSED BY
~Curve Information -----------------------------------------
DEPT.F          :DEPTH
AHT10.OHMM      :
AHT20.OHMM      :
AHT30.OHMM      :
AHT60.OHMM      :
DCAL.IN         :
GR.GAPI         :
HTEN.LBF        :
NPOR.V/V        :
SP.MV           :
TENS.LBF        :
~ASCII ------------------------------------------------------
# ...
6426.50000        0.32562        0.28851        0.25113        0.26469       -0.05124       40.06633      658.85259        -999.25      -86.73269     2476.89983
6427.00000        0.28478        0.24937        0.22793        0.23855       -0.04449       39.89999      659.99649        -999.25      -87.06140     2475.52557
6427.50000        0.24909        0.21556        0.20588        0.21453       -0.03774       40.93662      661.08096        -999.25      -87.39408     2474.15130
6428.00000        0.23487        0.20859        0.19818        0.20221       -0.03099       43.77029      661.96860        -999.25      -85.74259     2472.77704
6428.50000        0.22941        0.20764        0.20215        0.20000       -0.02423       46.10494      663.05308        -999.25      -84.09111     2471.40278
6429.00000        0.23222        0.21217        0.20622        0.20328       -0.01748       46.43464      663.94071        -999.25      -85.01784     2471.20959
6429.50000        0.24346        0.21824        0.21036        0.20745       -0.01112       46.63365      664.82834        -999.25      -88.31685     2473.37854
6430.00000        0.25293        0.22410        0.21459        0.21348       -0.00437       45.57623      665.91282        -999.25      -91.75051     2475.15381
6430.50000        0.26075        0.22872        0.21936        0.21716        0.00238       43.45841      666.80045        -999.25      -91.08913     2477.32276
6431.00000        0.25661        0.22941        0.21637        0.21293        0.00913       41.69702      667.88493        -999.25      -87.52477     2479.09803
6431.50000        0.25152        0.22422        0.21342        0.20774        0.01589       40.32177      668.77256        -999.25      -85.94061     2480.87329
6432.00000        0.24655        0.21916        0.21051        0.20321        0.01986       40.59504      669.66019        -999.25      -86.33665     2483.04225
6432.50000        0.24380        0.21591        0.20745        0.20077        0.01986       41.21286      670.74467        -999.25      -89.10893     2484.81752
6433.00000        0.24248        0.21385        0.20431        0.19838        0.01986       41.45346      671.63231        -999.25      -90.69309     2486.98647
6433.50000        0.24092        0.21138        0.20060        0.19553        0.01986       41.12078      672.71678        -999.25      -90.69309     2488.76174
6434.00000        0.23951        0.20936        0.19758        0.19326        0.01986       40.79108      673.60442        -999.25      -90.29705     2490.53700
6434.50000        0.23796        0.20762        0.19459        0.19106        0.01986       40.46138      674.49205        -999.25      -89.90101     2492.70596
6435.00000        0.23642        0.20590        0.19382        0.18932        0.01986       41.19801      675.57653        -999.25      -89.10893     2494.48123
6435.50000        0.23988        0.20759        0.19637        0.19048        0.01986       42.03563      676.46416        -999.25      -88.71289     2496.65018
6436.00000        0.24683        0.21013        0.20360        0.19652        0.01708       42.87623      677.54864        -999.25      -89.10893     2498.93798
6436.50000        0.25838        0.21270        0.21107        0.20354        0.01271       43.71385      676.86151        -999.25      -88.71289     2500.71324
6437.00000        0.27318        0.22422        0.21883        0.21070        0.00794       44.55444      675.38699        -999.25      -87.92081     2502.48851
6437.50000        0.30060        0.23877        0.22641        0.21756        0.00357       45.08613      673.57821        -999.25      -88.31685     2504.65746
6438.00000        0.33075        0.25427        0.23222        0.22283       -0.00119       45.61484      672.10369        -999.25      -90.29705     2506.43273
6438.50000        0.32156        0.26015        0.23579        0.22099       -0.00556       46.01880      670.43233        -999.25      -94.25744     2508.60168
6439.00000        0.31266        0.25916        0.23579        0.21916       -0.01033       45.91187      668.95782        -999.25      -95.67130     2510.37695
6439.50000        0.31166        0.26161        0.24069        0.22941       -0.01470       45.80494      667.48331        -999.25      -96.23764     2512.54591
6440.00000        0.33686        0.27835        0.25534        0.24175       -0.01907       46.08118      665.81195        -999.25      -95.10497     2514.32117
6440.50000        0.37480        0.29618        0.26720        0.25518       -0.02384       47.09999      664.33743        -999.25      -93.74655     2516.09644
6441.00000        0.41194        0.31024        0.26985        0.26556       -0.02821       47.94949      662.86292        -999.25      -92.67328     2514.32848
6441.50000        0.35011        0.27814        0.25906        0.25024       -0.03297       48.11880      661.19156        -999.25      -91.68318     2511.37945
6442.00000        0.28609        0.24395        0.23394        0.22732       -0.03853       47.76236      659.71704        -999.25      -90.69309     2508.03674
6442.50000        0.24458        0.21871        0.21491        0.21202       -0.04290       47.16831      658.24253        -999.25      -90.33269     2505.08771
6443.00000        0.23365        0.20722        0.20909        0.20615       -0.04727       45.53167      656.76802        -999.25      -89.97229     2502.13868
6443.50000        0.22983        0.20369        0.20637        0.20042       -0.05204       42.27623      655.09666        -999.25      -90.16635     2499.18965
6444.00000        0.22774        0.20683        0.20369        0.19818       -0.05641       35.34653      653.62214        -999.25      -90.00002     2496.24062
6444.50000        0.22784        0.20936        0.20524        0.19887       -0.06117       35.55742      652.14763        -999.25      -90.21784     2493.29160
6445.00000        0.22849        0.20936        0.20683        0.20000       -0.06554       37.26237      650.47627        -999.25      -90.61388     2490.34257
6445.50000        0.22916        0.20936        0.20840        0.20116       -0.07031       39.96534      649.00176        -999.25      -91.00992     2487.39354
6446.00000        0.23194        0.21024        0.20999        0.20444       -0.07468       40.82672      647.52724        -999.25      -91.40596     2483.77597
6446.50000        0.23796        0.21473        0.21287        0.21109       -0.07945       38.93761      645.85588        -999.25      -91.08913     2480.43325
6447.00000        0.24683        0.21932        0.22105        0.21774       -0.08382       37.42573      644.04710        -999.25      -90.59408     2477.48422
6447.50000        0.25838        0.22801        0.22954        0.22422       -0.08858       38.61385      642.57258        -999.25      -90.09903     2474.53519
6448.00000        0.27358        0.23990        0.23835        0.23090       -0.09295       42.69801      641.09807        -999.25      -90.14655     2471.58617
6448.50000        0.27672        0.23942        0.23820        0.23110       -0.09732       45.27920      639.62355        -999.25      -90.55447     2468.63714
6449.00000        0.25956        0.23152        0.22813        0.22628       -0.11361       45.61187      638.14904        -999.25      -90.96239     2465.68811
6449.50000        0.24235        0.22117        0.21849        0.21716       -0.13784       45.14850      636.67453        -999.25      -91.37031     2462.73908
6450.00000        0.22628        0.21128        0.20924        0.20745       -0.16207       41.75346      705.79235        -999.25      -91.77823     2599.37589
6450.50000        0.21326        0.20387        0.19908        0.19727       -0.21116       39.80197      704.31493        -999.25      -92.26536     2596.42105
6451.00000        0.21922        0.20218        0.20000        0.19727       -0.23546       40.56534      702.83750        -999.25      -92.67328     2593.46620
