~Version ---------------------------------------------------
VERS. 2.0 : CWLS LOG ASCII STANDARD - VERSION 2.0
WRAP. NO  : One line per depth step
DLM . SPACE : Column Data Section Delimiter
~Well ------------------------------------------------------
STRT.F       2826.5 : START DEPTH
STOP.F        11520 : STOP DEPTH
STEP.F          0.5 : STEP
NULL.       -999.25 : NULL VALUE
COMP.                       CASTEX ENERGY : COMPANY
WELL.          226761-LATERRECOINC-002-30 : WELL
FLD .                     FOUR LEAGUE BAY : FIELD
CNTY.                          TERREBONNE : COUNTY
STAT.                           LOUISIANA : STATE
CTRY.                                 USA : COUNTRY
SEC .                                     : SECTION
TWP .                                     : TOWNSHIP
RGE .                                     : RANGE
LOC .      812 FEL & 1373.6 FSL OF SEC 30 : LOCATION
EKB .F                       30 : ELEVATION KELLY BUSHING
EDF .F                       30 : ELEVATION DERRICK FLOOR
EGL .F                        8 : ELEVATION GROUND LEVEL
PDAT.                       MSL : PERMANENT DATUM
EPD .                           : ELEVATION PERMANENT DATUM
APD .                        30 : ABOVE PERMANENT DATUM
LMF .                        DF : LOG MEASURED FROM
DMF .                        DF : DRILLING MEASURED FROM
API .            17109238080000 : API NUMBER
UWI .            17109238080000 : UWI NUMBER
DIGC.                     NthDS : DIGITIZING COMPANY
~Params ----------------------------------------------------
SRVC.              SCHLUMBERGER : LOGGING COMPANY
LOG .              IND/GR/LD/CN : LOG
DATE.                2002-02-20 : RUN DATE
RUN .                         1 : RUN NUMBER
TDD .F                    11515 : TOTAL DEPTH DRILLER
TDL .F                    11522 : TOTAL DEPTH LOGGER
BOTL.F                    11514 : BOTTOM LOGGED INTERVAL
TOPL.F                     3057 : TOP LOGGED INTERVAL
CSGS.IN                  10.750 : CASING SIZE
CSGD.F                     3050 : CASING DRILLER
CSGL.F                     3057 : CASING LOGGER
BS  .IN                   9.875 : BIT SIZE
MUD .  TANNATHIN/ SPERESENE WBM : MUD TYPE
MUDD.                      10.3 : MUD DENSITY
MUDV.                        43 : MUD VISCOSITY
PH  .                      11.8 : MUD PH
FL  .                       5.8 : FLUID LOSS
MUDS.          CIRCULATION TANK : SOURCE OF SAMPLE
RM  .OHMM                 1.490 : MUD RESISTIVITY
RMT .DEGF                    70 : RM TEMPERATURE
RMF .OHMM                 0.870 : MUD FILTRATE RESISTIVITY
RMFT.DEGF                    70 : RMF TEMPERATURE
RMC .OHMM                 1.781 : MUD CAKE RESISTIVITY
RMCT.DEGF                    70 : RMC TEMPERATURE
RMFS.                   PRESSED : RMF SOURCE
RMCS.                   PRESSED : RMC SOURCE
RMBH.OHMM                 0.600 : MUD RESISTIVITY AT BHT
BHT .DEGF                   184 : BOTTOM HOLE TEMPERATURE
TIMC.           2345 2002-02-19 : TIME CIRCULATION STOPPED
TIML.           0800 2002-02-20 : TIME LOGGER ON BOTTOM
TMAX.DEGF                   184 : MAXIMUM RECORDED TEMPERATURE
UNIT.                      2015 : EQUIPMENT NUMBER
BASE.              HOUMA INLAND : BASE LOCATION
ENG .      JAMES S. MACLEAN III : RECORDED BY
WIT .             STEVE LUBANKO : WITNESSED BY
~Curve Information -----------------------------------------
DEPT.F          :DEPTH
AHT10.OHMM      :
AHT20.OHMM      :
AHT30.OHMM      :
AHT60.OHMM      :
DCAL.IN         :
GR.GAPI         :
HTEN.LBF        :
NPOR.V/V        :
SP.MV           :
TENS.LBF        :
~ASCII ------------------------------------------------------
# ...
8676.50000        0.40447        0.35913        0.37405        0.34877       -0.17994       79.50891      735.10047        0.35044      -29.44448     3416.15887
8677.00000        0.57085        0.42263        0.41160        0.40373       -0.19742       80.31248      733.62304        0.34685      -21.11115     3413.59849
8677.50000        0.62170        0.43717        0.39091        0.38682       -0.21490       80.95236      732.00792        0.35627      -27.94448     3410.36825
8678.00000        0.49612        0.36980        0.34223        0.32301       -0.23476       79.16665      730.33327        0.37635      -36.98416     3407.41341
8678.50000        0.36045        0.28888        0.29214        0.26975       -0.25541       70.23808      729.25031        0.36684      -55.12304     3404.85303
8679.00000        0.29134        0.24235        0.24015        0.22525       -0.27607       61.30951      728.56183        0.33721      -64.76193     3401.89819
8679.50000        0.27990        0.23579        0.21916        0.21408       -0.29673       59.98808      727.87334        0.32771      -65.75399     3399.33781
8680.00000        0.27883        0.24015        0.21916        0.20745       -0.31698       59.16665      727.18485        0.33476      -62.49606     3396.38296
8680.50000        0.29637        0.26266        0.24015        0.22628       -0.33764       60.85415      726.49636        0.35366      -58.80955     3393.82259
8681.00000        0.34342        0.28782        0.26508        0.23839       -0.34638       64.52379      725.80788        0.35717      -55.12304     3390.86774
8681.50000        0.41477        0.32714        0.29583        0.26800       -0.35512       68.19344      725.11939        0.34174      -51.56749     3388.30737
8682.00000        0.51306        0.35339        0.31206        0.28835       -0.36425       71.13094      724.43090        0.33697      -50.47622     3385.35252
8682.50000        0.42729        0.31140        0.28019        0.26505       -0.37299       66.81546      723.74242        0.33811      -53.27780     3382.79214
8683.00000        0.35424        0.27443        0.25154        0.24364       -0.38173       58.39880      723.05393        0.33807      -57.94447     3379.83730
8683.50000        0.30115        0.24182        0.22732        0.22396       -0.39047       48.14880      722.36544        0.34158      -62.61510     3377.27692
8684.00000        0.28248        0.23335        0.22218        0.21274       -0.39961       42.26189      721.67696        0.35337      -66.69050     3374.32208
8684.50000        0.28088        0.22941        0.22302        0.21552       -0.40834       43.63094      720.98847        0.35806      -68.38891     3371.76170
8685.00000        0.25916        0.21603        0.20779        0.19742       -0.41708       47.05356      720.29998        0.35684      -69.43653     3368.80686
8685.50000        0.24162        0.20123        0.19518        0.18086       -0.41708       50.09820      719.61149        0.35798      -70.31748     3366.24648
8686.00000        0.22964        0.19818        0.18932        0.17880       -0.41708       51.77380      718.92301        0.35438      -70.81351     3363.29164
8686.50000        0.22732        0.19518        0.18364        0.17677       -0.41708       50.22320      718.23452        0.35434      -71.30955     3360.73126
8687.00000        0.22732        0.19727        0.18304        0.17596       -0.41708       48.67261      717.54603        0.35666      -71.80558     3357.77641
8687.50000        0.23046        0.20070        0.18367        0.17596       -0.41708       47.12201      716.71985        0.35899      -71.96034     3354.54618
8688.00000        0.23687        0.20487        0.18533        0.17508       -0.41708       45.26189      716.03136        0.35658      -72.04764     3353.16920
8688.50000        0.23918        0.20338        0.18420        0.17436       -0.41708       44.94047      715.34287        0.34944      -72.11907     3351.79223
8689.00000        0.23674        0.20070        0.18210        0.17390       -0.41708       46.32142      714.65439        0.34703      -72.18653     3350.41525
8689.50000        0.23435        0.19803        0.18003        0.17342       -0.42066       47.70535      713.96590        0.35527      -72.25796     3349.03828
8690.00000        0.23198        0.19541        0.17799        0.17296       -0.42423       48.80951      713.27741        0.35641      -72.61907     3347.66130
8690.50000        0.23258        0.19282        0.17758        0.17436       -0.42781       48.80951      712.58893        0.35401      -73.41272     3346.28433
8691.00000        0.23407        0.19428        0.17758        0.17704       -0.43138       47.12201      711.90044        0.35042      -74.20637     3344.90736
8691.50000        0.23622        0.19578        0.17758        0.17582       -0.43496       45.01487      711.21195        0.34682      -74.74605     3351.81420
8692.00000        0.23702        0.19746        0.18197        0.17364       -0.43893       44.04761      710.52347        0.34797      -74.90478     3360.69339
8692.50000        0.23243        0.19485        0.17921        0.17247       -0.44250       44.59820      709.83498        0.36213      -75.06351     3369.17810
8693.00000        0.22793        0.18946        0.17649        0.17198       -0.44608       44.36904      709.14649        0.35735      -75.22224     3378.05729
8693.50000        0.22408        0.18420        0.17383        0.17150       -0.44965       44.13987      708.45800        0.35258      -75.38097     3386.93647
8694.00000        0.22117        0.18280        0.17194        0.17057       -0.45323       44.27082      707.76952        0.34543      -75.30161     3395.81565
8694.50000        0.21962        0.18140        0.17056        0.16902       -0.45680       44.64285      707.08103        0.34421      -74.85716     3404.69484
8695.00000        0.21808        0.18003        0.16919        0.16748       -0.44727       45.01487      706.39254        0.34653      -74.41669     3413.57402
8695.50000        0.21643        0.17921        0.16864        0.16722       -0.43734       45.46725      705.70406        0.35004      -73.97621     3422.45320
8696.00000        0.21457        0.17921        0.17136        0.16887       -0.42781       46.03868      705.01557        0.35118      -74.26193     3430.93792
8696.50000        0.21274        0.17921        0.17412        0.17053       -0.41788       46.61308      704.72155        0.34759      -74.73018     3439.81710
8697.00000        0.21198        0.17921        0.17693        0.17261       -0.40834       47.91665      704.62476        0.33689      -75.19447     3439.62353
8697.50000        0.21554        0.18277        0.17992        0.17500       -0.39881       49.40475      704.39028        0.32975      -75.21034     3396.15760
8698.00000        0.21916        0.18734        0.18347        0.17962       -0.38888       52.67856      704.29350        0.32248      -74.55161     3360.06747
8698.50000        0.24235        0.19602        0.19555        0.19381       -0.37935       57.26189      704.19671        0.31724      -71.90478     3323.97735
8699.00000        0.26075        0.22157        0.21962        0.21128       -0.37736       62.32141      704.09992        0.31898      -66.64685     3324.57271
8699.50000        0.32121        0.24503        0.24665        0.24608       -0.37736       67.05058      704.00314        0.32249      -60.52780     3325.56255
8700.00000        0.33480        0.26223        0.25062        0.24812       -0.37736       70.44939      767.39110        0.32523      -55.80558     3453.76658
8700.50000        0.28669        0.24087        0.22666        0.23094       -0.39762       68.36605      767.09938        0.33106      -56.82542     3454.74867
8701.00000        0.26808        0.22606        0.22390        0.21918       -0.39762       64.65772      767.00335        0.33924      -55.03971     3455.33937
