~Version ---------------------------------------------------
VERS. 2.0 : CWLS LOG ASCII STANDARD - VERSION 2.0
WRAP. NO  : One line per depth step
DLM . SPACE : Column Data Section Delimiter
~Well ------------------------------------------------------
STRT.F       2826.5 : START DEPTH
STOP.F        11520 : STOP DEPTH
STEP.F          0.5 : STEP
NULL.       -999.25 : NULL VALUE
COMP.                       CASTEX ENERGY : COMPANY
WELL.          226761-LATERRECOINC-002-30 : WELL
FLD .                     FOUR LEAGUE BAY : FIELD
CNTY.                          TERREBONNE : COUNTY
STAT.                           LOUISIANA : STATE
CTRY.                                 USA : COUNTRY
SEC .                                     : SECTION
TWP .                                     : TOWNSHIP
RGE .                                     : RANGE
LOC .      812 FEL & 1373.6 FSL OF SEC 30 : LOCATION
EKB .F                       30 : ELEVATION KELLY BUSHING
EDF .F                       30 : ELEVATION DERRICK FLOOR
EGL .F                        8 : ELEVATION GROUND LEVEL
PDAT.                       MSL : PERMANENT DATUM
EPD .                           : ELEVATION PERMANENT DATUM
APD .                        30 : ABOVE PERMANENT DATUM
LMF .                        DF : LOG MEASURED FROM
DMF .                        DF : DRILLING MEASURED FROM
API .            17109238080000 : API NUMBER
UWI .            17109238080000 : UWI NUMBER
DIGC.                     NthDS : DIGITIZING COMPANY
~Params ----------------------------------------------------
SRVC.              SCHLUMBERGER : LOGGING COMPANY
LOG .              IND/GR/LD/CN : LOG
DATE.                2002-02-20 : RUN DATE
RUN .                         1 : RUN NUMBER
TDD .F                    11515 : TOTAL DEPTH DRILLER
TDL .F                    11522 : TOTAL DEPTH LOGGER
BOTL.F                    11514 : BOTTOM LOGGED INTERVAL
TOPL.F                     3057 : TOP LOGGED INTERVAL
CSGS.IN                  10.750 : CASING SIZE
CSGD.F                     3050 : CASING DRILLER
CSGL.F                     3057 : CASING LOGGER
BS  .IN                   9.875 : BIT SIZE
MUD .  TANNATHIN/ SPERESENE WBM : MUD TYPE
MUDD.                      10.3 : MUD DENSITY
MUDV.                        43 : MUD VISCOSITY
PH  .                      11.8 : MUD PH
FL  .                       5.8 : FLUID LOSS
MUDS.          CIRCULATION TANK : SOURCE OF SAMPLE
RM  .OHMM                 1.490 : MUD RESISTIVITY
RMT .DEGF                    70 : RM TEMPERATURE
RMF .OHMM                 0.870 : MUD FILTRATE RESISTIVITY
RMFT.DEGF                    70 : RMF TEMPERATURE
RMC .OHMM                 1.781 : MUD CAKE RESISTIVITY
RMCT.DEGF                    70 : RMC TEMPERATURE
RMFS.                   PRESSED : RMF SOURCE
RMCS.                   PRESSED : RMC SOURCE
RMBH.OHMM                 0.600 : MUD RESISTIVITY AT BHT
BHT .DEGF                   184 : BOTTOM HOLE TEMPERATURE
TIMC.           2345 2002-02-19 : TIME CIRCULATION STOPPED
TIML.           0800 2002-02-20 : TIME LOGGER ON BOTTOM
TMAX.DEGF                   184 : MAXIMUM RECORDED TEMPERATURE
UNIT.                      2015 : EQUIPMENT NUMBER
BASE.              HOUMA INLAND : BASE LOCATION
ENG .      JAMES S. MACLEAN III : RECORDED BY
WIT .             STEVE LUBANKO : WITNESSED BY
~Curve Information -----------------------------------------
DEPT.F          :DEPTH
AHT10.OHMM      :
AHT20.OHMM      :
AHT30.OHMM      :
AHT60.OHMM      :
DCAL.IN         :
GR.GAPI         :
HTEN.LBF        :
NPOR.V/V        :
SP.MV           :
TENS.LBF        :
~ASCII ------------------------------------------------------
# ...
7551.50000        0.17594        0.17571        0.16611        0.16475        0.03976       28.84090      724.53777        -999.25      -68.30042     3016.86614
7552.00000        0.17691        0.17675        0.16585        0.16543        0.03976       30.55434      723.85199        -999.25      -68.30042     3015.49457
7552.50000        0.17936        0.17878        0.16559        0.16612        0.03976       32.43082      723.16621        -999.25      -68.30042     3014.12301
7553.00000        0.18018        0.17842        0.16534        0.16628        0.03976       34.30730      722.48042        -999.25      -67.90516     3012.75145
7553.50000        0.17854        0.17746        0.16506        0.16497        0.03976       34.44663      721.79464        -999.25      -67.50990     3011.37988
7554.00000        0.17691        0.17650        0.16441        0.16366        0.03976       33.16896      721.10886        -999.25      -68.30042     3010.00832
7554.50000        0.17575        0.17555        0.16366        0.16238        0.03976       30.86264      720.42308        -999.25      -69.09093     3008.63675
7555.00000        0.17528        0.17462        0.16292        0.16111        0.03976       30.38537      719.73730        -999.25      -69.09093     3007.26519
7555.50000        0.17480        0.17368        0.16217        0.15984        0.03976       31.71936      719.05151        -999.25      -67.90516     3005.61932
7556.00000        0.17434        0.17275        0.16302        0.15957        0.03976       33.16600      718.22858        -999.25      -65.92888     3004.24775
7556.50000        0.17594        0.17462        0.16437        0.16087        0.03976       34.46145      717.54279        -999.25      -64.74311     3002.87619
7557.00000        0.17756        0.17650        0.16581        0.16251        0.03976       34.98023      716.85701        -999.25      -63.16208     3001.50462
7557.50000        0.17919        0.17842        0.16727        0.16417        0.03976       34.83201      716.17123        -999.25      -64.74311     3000.13306
7558.00000        0.18084        0.17995        0.16873        0.16587        0.03976       33.92193      715.48545        -999.25      -66.71939     2998.76150
7558.50000        0.18235        0.18147        0.16944        0.16768        0.03976       32.65019      714.79967        -999.25      -69.48619     2997.38993
7559.00000        0.18159        0.18195        0.16862        0.16673        0.03976       31.38142      714.11389        -999.25      -68.69567     2996.01837
7559.50000        0.18084        0.17919        0.16779        0.16578        0.03976       31.35177      713.42810        -999.25      -68.30042     2994.64681
7560.00000        0.17919        0.17647        0.16698        0.16484        0.03976       31.63339      712.74232        -999.25      -68.69567     2993.27524
7560.50000        0.17715        0.17381        0.16615        0.16389        0.03976       31.97430      712.05654        -999.25      -69.09093     2991.90368
7561.00000        0.17623        0.17370        0.16534        0.16296        0.03976       32.25592      711.37076        -999.25      -68.69567     2990.53212
7561.50000        0.17697        0.17530        0.16502        0.16202        0.03976       31.57114      710.68498        -999.25      -67.11465     2989.16055
7562.00000        0.17714        0.17482        0.16502        0.16296        0.03976       29.34782      709.99920        -999.25      -66.32413     2987.78899
7562.50000        0.17501        0.17295        0.16457        0.16351        0.03976       27.12450      709.31341        -999.25      -65.53362     2986.41742
7563.00000        0.17292        0.17113        0.16232        0.16180        0.03976       26.58201      708.62763        -999.25      -66.32413     2985.04586
7563.50000        0.17084        0.16930        0.16011        0.15897        0.03976       27.61956      707.94185        -999.25      -67.11465     2983.67430
7564.00000        0.16961        0.16750        0.15792        0.15620        0.03976       30.83003      707.45253        -999.25      -67.50990     2982.02842
7564.50000        0.16961        0.16573        0.15651        0.15620        0.03976       32.31225      707.61188        -999.25      -67.11465     2980.65686
7565.00000        0.16961        0.16578        0.15811        0.15798        0.03976       33.79446      707.71194        -999.25      -66.32413     2979.28529
7565.50000        0.16982        0.16704        0.15973        0.15882        0.03976       34.98023      708.00845        -999.25      -65.53362     2977.91373
7566.00000        0.17086        0.16833        0.16137        0.15968        0.03976       33.55730      708.10850        -999.25      -66.71939     2976.54217
7566.50000        0.17191        0.16961        0.16222        0.16055        0.03976       31.77865      708.20856        -999.25      -68.30042     2975.17060
7567.00000        0.17295        0.17117        0.16260        0.16055        0.03976       29.99999      708.30861        -999.25      -69.09093     2973.79904
7567.50000        0.17349        0.17216        0.16293        0.16055        0.03976       31.08497      708.60512        -999.25      -68.69567     2972.42748
7568.00000        0.17402        0.17314        0.16326        0.16055        0.03976       32.88438      708.70517        -999.25      -69.09093     2971.05591
7568.50000        0.17486        0.17414        0.16318        0.16055        0.03976       34.68379      708.80523        -999.25      -69.48619     2969.68435
7569.00000        0.17621        0.17525        0.16153        0.16055        0.03976       34.09090      708.90528        -999.25      -70.27670     2968.31279
7569.50000        0.17756        0.17641        0.16153        0.16232        0.03976       33.49802      709.20179        -999.25      -69.88144     2966.94122
7570.00000        0.17891        0.17756        0.16401        0.16532        0.03976       33.72628      709.30185        -999.25      -68.69567     2965.56966
7570.50000        0.18029        0.18015        0.16654        0.16838        0.03976       33.99900      709.40190        -999.25      -67.50990     2964.59101
7571.00000        0.18314        0.18277        0.16910        0.17149        0.03976       33.89228      709.69841        -999.25      -65.13836     2964.00528
7571.50000        0.18705        0.18543        0.17169        0.17394        0.03976       33.56323      709.79847        -999.25      -61.58105     2963.81247
7572.00000        0.19105        0.18758        0.17594        0.17594        0.03976       34.09090      709.89852        -999.25      -61.18579     2963.73827
7572.50000        0.18931        0.18386        0.17394        0.17344        0.03976       34.83201      709.99857        -999.25      -62.76682     2963.15254
7573.00000        0.18432        0.18021        0.17196        0.17097        0.03976       34.88240      710.15793        -999.25      -66.32413     2962.95973
7573.50000        0.17947        0.17665        0.17000        0.16855        0.03976       34.75790      710.45444        -999.25      -67.11465     2962.76692
7574.00000        0.17934        0.17810        0.16992        0.16838        0.03976       33.77074      710.55450        -999.25      -67.90516     2962.57411
7574.50000        0.18235        0.18084        0.17031        0.16876        0.03976       31.49110      710.65455        -999.25      -68.30042     2962.38130
7575.00000        0.18395        0.18229        0.17070        0.16915        0.03976       29.21146      710.95106        -999.25      -67.90516     2961.79557
7575.50000        0.18326        0.18162        0.17117        0.16961        0.03976       28.39920      710.65820        -999.25      -67.50990     2961.60276
7576.00000        0.18267        0.18105        0.17047        0.16961        0.03976       27.95454      709.57950        -999.25      -66.71939     2961.40995
