~Version ---------------------------------------------------
VERS. 2.0 : CWLS LOG ASCII STANDARD - VERSION 2.0
WRAP. NO  : One line per depth step
DLM . SPACE : Column Data Section Delimiter
~Well ------------------------------------------------------
STRT.F       2826.5 : START DEPTH
STOP.F        11520 : STOP DEPTH
STEP.F          0.5 : STEP
NULL.       -999.25 : NULL VALUE
COMP.                       CASTEX ENERGY : COMPANY
WELL.          226761-LATERRECOINC-002-30 : WELL
FLD .                     FOUR LEAGUE BAY : FIELD
CNTY.                          TERREBONNE : COUNTY
STAT.                           LOUISIANA : STATE
CTRY.                                 USA : COUNTRY
SEC .                                     : SECTION
TWP .                                     : TOWNSHIP
RGE .                                     : RANGE
LOC .      812 FEL & 1373.6 FSL OF SEC 30 : LOCATION
EKB .F                       30 : ELEVATION KELLY BUSHING
EDF .F                       30 : ELEVATION DERRICK FLOOR
EGL .F                        8 : ELEVATION GROUND LEVEL
PDAT.                       MSL : PERMANENT DATUM
EPD .                           : ELEVATION PERMANENT DATUM
APD .                        30 : ABOVE PERMANENT DATUM
LMF .                        DF : LOG MEASURED FROM
DMF .                        DF : DRILLING MEASURED FROM
API .            17109238080000 : API NUMBER
UWI .            17109238080000 : UWI NUMBER
DIGC.                     NthDS : DIGITIZING COMPANY
~Params ----------------------------------------------------
SRVC.              SCHLUMBERGER : LOGGING COMPANY
LOG .              IND/GR/LD/CN : LOG
DATE.                2002-02-20 : RUN DATE
RUN .                         1 : RUN NUMBER
TDD .F                    11515 : TOTAL DEPTH DRILLER
TDL .F                    11522 : TOTAL DEPTH LOGGER
BOTL.F                    11514 : BOTTOM LOGGED INTERVAL
TOPL.F                     3057 : TOP LOGGED INTERVAL
CSGS.IN                  10.750 : CASING SIZE
CSGD.F                     3050 : CASING DRILLER
CSGL.F                     3057 : CASING LOGGER
BS  .IN                   9.875 : BIT SIZE
MUD .  TANNATHIN/ SPERESENE WBM : MUD TYPE
MUDD.                      10.3 : MUD DENSITY
MUDV.                        43 : MUD VISCOSITY
PH  .                      11.8 : MUD PH
FL  .                       5.8 : FLUID LOSS
MUDS.          CIRCULATION TANK : SOURCE OF SAMPLE
RM  .OHMM                 1.490 : MUD RESISTIVITY
RMT .DEGF                    70 : RM TEMPERATURE
RMF .OHMM                 0.870 : MUD FILTRATE RESISTIVITY
RMFT.DEGF                    70 : RMF TEMPERATURE
RMC .OHMM                 1.781 : MUD CAKE RESISTIVITY
RMCT.DEGF                    70 : RMC TEMPERATURE
RMFS.                   PRESSED : RMF SOURCE
RMCS.                   PRESSED : RMC SOURCE
RMBH.OHMM                 0.600 : MUD RESISTIVITY AT BHT
BHT .DEGF                   184 : BOTTOM HOLE TEMPERATURE
TIMC.           2345 2002-02-19 : TIME CIRCULATION STOPPED
TIML.           0800 2002-02-20 : TIME LOGGER ON BOTTOM
TMAX.DEGF                   184 : MAXIMUM RECORDED TEMPERATURE
UNIT.                      2015 : EQUIPMENT NUMBER
BASE.              HOUMA INLAND : BASE LOCATION
ENG .      JAMES S. MACLEAN III : RECORDED BY
WIT .             STEVE LUBANKO : WITNESSED BY
~Curve Information -----------------------------------------
DEPT.F          :DEPTH
AHT10.OHMM      :
AHT20.OHMM      :
AHT30.OHMM      :
AHT60.OHMM      :
DCAL.IN         :
GR.GAPI         :
HTEN.LBF        :
NPOR.V/V        :
SP.MV           :
TENS.LBF        :
~ASCII ------------------------------------------------------
# ...
4751.50000        0.43518        0.28183        0.23890        0.20476        9.46296       39.89999      744.44427        -999.25      -65.34656     2271.92244
4752.00000        0.41717        0.27619        0.23512        0.20343        9.71201       40.99009      744.54491        -999.25      -64.95052     2270.54274
4752.50000        0.39995        0.27081        0.23177        0.20210        9.97696       43.36633      744.64556        -999.25      -65.34656     2269.16305
4753.00000        0.38728        0.26556        0.22849        0.20079       10.07626       44.85147      744.94383        -999.25      -65.34656     2267.78335
4753.50000        0.38071        0.26435        0.22525        0.19947        9.51340       45.64454      745.04448        -999.25      -64.55448     2266.40366
4754.00000        0.38137        0.26315        0.22732        0.19818        8.90963       45.97425      745.14512        -999.25      -64.15844     2265.02396
4754.50000        0.38148        0.26116        0.22941        0.20393        8.59185       45.44553      744.45528        -999.25      -63.76240     2263.64426
4755.00000        0.37800        0.25916        0.22542        0.20628        7.96981       45.02078      743.76543        -999.25      -63.36636     2262.26457
4755.50000        0.37251        0.25738        0.22147        0.20334        6.89175       45.96534      743.07558        -999.25      -61.78220     2260.88487
4756.00000        0.36409        0.25253        0.21782        0.20046        5.82721       44.97920      742.38573        -999.25      -62.17824     2259.50518
4756.50000        0.35586        0.24778        0.21453        0.19878        5.66832       43.63959      741.69588        -999.25      -62.17824     2257.84954
4757.00000        0.36054        0.24950        0.21128        0.20184        5.54280       42.84058      741.00604        -999.25      -62.17824     2256.46985
4757.50000        0.36686        0.25288        0.21556        0.20494        5.54995       42.04157      740.31619        -999.25      -61.78220     2255.09015
4758.00000        0.37442        0.25630        0.21992        0.20745        5.55749       43.06930      739.62634        -999.25      -61.38616     2253.71046
4758.50000        0.37824        0.25838        0.22525        0.20745        5.56623       44.55444      738.93649        -999.25      -60.99012     2252.33076
4759.00000        0.38053        0.25838        0.22853        0.20745        5.57338       43.83266      738.24665        -999.25      -60.59408     2250.95107
4759.50000        0.38287        0.26154        0.23186        0.20745        5.58093       43.53266      737.41883        -999.25      -60.59408     2249.57137
4760.00000        0.39714        0.26965        0.23523        0.20745        5.39821       44.68514      736.72898        -999.25      -60.59408     2248.19168
4760.50000        0.41572        0.27799        0.23796        0.20745        4.89573       44.37326      736.03913        -999.25      -60.19804     2246.81198
4761.00000        0.40767        0.27546        0.23463        0.20745        4.44886       43.08118      735.34929        -999.25      -60.59408     2245.43229
4761.50000        0.38742        0.26820        0.23055        0.20745        4.00198       41.79207      734.65944        -999.25      -61.38616     2244.05259
4762.00000        0.36309        0.26116        0.22593        0.20745        4.08460       40.49999      733.96959        -999.25      -61.78220     2242.67290
4762.50000        0.35446        0.25534        0.21916        0.20745        4.29990       39.20791      733.27974        -999.25      -61.78220     2241.29320
4763.00000        0.36386        0.25214        0.22184        0.20543        4.51440       39.88217      732.58989        -999.25      -61.38616     2239.91350
4763.50000        0.37621        0.25602        0.22457        0.20295        4.72850       40.55940      731.90005        -999.25      -60.99012     2238.53381
4764.00000        0.38966        0.25996        0.22732        0.20049        4.94220       42.85246      731.21020        -999.25      -60.99012     2237.15411
4764.50000        0.39987        0.26315        0.22836        0.20315        4.98510       45.55246      730.52035        -999.25      -60.59408     2235.77442
4765.00000        0.39533        0.26315        0.22941        0.20521        4.99106       46.63365      729.83050        -999.25      -60.19804     2234.39472
4765.50000        0.39030        0.26315        0.22793        0.20429        5.02165       46.63365      729.14066        -999.25      -60.59408     2233.01503
4766.00000        0.38498        0.26315        0.22643        0.20339        5.05223       44.73266      728.45081        -999.25      -60.99012     2231.63533
4766.50000        0.37939        0.26250        0.22494        0.20248        5.08282       42.35643      727.76096        -999.25      -60.99012     2230.25564
4767.00000        0.37251        0.26154        0.22304        0.20141        5.11936       41.24553      727.07111        -999.25      -60.99012     2228.87594
4767.50000        0.36841        0.26075        0.22147        0.20053        5.16544       40.60692      726.38127        -999.25      -61.25547     2227.49625
4768.00000        0.36670        0.25767        0.22218        0.20035        5.27229       40.50890      725.69142        -999.25      -62.57428     2226.11655
4768.50000        0.36496        0.25460        0.22265        0.20123        5.37914       42.56732      725.00157        -999.25      -63.36636     2224.73686
4769.00000        0.36323        0.25159        0.21988        0.20210        5.54121       44.62276      724.31172        -999.25      -63.36636     2223.08122
4769.50000        0.36150        0.24859        0.21716        0.20299        5.73982       45.31781      723.62187        -999.25      -62.77230     2221.70153
4770.00000        0.35982        0.24660        0.21371        0.20332        5.93843       44.42672      722.93203        -999.25      -61.78220     2220.32183
4770.50000        0.35739        0.24604        0.21032        0.20147        5.92055       40.82078      722.24218        -999.25      -61.38616     2218.94213
4771.00000        0.35453        0.24547        0.20698        0.19963        5.90228       39.80197      721.55233        -999.25      -61.63963     2217.56244
4771.50000        0.35169        0.24491        0.20369        0.19782        5.94637       41.37326      720.86248        -999.25      -62.06339     2216.18274
4772.00000        0.34998        0.24570        0.20858        0.19727        6.00596       43.56534      720.03467        -999.25      -62.49111     2214.80305
4772.50000        0.35291        0.24852        0.21359        0.20184        6.11162       46.03959      719.34482        -999.25      -62.40002     2213.42335
4773.00000        0.35586        0.25138        0.21871        0.20556        6.22919       47.64355      718.65497        -999.25      -61.38616     2212.04366
4773.50000        0.36616        0.25499        0.22396        0.20556        6.34637       47.22771      717.96512        -999.25      -61.78220     2210.66396
4774.00000        0.37939        0.26154        0.22933        0.20556        6.46395       45.74256      717.27528        -999.25      -61.38616     2209.28427
4774.50000        0.39714        0.26817        0.23450        0.20556        6.57636       44.25741      716.58543        -999.25      -60.99012     2207.90457
4775.00000        0.41149        0.27478        0.23955        0.20556        6.68163       42.89702      715.89558        -999.25      -60.99012     2206.52488
4775.50000        0.42212        0.28294        0.24577        0.20556        6.80754       41.53365      715.20573        -999.25      -60.59408     2205.14518
4776.00000        0.41572        0.28572        0.24764        0.20556        6.91837       40.26534      714.51589        -999.25      -60.99012     2203.76549
