~Version ---------------------------------------------------
VERS. 2.0 : CWLS LOG ASCII STANDARD - VERSION 2.0
WRAP. NO  : One line per depth step
DLM . SPACE : Column Data Section Delimiter
~Well ------------------------------------------------------
STRT.F       2826.5 : START DEPTH
STOP.F        11520 : STOP DEPTH
STEP.F          0.5 : STEP
NULL.       -999.25 : NULL VALUE
COMP.                       CASTEX ENERGY : COMPANY
WELL.          226761-LATERRECOINC-002-30 : WELL
FLD .                     FOUR LEAGUE BAY : FIELD
CNTY.                          TERREBONNE : COUNTY
STAT.                           LOUISIANA : STATE
CTRY.                                 USA : COUNTRY
SEC .                                     : SECTION
TWP .                                     : TOWNSHIP
RGE .                                     : RANGE
LOC .      812 FEL & 1373.6 FSL OF SEC 30 : LOCATION
EKB .F                       30 : ELEVATION KELLY BUSHING
EDF .F                       30 : ELEVATION DERRICK FLOOR
EGL .F                        8 : ELEVATION GROUND LEVEL
PDAT.                       MSL : PERMANENT DATUM
EPD .                           : ELEVATION PERMANENT DATUM
APD .                        30 : ABOVE PERMANENT DATUM
LMF .                        DF : LOG MEASURED FROM
DMF .                        DF : DRILLING MEASURED FROM
API .            17109238080000 : API NUMBER
UWI .            17109238080000 : UWI NUMBER
DIGC.                     NthDS : DIGITIZING COMPANY
~Params ----------------------------------------------------
SRVC.              SCHLUMBERGER : LOGGING COMPANY
LOG .              IND/GR/LD/CN : LOG
DATE.                2002-02-20 : RUN DATE
RUN .                         1 : RUN NUMBER
TDD .F                    11515 : TOTAL DEPTH DRILLER
TDL .F                    11522 : TOTAL DEPTH LOGGER
BOTL.F                    11514 : BOTTOM LOGGED INTERVAL
TOPL.F                     3057 : TOP LOGGED INTERVAL
CSGS.IN                  10.750 : CASING SIZE
CSGD.F                     3050 : CASING DRILLER
CSGL.F                     3057 : CASING LOGGER
BS  .IN                   9.875 : BIT SIZE
MUD .  TANNATHIN/ SPERESENE WBM : MUD TYPE
MUDD.                      10.3 : MUD DENSITY
MUDV.                        43 : MUD VISCOSITY
PH  .                      11.8 : MUD PH
FL  .                       5.8 : FLUID LOSS
MUDS.          CIRCULATION TANK : SOURCE OF SAMPLE
RM  .OHMM                 1.490 : MUD RESISTIVITY
RMT .DEGF                    70 : RM TEMPERATURE
RMF .OHMM                 0.870 : MUD FILTRATE RESISTIVITY
RMFT.DEGF                    70 : RMF TEMPERATURE
RMC .OHMM                 1.781 : MUD CAKE RESISTIVITY
RMCT.DEGF                    70 : RMC TEMPERATURE
RMFS.                   PRESSED : RMF SOURCE
RMCS.                   PRESSED : RMC SOURCE
RMBH.OHMM                 0.600 : MUD RESISTIVITY AT BHT
BHT .DEGF                   184 : BOTTOM HOLE TEMPERATURE
TIMC.           2345 2002-02-19 : TIME CIRCULATION STOPPED
TIML.           0800 2002-02-20 : TIME LOGGER ON BOTTOM
TMAX.DEGF                   184 : MAXIMUM RECORDED TEMPERATURE
UNIT.                      2015 : EQUIPMENT NUMBER
BASE.              HOUMA INLAND : BASE LOCATION
ENG .      JAMES S. MACLEAN III : RECORDED BY
WIT .             STEVE LUBANKO : WITNESSED BY
~Curve Information -----------------------------------------
DEPT.F          :DEPTH
AHT10.OHMM      :
AHT20.OHMM      :
AHT30.OHMM      :
AHT60.OHMM      :
DCAL.IN         :
GR.GAPI         :
HTEN.LBF        :
NPOR.V/V        :
SP.MV           :
TENS.LBF        :
~ASCII ------------------------------------------------------
# ...
8126.50000        1.13245        0.92269        0.95507        0.92548        0.82789       62.84790      787.33331        -999.25       -6.12330     3382.93906
8127.00000        0.98686        0.87592        0.88011        0.84591        0.87649       64.61330      801.01591        -999.25       -4.79924     3447.31121
8127.50000        0.86000        0.78267        0.81103        0.76240        0.85777       71.57056      820.01333        -999.25       -1.48314     3490.42404
8128.00000        0.79184        0.69929        0.74738        0.68708        0.82669       77.60932      839.01075        -999.25        0.55662     3441.01946
8128.50000        0.75634        0.67131        0.68866        0.65633        0.79561       82.26738      831.43403        -999.25        1.08545     3340.94757
8129.00000        0.75192        0.65609        0.67131        0.65172        0.76454       86.92841      806.14120        -999.25        1.16497     3257.68556
8129.50000        0.76781        0.66111        0.67131        0.64713        0.73346       91.27334      775.78981        -999.25        1.24847     3256.31130
8130.00000        0.78771        0.67310        0.67335        0.65996        0.70239       94.35385      765.26040        -999.25        1.33197     3254.93703
8130.50000        0.81926        0.68916        0.67131        0.66567        0.71992       97.43437      764.57327        -999.25        1.41547     3261.43659
8131.00000        0.84661        0.70282        0.65609        0.63805        0.82589      100.61628      763.88614        -999.25        0.47710     3269.90461
8131.50000        0.87480        0.70282        0.64122        0.61163        0.93227      104.19481      771.66336        -999.25       -2.26246     3278.37262
8132.00000        0.88399        0.69852        0.62507        0.57861        0.95060      107.05763      779.63744        -999.25       -7.14119     3286.84063
8132.50000        0.83206        0.66172        0.60316        0.54262        0.83665      100.85485      787.41466        -999.25      -14.64815     3294.52127
8133.00000        0.78031        0.62789        0.57861        0.52096        0.72271       93.10137      795.38874        -999.25      -22.15908     3302.20190
8133.50000        0.74553        0.59585        0.55014        0.50812        0.70597       80.42443      792.92999        -999.25      -31.17299     3309.88253
8134.00000        0.73023        0.60134        0.53373        0.49893        0.75378       69.29819      774.72361        -999.25      -33.16106     3317.16947
8134.50000        0.77035        0.60688        0.53373        0.49488        0.80159       61.72961      756.71407        -999.25      -34.48512     3311.85830
8135.00000        0.78224        0.60167        0.53373        0.49090        0.84940       62.84790      738.70453        -999.25      -33.16106     3287.64995
8135.50000        0.79424        0.59656        0.53850        0.48695        0.89721       66.94829      738.01740        -999.25      -30.83502     3263.04791
8136.00000        0.83000        0.59143        0.55054        0.50771        0.91633       71.54074      737.33027        -999.25      -27.01395     3238.44587
8136.50000        0.88399        0.60688        0.56285        0.52930        0.91633       76.46121      736.64313        -999.25      -23.18890     3253.60664
8137.00000        0.93324        0.62524        0.57548        0.54287        0.91633       81.21171      735.95600        -999.25      -19.90858     3268.37371
8137.50000        0.98524        0.63246        0.58835        0.55445        0.91633       85.85187      735.26887        -999.25      -16.75948     3273.69219
8138.00000        0.97785        0.65112        0.60150        0.56394        0.91633       89.56161      734.58174        -999.25      -15.39964     3272.31793
8138.50000        0.97965        0.67819        0.60272        0.56394        0.92390       88.82503      733.89461        -999.25      -19.20083     3270.94366
8139.00000        0.97938        0.67440        0.59585        0.55981        0.93107       83.49899      733.20748        -999.25      -23.61832     3249.88485
8139.50000        0.94262        0.66293        0.58905        0.53964        0.93864       75.67096      732.52034        -999.25      -28.03582     3228.82603
8140.00000        0.90724        0.65160        0.58127        0.52254        0.94581       67.84293      731.83321        -999.25      -31.85291     3239.65619
8140.50000        0.88806        0.63746        0.57028        0.51361        0.95458       64.71171      731.14608        -999.25      -33.27637     3250.48635
8141.00000        0.87592        0.62565        0.56125        0.50631        0.95617       66.32802      730.45895        -999.25      -33.29228     3261.71020
8141.50000        0.86435        0.61399        0.55236        0.49989        0.95617       67.94134      729.77182        -999.25      -32.11932     3280.80787
8142.00000        0.83596        0.60261        0.54362        0.49660        0.92430       68.47811      729.08468        -999.25      -30.37777     3302.26769
8142.50000        0.81289        0.59448        0.54138        0.49338        0.84462       68.29024      728.39755        -999.25      -30.50103     3323.72751
8143.00000        0.80754        0.59111        0.53910        0.49519        0.79083       67.79223      727.71042        -999.25      -31.11335     3344.79364
8143.50000        0.79673        0.59257        0.53865        0.50478        0.77530       66.02384      727.02329        -999.25      -31.72170     3366.25346
8144.00000        0.78461        0.59530        0.53865        0.51450        0.76016       63.93637      726.33616        -999.25      -31.49109     3309.36876
8144.50000        0.77268        0.59585        0.53865        0.52245        0.77131       65.36778      725.64903        -999.25      -28.38969     3200.91051
8145.00000        0.78174        0.59585        0.53865        0.53017        0.78964       71.24253      724.96189        -999.25      -22.79129     3142.17619
8145.50000        0.79621        0.59585        0.54362        0.53796        0.76215       81.53080      724.13734        -999.25      -15.75749     3153.00635
8146.00000        0.81096        0.59585        0.55176        0.54587        0.70398       90.48606      723.45020        -999.25       -8.72370     3163.83651
8146.50000        0.83957        0.60527        0.56783        0.55394        0.64581       94.10634      722.76307        -999.25       -5.06167     3217.18531
8147.00000        0.87287        0.62956        0.58432        0.55623        0.58765       94.08546      722.07594        -999.25       -4.53284     3274.86471
8147.50000        0.89797        0.65483        0.60134        0.54989        0.52948       92.22165      721.38881        -999.25      -10.66405     3273.49045
8148.00000        0.88635        0.65839        0.60134        0.54362        0.47649       90.35783      720.70168        -999.25      -16.79129     3257.54961
8148.50000        0.80282        0.62524        0.58234        0.53535        0.42510       89.16499      720.01455        -999.25      -20.43741     3241.60878
8149.00000        0.72184        0.59383        0.55925        0.51925        0.37330       89.66300      719.32741        -999.25      -22.42548     3225.66794
8149.50000        0.68657        0.56394        0.53643        0.50362        0.32151       90.15803      718.64028        -999.25      -23.74954     3209.72711
8150.00000        0.65309        0.55297        0.51450        0.48843        0.27012       90.65604      750.66390        -999.25      -22.42548     3264.17950
8150.50000        0.68666        0.57031        0.53224        0.49835        0.29365       92.14241      749.97406        -999.25      -17.80482     3262.79980
8151.00000        0.69678        0.58141        0.54524        0.50366        0.32024       93.82468      749.28421        -999.25      -14.18330     3261.42010
