~Version ---------------------------------------------------
VERS. 2.0 : CWLS LOG ASCII STANDARD - VERSION 2.0
WRAP. NO  : One line per depth step
DLM . SPACE : Column Data Section Delimiter
~Well ------------------------------------------------------
STRT.F       2826.5 : START DEPTH
STOP.F        11520 : STOP DEPTH
STEP.F          0.5 : STEP
NULL.       -999.25 : NULL VALUE
COMP.                       CASTEX ENERGY : COMPANY
WELL.          226761-LATERRECOINC-002-30 : WELL
FLD .                     FOUR LEAGUE BAY : FIELD
CNTY.                          TERREBONNE : COUNTY
STAT.                           LOUISIANA : STATE
CTRY.                                 USA : COUNTRY
SEC .                                     : SECTION
TWP .                                     : TOWNSHIP
RGE .                                     : RANGE
LOC .      812 FEL & 1373.6 FSL OF SEC 30 : LOCATION
EKB .F                       30 : ELEVATION KELLY BUSHING
EDF .F                       30 : ELEVATION DERRICK FLOOR
EGL .F                        8 : ELEVATION GROUND LEVEL
PDAT.                       MSL : PERMANENT DATUM
EPD .                           : ELEVATION PERMANENT DATUM
APD .                        30 : ABOVE PERMANENT DATUM
LMF .                        DF : LOG MEASURED FROM
DMF .                        DF : DRILLING MEASURED FROM
API .            17109238080000 : API NUMBER
UWI .            17109238080000 : UWI NUMBER
DIGC.                     NthDS : DIGITIZING COMPANY
~Params ----------------------------------------------------
SRVC.              SCHLUMBERGER : LOGGING COMPANY
LOG .              IND/GR/LD/CN : LOG
DATE.                2002-02-20 : RUN DATE
RUN .                         1 : RUN NUMBER
TDD .F                    11515 : TOTAL DEPTH DRILLER
TDL .F                    11522 : TOTAL DEPTH LOGGER
BOTL.F                    11514 : BOTTOM LOGGED INTERVAL
TOPL.F                     3057 : TOP LOGGED INTERVAL
CSGS.IN                  10.750 : CASING SIZE
CSGD.F                     3050 : CASING DRILLER
CSGL.F                     3057 : CASING LOGGER
BS  .IN                   9.875 : BIT SIZE
MUD .  TANNATHIN/ SPERESENE WBM : MUD TYPE
MUDD.                      10.3 : MUD DENSITY
MUDV.                        43 : MUD VISCOSITY
PH  .                      11.8 : MUD PH
FL  .                       5.8 : FLUID LOSS
MUDS.          CIRCULATION TANK : SOURCE OF SAMPLE
RM  .OHMM                 1.490 : MUD RESISTIVITY
RMT .DEGF                    70 : RM TEMPERATURE
RMF .OHMM                 0.870 : MUD FILTRATE RESISTIVITY
RMFT.DEGF                    70 : RMF TEMPERATURE
RMC .OHMM                 1.781 : MUD CAKE RESISTIVITY
RMCT.DEGF                    70 : RMC TEMPERATURE
RMFS.                   PRESSED : RMF SOURCE
RMCS.                   PRESSED : RMC SOURCE
RMBH.OHMM                 0.600 : MUD RESISTIVITY AT BHT
BHT .DEGF                   184 : BOTTOM HOLE TEMPERATURE
TIMC.           2345 2002-02-19 : TIME CIRCULATION STOPPED
TIML.           0800 2002-02-20 : TIME LOGGER ON BOTTOM
TMAX.DEGF                   184 : MAXIMUM RECORDED TEMPERATURE
UNIT.                      2015 : EQUIPMENT NUMBER
BASE.              HOUMA INLAND : BASE LOCATION
ENG .      JAMES S. MACLEAN III : RECORDED BY
WIT .             STEVE LUBANKO : WITNESSED BY
~Curve Information -----------------------------------------
DEPT.F          :DEPTH
AHT10.OHMM      :
AHT20.OHMM      :
AHT30.OHMM      :
AHT60.OHMM      :
DCAL.IN         :
GR.GAPI         :
HTEN.LBF        :
NPOR.V/V        :
SP.MV           :
TENS.LBF        :
~ASCII ------------------------------------------------------
# ...
11501.50000        0.91916        1.02149        1.12878        1.13240        2.12512        -999.25      753.05768        -999.25        8.48133     4675.86789
11502.00000        0.93468        1.02701        1.11819        1.16145        1.54915        -999.25      752.36372        -999.25        8.98590     4672.49194
11502.50000        0.92575        1.04072        1.09522        1.18095        0.38530        -999.25      751.66976        -999.25        9.49047     4669.11599
11503.00000        0.91681        1.05674        1.09362        1.18517       -1.09236        -999.25      750.97580        -999.25        9.99505     4665.74005
11503.50000        0.90631        1.07625        1.10872        1.19017       -3.05859        -999.25      750.28184        -999.25       10.21220     4662.36410
11504.00000        0.88923        1.09612        1.11636        1.18344       -4.94538        -999.25      749.58787        -999.25       10.35350     4658.59055
11504.50000        0.87048        1.08326        1.10528        1.17341       -5.85343        -999.25      748.75512        -999.25       10.52386     4655.21460
11505.00000        0.85213        1.06227        1.08703        1.15891       -6.09732        -999.25      748.06116        -999.25       10.66915     4651.83866
11505.50000        0.84383        1.04168        1.08168        1.14531       -6.25621        -999.25      747.36720        -999.25       10.81046     4647.78752
11506.00000        0.83806        1.02149        1.09542        1.13780       -6.25621        -999.25      746.67323        -999.25       10.88389     4653.15887
11506.50000        0.83119        1.02009        1.11218        1.14301       -6.25621        -999.25      745.97927        -999.25       10.66592     4658.13262
11507.00000        0.82551        1.03787        1.12630        1.14741       -6.25621        -999.25      745.28531        -999.25       10.45193     4663.50397
11507.50000        0.83691        1.05607        1.14051        1.16060       -6.25621        -999.25      729.87998        -999.25       10.23395     4668.87533
11508.00000        0.85627        1.07458        1.15499        1.17395       -6.25621        -999.25      735.34889        -999.25       10.01997     4673.84907
11508.50000        0.87607        1.09332        1.15795        1.18745       -6.25621        -999.25      741.01660        -999.25        9.80199     4679.22043
11509.00000        0.89633        1.11248        1.16592        1.20110       -6.25621        -999.25      746.68431        -999.25       10.04708     4684.59178
11509.50000        0.89839        1.09612        1.15204        1.17502       -6.25621        -999.25      752.35202        -999.25       10.47293     4689.56553
11510.00000        0.88817        1.07625        1.13572        1.15373       -6.25621        -999.25      759.07375        -999.25       10.83379     4694.93688
11510.50000        0.89086        1.07046        1.11953        1.13873       -6.25621        -999.25      764.74146        -999.25       11.19066     4700.30823
11511.00000        0.89363        1.06470        1.11973        1.14741       -6.25621        -999.25      770.40917        -999.25       11.54753     4706.59482
11511.50000        0.89633        1.05907        1.12404        1.15615       -6.25621        -999.25      776.07688        -999.25       11.90440     4717.93024
11512.00000        0.88057        1.04952        1.12363        1.14395       -6.25621        -999.25      777.96735        -999.25       12.09361     4754.31474
11512.50000        0.86500        1.03759        1.11636        1.12661       -6.25621        -999.25      777.27339        -999.25       11.60018     4791.09685
11513.00000        0.84676        1.02345        1.09212        1.10619       -6.25621        -999.25      776.57942        -999.25       11.10676     4827.48136
11513.50000        0.83883        1.01925        1.07232        1.09863       -6.25621        -999.25      813.26029        -999.25       10.61333     4863.86586
11514.00000        0.83561        1.01990        1.05288        1.10498       -6.25621        -999.25      834.83218        -999.25       10.84246     4877.58691
11514.50000        0.83248        1.02065        1.03806        1.10923       -6.25621        -999.25      834.13822        -999.25       11.08068     4891.70556
11515.00000        0.82929        1.02139        1.04015        1.11299       -6.25621        -999.25      833.44425        -999.25       11.22997     4880.37753
11515.50000        0.82611        1.02205        1.04234        1.11676       -6.25621        -999.25      832.61150        -999.25       11.37925     4831.67466
11516.00000        0.82830        1.02298        1.04492        1.12127        -999.25        -999.25      831.91754        -999.25       11.44071     4782.97180
11516.50000        0.83104        1.02364        1.04712        1.12507        -999.25        -999.25      831.22358        -999.25       11.00318     4724.44884
11517.00000        0.83385        1.02439        1.05077        1.11340        -999.25        -999.25      830.52961        -999.25       10.56564     4717.89206
11517.50000        0.83660        1.02514        1.05452        1.09512        -999.25        -999.25      829.83565        -999.25       10.12810     4774.55440
11518.00000        0.83944        1.02579        1.05481        1.09042        -999.25        -999.25      829.14169        -999.25       10.05383     4831.21674
11518.50000        0.84228        1.02654        1.05000        1.08564        -999.25        -999.25      828.44773        -999.25       10.53046     4887.87907
11519.00000        0.83591        1.02739        1.04425        1.08000        -999.25        -999.25      827.75377        -999.25       11.00310     4944.54141
11519.50000        0.83875        1.02814        1.03949        1.07134        -999.25        -999.25      824.07777        -999.25       11.48085     4948.32234
11520.00000        -999.25        -999.25        -999.25        -999.25        -999.25        -999.25        -999.25        -999.25       10.28882     4917.11408
