~Version ---------------------------------------------------
VERS. 2.0 : CWLS LOG ASCII STANDARD - VERSION 2.0
WRAP. NO  : One line per depth step
DLM . SPACE : Column Data Section Delimiter
~Well ------------------------------------------------------
STRT.F       2826.5 : START DEPTH
STOP.F        11520 : STOP DEPTH
STEP.F          0.5 : STEP
NULL.       -999.25 : NULL VALUE
COMP.                       CASTEX ENERGY : COMPANY
WELL.          226761-LATERRECOINC-002-30 : WELL
FLD .                     FOUR LEAGUE BAY : FIELD
CNTY.                          TERREBONNE : COUNTY
STAT.                           LOUISIANA : STATE
CTRY.                                 USA : COUNTRY
SEC .                                     : SECTION
TWP .                                     : TOWNSHIP
RGE .                                     : RANGE
LOC .      812 FEL & 1373.6 FSL OF SEC 30 : LOCATION
EKB .F                       30 : ELEVATION KELLY BUSHING
EDF .F                       30 : ELEVATION DERRICK FLOOR
EGL .F                        8 : ELEVATION GROUND LEVEL
PDAT.                       MSL : PERMANENT DATUM
EPD .                           : ELEVATION PERMANENT DATUM
APD .                        30 : ABOVE PERMANENT DATUM
LMF .                        DF : LOG MEASURED FROM
DMF .                        DF : DRILLING MEASURED FROM
API .            17109238080000 : API NUMBER
UWI .            17109238080000 : UWI NUMBER
DIGC.                     NthDS : DIGITIZING COMPANY
~Params ----------------------------------------------------
SRVC.              SCHLUMBERGER : LOGGING COMPANY
LOG .              IND/GR/LD/CN : LOG
DATE.                2002-02-20 : RUN DATE
RUN .                         1 : RUN NUMBER
TDD .F                    11515 : TOTAL DEPTH DRILLER
TDL .F                    11522 : TOTAL DEPTH LOGGER
BOTL.F                    11514 : BOTTOM LOGGED INTERVAL
TOPL.F                     3057 : TOP LOGGED INTERVAL
CSGS.IN                  10.750 : CASING SIZE
CSGD.F                     3050 : CASING DRILLER
CSGL.F                     3057 : CASING LOGGER
BS  .IN                   9.875 : BIT SIZE
MUD .  TANNATHIN/ SPERESENE WBM : MUD TYPE
MUDD.                      10.3 : MUD DENSITY
MUDV.                        43 : MUD VISCOSITY
PH  .                      11.8 : MUD PH
FL  .                       5.8 : FLUID LOSS
MUDS.          CIRCULATION TANK : SOURCE OF SAMPLE
RM  .OHMM                 1.490 : MUD RESISTIVITY
RMT .DEGF                    70 : RM TEMPERATURE
RMF .OHMM                 0.870 : MUD FILTRATE RESISTIVITY
RMFT.DEGF                    70 : RMF TEMPERATURE
RMC .OHMM                 1.781 : MUD CAKE RESISTIVITY
RMCT.DEGF                    70 : RMC TEMPERATURE
RMFS.                   PRESSED : RMF SOURCE
RMCS.                   PRESSED : RMC SOURCE
RMBH.OHMM                 0.600 : MUD RESISTIVITY AT BHT
BHT .DEGF                   184 : BOTTOM HOLE TEMPERATURE
TIMC.           2345 2002-02-19 : TIME CIRCULATION STOPPED
TIML.           0800 2002-02-20 : TIME LOGGER ON BOTTOM
TMAX.DEGF                   184 : MAXIMUM RECORDED TEMPERATURE
UNIT.                      2015 : EQUIPMENT NUMBER
BASE.              HOUMA INLAND : BASE LOCATION
ENG .      JAMES S. MACLEAN III : RECORDED BY
WIT .             STEVE LUBANKO : WITNESSED BY
~Curve Information -----------------------------------------
DEPT.F          :DEPTH
AHT10.OHMM      :
AHT20.OHMM      :
AHT30.OHMM      :
AHT60.OHMM      :
DCAL.IN         :
GR.GAPI         :
HTEN.LBF        :
NPOR.V/V        :
SP.MV           :
TENS.LBF        :
~ASCII ------------------------------------------------------
# ...
3626.50000        0.47083        0.29904        0.24875        0.20558        6.33466       36.90475      715.05177        -999.25      -66.74605     2215.05432
3627.00000        0.48423        0.30327        0.25387        0.20498        6.43426       37.02975      714.06167        -999.25      -66.74605     2214.26224
3627.50000        0.48534        0.30352        0.25290        0.20436        6.53386       37.15178      713.26959        -999.25      -66.74605     2213.47017
3628.00000        0.47748        0.30108        0.25167        0.20376        6.61912       37.09225      713.46761        -999.25      -66.74605     2212.67809
3628.50000        0.46971        0.29866        0.25047        0.20316        6.69840       36.90475      714.25969        -999.25      -67.14288     2211.88601
3629.00000        0.46614        0.29740        0.24926        0.20257        6.77291       35.41666      715.05177        -999.25      -67.53971     2211.09393
3629.50000        0.47135        0.30083        0.25213        0.20195        6.91514       33.92856      715.84385        -999.25      -67.53971     2210.30185
3630.00000        0.47665        0.30221        0.25504        0.20184        7.10358       35.11904      716.63592        -999.25      -67.93653     2209.50977
3630.50000        0.48197        0.30332        0.25798        0.20184        7.32271       37.10416      717.62602        -999.25      -68.33336     2208.71769
3631.00000        0.48735        0.30612        0.26069        0.20184        7.57769       38.69047      718.41810        -999.25      -68.73018     2207.92561
3631.50000        0.49279        0.30894        0.26336        0.20184        7.85657       38.69047      719.21018        -999.25      -69.12701     2206.73749
3632.00000        0.49834        0.30971        0.26336        0.20184        8.05777       38.69047      720.00226        -999.25      -69.12701     2205.94542
3632.50000        0.49633        0.30733        0.26208        0.20184        8.20717       38.69047      720.99236        -999.25      -69.12701     2205.15334
3633.00000        0.48937        0.30500        0.26048        0.20184        8.33665       38.69047      721.78444        -999.25      -68.73018     2204.36126
3633.50000        0.48250        0.30268        0.25888        0.20184        8.38645       38.45237      722.77454        -999.25      -68.33336     2203.56918
3634.00000        0.47256        0.30036        0.25772        0.20184        8.43028       36.80654      723.56662        -999.25      -67.93653     2202.77710
3634.50000        0.46278        0.29992        0.25664        0.20184        8.43028       34.82142      724.35869        -999.25      -67.93653     2201.98502
3635.00000        0.46087        0.30066        0.25558        0.20184        8.40358       33.03571      725.34879        -999.25      -68.33336     2201.19294
3635.50000        0.46087        0.30144        0.25450        0.20184        8.37729       35.89880      726.14087        -999.25      -68.33336     2200.00482
3636.00000        0.46087        0.30221        0.25415        0.20184        8.38167       38.75892      726.93295        -999.25      -67.53971     2199.21274
3636.50000        0.47005        0.30433        0.25483        0.20184        8.40637       40.62499      727.72503        -999.25      -67.53971     2198.42066
3637.00000        0.48184        0.30646        0.25553        0.20184        8.49681       39.24404      728.71513        -999.25      -67.17859     2198.42066
3637.50000        0.49112        0.30860        0.25621        0.20184        8.58765       37.20237      729.50721        -999.25      -67.26986     2199.21274
3638.00000        0.48932        0.31122        0.25824        0.20425        8.71633       38.59225      730.29929        -999.25      -67.37701     2200.00482
3638.50000        0.48784        0.31339        0.25993        0.21035        8.84462       39.43451      731.09137        -999.25      -67.46828     2200.79690
3639.00000        0.48919        0.31559        0.26165        0.21664        9.04382       38.86904      732.08147        -999.25      -67.51590     2201.58898
3639.50000        0.49483        0.31779        0.26336        0.22113        9.28286       37.59821      732.87354        -999.25      -67.38891     2202.38106
3640.00000        0.50054        0.32002        0.26579        0.22436        9.68127       37.49999      733.66562        -999.25      -67.26590     2203.17314
3640.50000        0.50775        0.32226        0.26824        0.22764       10.47808       38.98809      734.45770        -999.25      -67.14288     2203.96522
3641.00000        0.52101        0.32651        0.27071        0.23094       11.11553       39.76190      735.24978        -999.25      -67.14288     2204.75730
3641.50000        0.53466        0.33082        0.27320        0.23162       11.71314       38.98809      736.04186        -999.25      -67.14288     2205.94542
3642.00000        0.54863        0.33375        0.27572        0.23071       12.31075       36.64880      737.03196        -999.25      -67.14288     2206.73749
3642.50000        0.54447        0.33097        0.27446        0.22959       12.76613       36.49701      737.82404        -999.25      -67.14288     2207.52957
3643.00000        0.54029        0.32822        0.27320        0.22848       12.94820       37.79761      738.61612        -999.25      -67.14288     2208.32165
3643.50000        0.52799        0.32573        0.27059        0.22737       12.58964       41.88987      739.40820        -999.25      -67.14288     2209.11373
3644.00000        0.51065        0.32323        0.26797        0.22626       11.65059       43.79166      740.20028        -999.25      -67.14288     2209.90581
3644.50000        0.49953        0.31899        0.26540        0.22515       10.30876       42.41070      740.99235        -999.25      -67.14288     2211.09393
3645.00000        0.49697        0.31365        0.26285        0.22405        8.69840       41.02975      741.78443        -999.25      -67.14288     2211.88601
3645.50000        0.49090        0.30840        0.26033        0.22297        7.37051       40.32737      742.57651        -999.25      -66.74605     2212.67809
3646.00000        0.48250        0.30324        0.25782        0.22189        7.27769       39.79463      743.36859        -999.25      -66.34923     2213.47017
3646.50000        0.48250        0.30221        0.25534        0.22091        7.46693       38.83928      744.16067        -999.25      -65.95240     2214.26224
3647.00000        0.47508        0.29921        0.25294        0.22010        7.68725       37.88392      744.95275        -999.25      -64.76193     2215.05432
3647.50000        0.46299        0.29550        0.25063        0.21930        7.90717       37.88392      745.74483        -999.25      -62.94844     2215.84640
3648.00000        0.45121        0.29159        0.24834        0.21849        8.12749       38.52082      746.53691        -999.25      -61.45637     2216.63848
3648.50000        0.44236        0.28761        0.24608        0.21769        7.89522       39.15773      747.32899        -999.25      -61.12304     2217.43056
3649.00000        0.43759        0.28603        0.24441        0.21689        7.32271       39.54166      748.12107        -999.25      -60.79368     2218.22264
3649.50000        0.43292        0.28603        0.24361        0.21610        6.66534       39.86011      748.91314        -999.25      -60.46431     2219.01472
3650.00000        0.42826        0.28313        0.24280        0.21531        6.31075       40.17856      749.70522        -999.25      -59.79368     2219.80680
3650.50000        0.42956        0.28227        0.24412        0.21634        6.25059       39.72331      730.89335        -999.25      -58.09884     2181.39097
3651.00000        0.42740        0.27939        0.24338        0.21555        6.20358       38.73616      731.68543        -999.25      -57.34785     2182.18304
