~Version ---------------------------------------------------
VERS. 2.0 : CWLS LOG ASCII STANDARD - VERSION 2.0
WRAP. NO  : One line per depth step
DLM . SPACE : Column Data Section Delimiter
~Well ------------------------------------------------------
STRT.F       2826.5 : START DEPTH
STOP.F        11520 : STOP DEPTH
STEP.F          0.5 : STEP
NULL.       -999.25 : NULL VALUE
COMP.                       CASTEX ENERGY : COMPANY
WELL.          226761-LATERRECOINC-002-30 : WELL
FLD .                     FOUR LEAGUE BAY : FIELD
CNTY.                          TERREBONNE : COUNTY
STAT.                           LOUISIANA : STATE
CTRY.                                 USA : COUNTRY
SEC .                                     : SECTION
TWP .                                     : TOWNSHIP
RGE .                                     : RANGE
LOC .      812 FEL & 1373.6 FSL OF SEC 30 : LOCATION
EKB .F                       30 : ELEVATION KELLY BUSHING
EDF .F                       30 : ELEVATION DERRICK FLOOR
EGL .F                        8 : ELEVATION GROUND LEVEL
PDAT.                       MSL : PERMANENT DATUM
EPD .                           : ELEVATION PERMANENT DATUM
APD .                        30 : ABOVE PERMANENT DATUM
LMF .                        DF : LOG MEASURED FROM
DMF .                        DF : DRILLING MEASURED FROM
API .            17109238080000 : API NUMBER
UWI .            17109238080000 : UWI NUMBER
DIGC.                     NthDS : DIGITIZING COMPANY
~Params ----------------------------------------------------
SRVC.              SCHLUMBERGER : LOGGING COMPANY
LOG .              IND/GR/LD/CN : LOG
DATE.                2002-02-20 : RUN DATE
RUN .                         1 : RUN NUMBER
TDD .F                    11515 : TOTAL DEPTH DRILLER
TDL .F                    11522 : TOTAL DEPTH LOGGER
BOTL.F                    11514 : BOTTOM LOGGED INTERVAL
TOPL.F                     3057 : TOP LOGGED INTERVAL
CSGS.IN                  10.750 : CASING SIZE
CSGD.F                     3050 : CASING DRILLER
CSGL.F                     3057 : CASING LOGGER
BS  .IN                   9.875 : BIT SIZE
MUD .  TANNATHIN/ SPERESENE WBM : MUD TYPE
MUDD.                      10.3 : MUD DENSITY
MUDV.                        43 : MUD VISCOSITY
PH  .                      11.8 : MUD PH
FL  .                       5.8 : FLUID LOSS
MUDS.          CIRCULATION TANK : SOURCE OF SAMPLE
RM  .OHMM                 1.490 : MUD RESISTIVITY
RMT .DEGF                    70 : RM TEMPERATURE
RMF .OHMM                 0.870 : MUD FILTRATE RESISTIVITY
RMFT.DEGF                    70 : RMF TEMPERATURE
RMC .OHMM                 1.781 : MUD CAKE RESISTIVITY
RMCT.DEGF                    70 : RMC TEMPERATURE
RMFS.                   PRESSED : RMF SOURCE
RMCS.                   PRESSED : RMC SOURCE
RMBH.OHMM                 0.600 : MUD RESISTIVITY AT BHT
BHT .DEGF                   184 : BOTTOM HOLE TEMPERATURE
TIMC.           2345 2002-02-19 : TIME CIRCULATION STOPPED
TIML.           0800 2002-02-20 : TIME LOGGER ON BOTTOM
TMAX.DEGF                   184 : MAXIMUM RECORDED TEMPERATURE
UNIT.                      2015 : EQUIPMENT NUMBER
BASE.              HOUMA INLAND : BASE LOCATION
ENG .      JAMES S. MACLEAN III : RECORDED BY
WIT .             STEVE LUBANKO : WITNESSED BY
~Curve Information -----------------------------------------
DEPT.F          :DEPTH
AHT10.OHMM      :
AHT20.OHMM      :
AHT30.OHMM      :
AHT60.OHMM      :
DCAL.IN         :
GR.GAPI         :
HTEN.LBF        :
NPOR.V/V        :
SP.MV           :
TENS.LBF        :
~ASCII ------------------------------------------------------
# ...
7001.50000        0.80466        0.77304        0.76331        0.69641       -0.05578      118.98605      774.92829        -999.25       -6.52091     2863.08848
7002.00000        0.80009        0.77389        0.73825        0.69163       -0.05259      117.56657      776.01491        -999.25       -6.65212     2861.71150
7002.50000        0.79548        0.77552        0.71407        0.69961       -0.10877      116.16200      777.29876        -999.25       -7.31614     2860.33453
7003.00000        0.79716        0.78858        0.70496        0.70768       -0.05419      114.75743      778.38538        -999.25       -8.64020     2858.95755
7003.50000        0.82416        0.79054        0.70282        0.70411        0.00000      112.87274      779.66923        -999.25      -15.12528     2855.60824
7004.00000        0.85214        0.74882        0.69005        0.64778        0.25697      107.86578      780.75584        -999.25      -22.89467     2852.25893
7004.50000        0.80865        0.70930        0.64417        0.58501        0.34781      101.26339      781.84246        -999.25      -30.01594     2848.51515
7005.00000        0.74683        0.65459        0.60134        0.55399        0.43824       94.66101      783.12631        -999.25      -36.70381     2844.77137
7005.50000        0.67750        0.60410        0.56741        0.52466        0.25219       91.55067      784.21293        -999.25      -42.10738     2841.42206
7006.00000        0.65712        0.58770        0.53920        0.49683        0.06653       91.15405      785.29955        -999.25      -42.60440     2837.67828
7006.50000        0.67750        0.58862        0.54506        0.49515       -0.11952       90.15803      786.58340        -999.25      -39.80520     2833.26464
7007.00000        0.70930        0.58770        0.55368        0.51422       -0.10160       89.46320      787.67002        -999.25      -35.26444     2829.91532
7007.50000        0.73750        0.60134        0.55368        0.53403       -0.08327       91.35982      789.01340        -999.25      -28.52091     2826.17154
7008.00000        0.76331        0.61433        0.56971        0.55460        0.03984       93.25942      790.10002        -999.25      -24.01594     2822.42776
7008.50000        0.78361        0.62381        0.61185        0.58501        0.18924       96.38169      791.38387        -999.25      -21.49904     2818.68398
7009.00000        0.79980        0.64648        0.64122        0.61953        0.30358       99.81111      792.47049        -999.25      -21.01395     2815.33467
7009.50000        0.81327        0.66996        0.66111        0.65609        0.36534      102.28626      793.75434        -999.25      -20.65610     2811.59089
7010.00000        0.81956        0.69430        0.67999        0.68689        0.42709      100.62821      794.24926        -999.25      -19.64218     2807.84711
7010.50000        0.81394        0.71230        0.69513        0.70006        0.50159       97.44928      792.77183        -999.25      -17.31614     2804.49780
7011.00000        0.80932        0.71735        0.70800        0.69897        0.56334       97.61330      791.29441        -999.25      -15.48314     2800.75402
7011.50000        0.81245        0.72244        0.73325        0.71748        0.62510       98.48407      789.81699        -999.25      -13.64616     2797.01024
7012.00000        0.84050        0.76936        0.77852        0.76233        0.61912       98.13815      788.33957        -999.25      -12.96226     2799.97241
7012.50000        0.89009        0.83773        0.82666        0.81394        0.59601       95.97016      786.86214        -999.25      -12.24656     2812.00734
7013.00000        0.86936        0.82363        0.81821        0.80230        0.57291       94.03477      785.38472        -999.25      -11.19288     2824.43673
7013.50000        0.79651        0.76633        0.76633        0.75634        0.55020       93.04173      783.90730        -999.25      -10.07558     2836.47165
7014.00000        0.73359        0.71302        0.71774        0.71302        0.52709       95.12920      782.42988        -999.25       -8.95829     2848.90104
7014.50000        0.72409        0.70282        0.70399        0.70813        0.53506       93.83795      780.95245        -999.25       -9.28035     2860.93597
7015.00000        0.73676        0.71959        0.74014        0.73825        0.56334       91.84888      779.47503        -999.25      -10.56863     2865.08154
7015.50000        0.75634        0.74116        0.77035        0.76682        0.59203       92.44531      777.99761        -999.25      -11.85292     2863.70457
7016.00000        0.79184        0.76331        0.76373        0.74519        0.62032       93.19083      776.52019        -999.25      -12.61634     2860.74972
7016.50000        0.76971        0.74944        0.73130        0.71492        0.63227       95.42741      775.04277        -999.25      -11.25252     2855.54715
7017.00000        0.72303        0.69961        0.70031        0.68582        0.61872       98.03676      773.56534        -999.25       -9.86087     2851.01443
7017.50000        0.69641        0.68168        0.67064        0.65796        0.60558      100.19878      771.75299        -999.25       -9.30421     2846.87618
7018.00000        0.69641        0.68262        0.66366        0.65525        0.61075      101.68984      770.27557        -999.25       -9.38771     2842.34347
7018.50000        0.70411        0.69119        0.67521        0.67601        0.64422      102.09540      768.79815        -999.25       -9.49109     2838.20522
7019.00000        0.71715        0.70373        0.68205        0.69743        0.67729      101.77632      767.32072        -999.25       -9.59845     2833.67251
7019.50000        0.74259        0.72244        0.68777        0.71952        0.71235      101.45425      765.84330        -999.25       -9.70183     2829.53426
7020.00000        0.77745        0.75634        0.69481        0.74232        0.74741      102.58447      764.36588        -999.25      -10.89467     2825.00154
7020.50000        0.82901        0.79184        0.77035        0.76894        0.78964      104.37373      762.88846        -999.25      -13.02986     2820.86330
7021.00000        0.88993        0.77035        0.79548        0.76331        0.77928      104.79123      761.41103        -999.25      -17.75351     2816.33058
7021.50000        0.95524        0.72796        0.75357        0.71485        0.75697      100.73556      759.93361        -999.25      -23.88473     2812.19233
7022.00000        0.89091        0.65911        0.69386        0.64760        0.73466       88.90853      758.45619        -999.25      -30.95033     2807.65962
7022.50000        0.76275        0.59886        0.61868        0.58668        0.66653       76.54173      754.61196        -999.25      -39.78929     2790.89841
7023.00000        0.65309        0.54407        0.53999        0.51469        0.41434       74.25446      749.18986        -999.25      -49.53879     2754.41382
7023.50000        0.56564        0.48397        0.47126        0.44199        0.16215       70.77434      743.76777        -999.25      -59.60241     2718.32369
7024.00000        0.48995        0.42826        0.41132        0.37956       -0.04662       70.40754      738.34567        -999.25      -69.66603     2682.23357
7024.50000        0.42435        0.37813        0.35900        0.32594       -0.08128       71.45127      743.17973        -999.25      -77.09744     2723.06463
7025.00000        0.38074        0.33387        0.31331        0.27990       -0.11594       70.55664      763.20079        -999.25      -79.28431     2763.89569
7025.50000        0.34162        0.29945        0.27572        0.25155       -0.15060       67.07652      783.41908        -999.25      -78.62030     2792.49825
7026.00000        0.33295        0.28603        0.26824        0.24189       -0.18526       63.30118      803.44015        -999.25      -80.07954     2771.39790
